[{"id":"shop-mi-bridgeport-gobeyne-s-service","name":"Gobeyne's Service","slug":"mi-bridgeport-gobeyne-s-service","lat":43.3587437,"lng":-83.8813484,"state":"MI","city":"Bridgeport","address":"5800 Dixie Highway","zip":"48722","phone":"","email":"","website":"","hours":"","brand":"","services":["general_repair"],"shopType":"general_repair"},{"id":"shop-mi-iron-mountain-goodyear","name":"Goodyear","slug":"mi-iron-mountain-goodyear","lat":45.8224489,"lng":-88.0651711,"state":"MI","city":"Iron Mountain","address":"105 North Stephenson Avenue","zip":"49801","phone":"+1 906 774 1002","email":"","website":"","hours":"","brand":"Goodyear","services":["general_repair"],"shopType":"general_repair"},{"id":"shop-mi-holland-gary-s-automotive","name":"Gary's Automotive","slug":"mi-holland-gary-s-automotive","lat":42.7732443,"lng":-86.0969381,"state":"MI","city":"Holland","address":"639 Lincoln Avenue","zip":"49423","phone":"+1 616 392 6689","email":"","website":"https://garysvwsales.com","hours":"Mo-Th 07:30-17:30, Fr 07:30-17:00","brand":"","services":["general_repair"],"shopType":"general_repair"},{"id":"shop-mi-farmington-hills-tuffy-tire-auto-service","name":"Tuffy Tire & Auto Service","slug":"mi-farmington-hills-tuffy-tire-auto-service","lat":42.4693068,"lng":-83.4164232,"state":"MI","city":"Farmington Hills","address":"24301 Halsted Road","zip":"48335","phone":"+1-248-306-9477","email":"","website":"https://www.tuffyfarmington.com/","hours":"Mo-Fr 08:00-18:00; Sa 08:00-17:00; Su off","brand":"Tuffy","services":["tires"],"shopType":"tire_shop"},{"id":"shop-mi-houghton-keweenaw-automotive","name":"Keweenaw Automotive","slug":"mi-houghton-keweenaw-automotive","lat":47.1087961,"lng":-88.5912522,"state":"MI","city":"Houghton","address":"1500 Memorial Drive","zip":"49931","phone":"+1-906-482-7988","email":"","website":"https://www.keweenawautomotive.com/","hours":"","brand":"","services":["car_repair","used_car_sales"],"shopType":"general_repair"},{"id":"shop-mi-south-haven-romes-standard-service","name":"Romes Standard Service","slug":"mi-south-haven-romes-standard-service","lat":42.3823709,"lng":-86.2680133,"state":"MI","city":"South Haven","address":"09605 Blue Star Highway","zip":"49090","phone":"+1 269 637 5800","email":"","website":"https://www.romesautocare.com/","hours":"","brand":"","services":["general_repair"],"shopType":"general_repair"},{"id":"shop-mi-ann-arbor-auto-tech-center","name":"Auto Tech Center","slug":"mi-ann-arbor-auto-tech-center","lat":42.2821286,"lng":-83.8066812,"state":"MI","city":"Ann Arbor","address":"213 Aprill Drive","zip":"48103","phone":"+1 734-761-1661","email":"","website":"https://www.auto-tech.us/","hours":"Mo-Fr 07:30-17:30","brand":"","services":["tires","brakes"],"shopType":"general_repair"},{"id":"shop-mi-midland-safelite-autoglass","name":"Safelite AutoGlass","slug":"mi-midland-safelite-autoglass","lat":43.6678597,"lng":-84.2465939,"state":"MI","city":"Midland","address":"1609 Commerce Drive","zip":"48642","phone":"+1 989 664 8931","email":"","website":"","hours":"Mo-Fr 08:00-17:00; Sa 08:00-12:00","brand":"Safelite AutoGlass","services":["glass"],"shopType":"general_repair"},{"id":"shop-mi-midland-pennzoil-10-minute-oil-change","name":"Pennzoil 10 Minute Oil Change","slug":"mi-midland-pennzoil-10-minute-oil-change","lat":43.6126046,"lng":-84.2169275,"state":"MI","city":"Midland","address":"1304 Washington Street","zip":"48640","phone":"","email":"","website":"","hours":"","brand":"","services":["oil_change"],"shopType":"quick_lube"},{"id":"shop-mi-midland-pioneer-quick-lube","name":"Pioneer Quick Lube","slug":"mi-midland-pioneer-quick-lube","lat":43.6416015,"lng":-84.2528436,"state":"MI","city":"Midland","address":"2112 North Saginaw Road","zip":"48640","phone":"+1 989 631 7101","email":"","website":"","hours":"","brand":"","services":["oil_change"],"shopType":"quick_lube"},{"id":"shop-mi-fraser-car-guys-auto-center","name":"Car Guys Auto Center","slug":"mi-fraser-car-guys-auto-center","lat":42.5363764,"lng":-82.9380985,"state":"MI","city":"Fraser","address":"32639 Groesbeck Highway","zip":"48026","phone":"+1-586-285-4444","email":"","website":"https://www.carguysautocenter.com/","hours":"","brand":"","services":["general_repair"],"shopType":"general_repair"},{"id":"shop-mi-dearborn-heights-harmon-autoglass-glass-doctor","name":"Harmon Autoglass Glass Doctor","slug":"mi-dearborn-heights-harmon-autoglass-glass-doctor","lat":42.2695596,"lng":-83.2575682,"state":"MI","city":"Dearborn Heights","address":"22850 Van Born Road","zip":"","phone":"","email":"","website":"","hours":"","brand":"","services":["glass"],"shopType":"general_repair"},{"id":"shop-mi-midland-valvoline","name":"Valvoline","slug":"mi-midland-valvoline","lat":43.6184553,"lng":-84.2176795,"state":"MI","city":"Midland","address":"1115 South Saginaw Road","zip":"48640","phone":"+1 989 832 8785","email":"","website":"https://store.vioc.com/mi/midland/oil-change-030078.html","hours":"Mo-Fr 08:00-19:30; Sa 08:00-18:00; Su 09:00-17:00","brand":"Valvoline","services":["oil_change"],"shopType":"quick_lube"},{"id":"shop-mi-ypsilanti-belle-tire","name":"Belle Tire","slug":"mi-ypsilanti-belle-tire","lat":42.242112,"lng":-83.6819606,"state":"MI","city":"Ypsilanti","address":"3250 Carpenter Road","zip":"48197","phone":"+1 734-230-7994","email":"","website":"https://www.belletire.com/stores/detail/20/belle-tire-ypsilanti-mi","hours":"Mo 08:00-20:00; Tu-We 08:00-18:00; Th 08:00-20:00; Fr 08:00-18:00; Sa 08:00-17:00; Su closed","brand":"Belle Tire","services":["tires","oil_change","alignment"],"shopType":"general_repair"},{"id":"shop-mi-northville-oil-exchange","name":"Oil Exchange","slug":"mi-northville-oil-exchange","lat":42.4237445,"lng":-83.4735837,"state":"MI","city":"Northville","address":"19086 Northville Road","zip":"","phone":"+1 248 924 2375","email":"","website":"https://www.oilexchangenorthville.com/","hours":"Mo-Sa 08:00-18:00","brand":"","services":["oil_change"],"shopType":"quick_lube"},{"id":"shop-mi-bay-city-west-side-auto-repair","name":"West Side Auto Repair","slug":"mi-bay-city-west-side-auto-repair","lat":43.5800983,"lng":-83.9064329,"state":"MI","city":"Bay City","address":"209 Salzburg Ave","zip":"48706","phone":"","email":"","website":"","hours":"","brand":"","services":["general_repair"],"shopType":"general_repair"},{"id":"shop-mi-walled-lake-mo-s-garage","name":"Mo's Garage","slug":"mi-walled-lake-mo-s-garage","lat":42.538901,"lng":-83.4752,"state":"MI","city":"Walled Lake","address":"1237 East West Maple Road","zip":"48390","phone":"","email":"","website":"","hours":"","brand":"","services":["general_repair"],"shopType":"general_repair"},{"id":"shop-mi-freeland-wizard-automotive","name":"Wizard Automotive","slug":"mi-freeland-wizard-automotive","lat":43.5243733,"lng":-84.1105577,"state":"MI","city":"Freeland","address":"1080 East Washington Avenue","zip":"48623","phone":"+1 989 244 1622","email":"","website":"","hours":"","brand":"","services":["general_repair"],"shopType":"general_repair"},{"id":"shop-mi-wayland-auto-body-xperts","name":"Auto Body Xperts","slug":"mi-wayland-auto-body-xperts","lat":42.6747285,"lng":-85.6519714,"state":"MI","city":"Wayland","address":"126 Railroad Street","zip":"49348","phone":"+1-888-669-6692","email":"","website":"https://autobodyxperts.com/","hours":"","brand":"","services":["body_work"],"shopType":"body_shop"},{"id":"shop-mi-chesterfield-tow-truck-chesterfield","name":"Tow Truck Chesterfield","slug":"mi-chesterfield-tow-truck-chesterfield","lat":42.6392405,"lng":-82.8533817,"state":"MI","city":"Chesterfield","address":"45999 Royal Drive","zip":"48051","phone":"+1-586-501-8700","email":"","website":"http://towtruckchesterfield.com/","hours":"","brand":"","services":["general_repair"],"shopType":"general_repair"},{"id":"shop-mi-troy-tow-truck-troy","name":"Tow Truck Troy","slug":"mi-troy-tow-truck-troy","lat":42.5594517,"lng":-83.094905,"state":"MI","city":"Troy","address":"2594 Athena Drive","zip":"48083","phone":"+1-248-292-3707","email":"","website":"https://towtrucktroy.com/","hours":"","brand":"","services":["towing"],"shopType":"general_repair"},{"id":"shop-mi-garden-city-pfromm-s-automotive-service","name":"Pfromm's Automotive Service","slug":"mi-garden-city-pfromm-s-automotive-service","lat":42.3264724,"lng":-83.3619421,"state":"MI","city":"Garden City","address":"32625 Industrial Road","zip":"48135","phone":"+1-734-425-3266","email":"","website":"http://www.pfrommsautosvcs.com","hours":"Mo-Fr 09:00-18:00; Sa 09:00-17:00; Su off","brand":"","services":["oil_change","electrical","suspension","engine_repair","ac","brakes"],"shopType":"general_repair"},{"id":"shop-mi-southfield-smiley-s-quick-lube-auto-repair","name":"Smiley's Quick Lube & Auto Repair","slug":"mi-southfield-smiley-s-quick-lube-auto-repair","lat":42.4425755,"lng":-83.3163456,"state":"MI","city":"Southfield","address":"273642 8 Mile Road","zip":"48033","phone":"+1-248-355-2232","email":"smileymurad61@gmail.com","website":"http://smileysquicklube.com","hours":"","brand":"","services":["oil_change"],"shopType":"quick_lube"},{"id":"shop-mi-st-clair-shores-tow-truck-st-clair-shores","name":"Tow Truck St Clair Shores","slug":"mi-st-clair-shores-tow-truck-st-clair-shores","lat":42.5404202,"lng":-82.8682457,"state":"MI","city":"St. Clair Shores","address":"23937 Harvard Shore Drive","zip":"48082","phone":"+1-586-200-1733","email":"","website":"http://towtruckstclairshores.com/","hours":"","brand":"","services":["general_repair"],"shopType":"general_repair"},{"id":"shop-mi-bay-city-newtech-automotive-services","name":"NewTech Automotive Services","slug":"mi-bay-city-newtech-automotive-services","lat":43.6693663,"lng":-83.9196199,"state":"MI","city":"Bay City","address":"3305 East Beaver Road","zip":"48706","phone":"","email":"","website":"http://www.newtechautomotiveservices.com/","hours":"","brand":"","services":["general_repair"],"shopType":"general_repair"},{"id":"shop-mi-new-haven-mario-truck-trailer-services","name":"Mario Truck & Trailer Services","slug":"mi-new-haven-mario-truck-trailer-services","lat":42.720014,"lng":-82.8069492,"state":"MI","city":"New Haven","address":"30221 26 Mile Road","zip":"48048","phone":"+1-586-552-8548","email":"","website":"https://www.mariotruckandtrailer.com/","hours":"","brand":"","services":["general_repair"],"shopType":"general_repair"},{"id":"shop-mi-byron-center-visions-auto-glass","name":"Visions Auto Glass","slug":"mi-byron-center-visions-auto-glass","lat":42.8268196,"lng":-85.6945211,"state":"MI","city":"Byron Center","address":"1239 76th Street Southwest","zip":"49315","phone":"+1-616-583-3005","email":"","website":"http://visionsglass.com","hours":"Mo-Fr 8:00 - 17:00","brand":"","services":["general_repair"],"shopType":"general_repair"},{"id":"shop-mi-holland-tlc-automotive","name":"TLC Automotive","slug":"mi-holland-tlc-automotive","lat":42.8028795,"lng":-86.0797623,"state":"MI","city":"Holland","address":"172 120th Avenue","zip":"49424","phone":"+1-616-355-6705","email":"","website":"https://tlcautomotive.com/","hours":"","brand":"","services":["general_repair"],"shopType":"general_repair"},{"id":"shop-mi-farmington-hills-big-ray-s-quick-lube","name":"Big Ray's Quick Lube","slug":"mi-farmington-hills-big-ray-s-quick-lube","lat":42.4718754,"lng":-83.433797,"state":"MI","city":"Farmington Hills","address":"39190 Grand River Avenue","zip":"48335","phone":"+1-248-427-9444","email":"","website":"https://www.bigraysfarmington.com/","hours":"","brand":"","services":["oil_change"],"shopType":"quick_lube"},{"id":"shop-mi-marquette-southside-automotive-inc","name":"Southside Automotive Inc","slug":"mi-marquette-southside-automotive-inc","lat":46.4555367,"lng":-87.306519,"state":"MI","city":"Marquette","address":"6580 US-41","zip":"49855","phone":"+1-906-249-9219","email":"","website":"https://southsideautomotiveinc.com/","hours":"","brand":"","services":["general_repair"],"shopType":"general_repair"},{"id":"shop-mi-okemos-doc-s-automotive","name":"Doc's Automotive","slug":"mi-okemos-doc-s-automotive","lat":42.6824315,"lng":-84.4600746,"state":"MI","city":"Okemos","address":"2939 Jolly Road","zip":"48864","phone":"+1-517-324-5487","email":"","website":"http://docsautomotiveokemos.com","hours":"","brand":"","services":["general_repair"],"shopType":"general_repair"},{"id":"shop-mi-petoskey-standish-ave-repair","name":"Standish Ave Repair","slug":"mi-petoskey-standish-ave-repair","lat":45.3622577,"lng":-84.9582547,"state":"MI","city":"Petoskey","address":"1415 Standish Ave","zip":"49770","phone":"+1-231-347-4466","email":"","website":"http://standishaverepair.com","hours":"","brand":"","services":["general_repair"],"shopType":"general_repair"},{"id":"shop-mi-portage-laliberte-s-auto-center","name":"Laliberte's Auto Center","slug":"mi-portage-laliberte-s-auto-center","lat":42.1885307,"lng":-85.5617333,"state":"MI","city":"Portage","address":"8817 Portage Road","zip":"49002","phone":"+1-269-327-4267","email":"","website":"https://lalibertesautorepair.com/","hours":"","brand":"","services":["general_repair"],"shopType":"general_repair"},{"id":"shop-mi-roseville-goodyear-tire-giant","name":"Goodyear Tire Giant","slug":"mi-roseville-goodyear-tire-giant","lat":42.4931806,"lng":-82.9399329,"state":"MI","city":"Roseville","address":"26741 Gratiot Ave","zip":"48066","phone":"+1-586-777-7711","email":"","website":"http://goodyearroseville.com","hours":"","brand":"Goodyear","services":["tires"],"shopType":"tire_shop"},{"id":"shop-mi-charlevoix-featherly-s-auto-truck-services","name":"Featherly's Auto & Truck Services","slug":"mi-charlevoix-featherly-s-auto-truck-services","lat":45.3595089,"lng":-85.107262,"state":"MI","city":"Charlevoix","address":"6522 US-31","zip":"49720","phone":"+1-231-547-8011","email":"","website":"http://featherlysautoandtruck.com","hours":"","brand":"","services":["general_repair"],"shopType":"general_repair"},{"id":"shop-mi-rockford-cedar-rock-auto-repair-sales","name":"Cedar Rock Auto Repair & Sales","slug":"mi-rockford-cedar-rock-auto-repair-sales","lat":43.1759021,"lng":-85.5608532,"state":"MI","city":"Rockford","address":"4442 14 Mile Road Northeast","zip":"49341","phone":"+1-616-863-6062","email":"","website":"https://www.cedarrockauto.com/","hours":"Mo-Fr 8:00-18:00","brand":"","services":["general_repair"],"shopType":"general_repair"},{"id":"shop-mi-lansing-corbin-auto-service","name":"Corbin Auto Service","slug":"mi-lansing-corbin-auto-service","lat":42.7163337,"lng":-84.5469512,"state":"MI","city":"Lansing","address":"500 Baker Street","zip":"48910","phone":"","email":"","website":"","hours":"","brand":"","services":["general_repair"],"shopType":"general_repair"},{"id":"shop-mi-unknown-walmart-auto-care-center","name":"Walmart Auto Care Center","slug":"mi-unknown-walmart-auto-care-center","lat":46.547326,"lng":-87.4588398,"state":"MI","city":"","address":"Marquette Bypass","zip":"","phone":"","email":"","website":"","hours":"","brand":"","services":["general_repair"],"shopType":"general_repair"},{"id":"shop-mi-ferndale-dinh-s-auto-repair","name":"Dinh's Auto Repair","slug":"mi-ferndale-dinh-s-auto-repair","lat":42.4604715,"lng":-83.1471996,"state":"MI","city":"Ferndale","address":"1018 West 9 Mile Road","zip":"48220","phone":"","email":"","website":"","hours":"","brand":"","services":["general_repair"],"shopType":"general_repair"},{"id":"shop-mi-ferndale-mlm-auto-service","name":"MLM Auto Service","slug":"mi-ferndale-mlm-auto-service","lat":42.4545607,"lng":-83.1424731,"state":"MI","city":"Ferndale","address":"940 Livernois Street","zip":"48220","phone":"","email":"","website":"","hours":"","brand":"","services":["general_repair"],"shopType":"general_repair"},{"id":"shop-mi-ferndale-monro","name":"Monro","slug":"mi-ferndale-monro","lat":42.4466938,"lng":-83.1417998,"state":"MI","city":"Ferndale","address":"1030 W 8 Mile Road","zip":"48220","phone":"","email":"","website":"https://locations.monro.com/mi/ferndale/1030-west-8-mile-road","hours":"","brand":"Monro","services":["exhaust","brakes"],"shopType":"general_repair"},{"id":"shop-mi-livonia-kirk-s-auto-care","name":"Kirk's Auto Care","slug":"mi-livonia-kirk-s-auto-care","lat":42.3690946,"lng":-83.3521017,"state":"MI","city":"Livonia","address":"31390 Plymouth Road","zip":"48150","phone":"+1-734-261-2220","email":"chris@kirksautocare.com","website":"https://www.kirksautocare.com/","hours":"","brand":"","services":["general_repair"],"shopType":"general_repair"},{"id":"shop-mi-warren-hi-tech-collision-auto-sales","name":"Hi-tech Collision & Auto Sales","slug":"mi-warren-hi-tech-collision-auto-sales","lat":42.4763983,"lng":-83.066204,"state":"MI","city":"Warren","address":"3930 East 10 Mile Road","zip":"48091","phone":"+1-586-757-6100","email":"","website":"https://www.hi-techcollisionautosales.com/","hours":"","brand":"","services":["body_work"],"shopType":"body_shop"},{"id":"shop-mi-pinckney-pinckney-auto-repair-center","name":"Pinckney Auto Repair Center","slug":"mi-pinckney-pinckney-auto-repair-center","lat":42.4586848,"lng":-83.9340881,"state":"MI","city":"Pinckney","address":"1211 W Michigan 36","zip":"48169","phone":"","email":"","website":"","hours":"","brand":"","services":["general_repair"],"shopType":"general_repair"},{"id":"shop-mi-ann-arbor-napa-auto-care-center","name":"NAPA Auto Care Center","slug":"mi-ann-arbor-napa-auto-care-center","lat":42.305021,"lng":-83.6915718,"state":"MI","city":"Ann Arbor","address":"3550 Plymouth Road","zip":"48105","phone":"","email":"","website":"","hours":"","brand":"NAPA AutoCare Center","services":["general_repair"],"shopType":"general_repair"},{"id":"shop-mi-flat-rock-tire-shop-1-llc","name":"Tire Shop 1, LLC","slug":"mi-flat-rock-tire-shop-1-llc","lat":42.0912607,"lng":-83.2966149,"state":"MI","city":"Flat Rock","address":"14800 Telegraph Road","zip":"48134","phone":"+1-734-782-4051","email":"","website":"","hours":"Mo-Fr 08:00-18:00; Sa 08:00-17:00; Su 09:00-16:00","brand":"","services":["tires"],"shopType":"tire_shop"},{"id":"shop-mi-flat-rock-twins-body-trim-works","name":"Twins Body & Trim Works","slug":"mi-flat-rock-twins-body-trim-works","lat":42.0951221,"lng":-83.2651906,"state":"MI","city":"Flat Rock","address":"23940 Gibraltar Road","zip":"48134","phone":"+1-734-782-3860","email":"","website":"https://www.twinsbodyandtrimworks.com/","hours":"Mo-Fr 09:00-18:00","brand":"","services":["body_work"],"shopType":"body_shop"},{"id":"shop-mi-holland-dan-s-frame-service","name":"Dan's Frame Service","slug":"mi-holland-dan-s-frame-service","lat":42.7913692,"lng":-86.086299,"state":"MI","city":"Holland","address":"486 Spruce Court","zip":"49423","phone":"+1-616-393-8171","email":"","website":"","hours":"Mo-Fr 09:00-18:00","brand":"","services":["general_repair"],"shopType":"general_repair"},{"id":"shop-mi-grosse-pointe-woods-mack-auto-center","name":"Mack Auto Center","slug":"mi-grosse-pointe-woods-mack-auto-center","lat":42.4458222,"lng":-82.9069404,"state":"MI","city":"Grosse Pointe Woods","address":"20805 Mack Avenue","zip":"48236","phone":"+1-313-466-3382","email":"","website":"http://mackautocntr.com","hours":"Mo-Sa 08:00-18:00","brand":"","services":["general_repair"],"shopType":"general_repair"},{"id":"shop-mi-lansing-p-j-s-towing","name":"P.J.'s Towing","slug":"mi-lansing-p-j-s-towing","lat":42.6861524,"lng":-84.532212,"state":"MI","city":"Lansing","address":"1425 Rensen Street","zip":"48910","phone":"+1-517-886-4000","email":"","website":"https://pjtows.com/","hours":"","brand":"","services":["towing"],"shopType":"general_repair"},{"id":"shop-mi-detroit-the-collision-shop","name":"The Collision Shop","slug":"mi-detroit-the-collision-shop","lat":42.4083769,"lng":-83.2763258,"state":"MI","city":"Detroit","address":"16160 Telegraph Rd","zip":"48219","phone":"+1 313-541-2742","email":"","website":"https://www.thecollisionshopmi.com/","hours":"","brand":"","services":["body_work","body_repair"],"shopType":"body_shop"},{"id":"shop-mi-mt-pleasant-mr-muffler","name":"Mr. Muffler","slug":"mi-mt-pleasant-mr-muffler","lat":43.6120417,"lng":-84.7692094,"state":"MI","city":"Mt Pleasant","address":"619 East Pickard Street","zip":"48858","phone":"+1-989-773-4446","email":"","website":"https://www.mrmufflermi.net/","hours":"","brand":"","services":["exhaust"],"shopType":"general_repair"},{"id":"shop-mi-detroit-masters-car-care-center-tire-shop","name":"Masters Car Care Center & Tire Shop","slug":"mi-detroit-masters-car-care-center-tire-shop","lat":42.3905166,"lng":-83.1977639,"state":"MI","city":"Detroit","address":"14170 Greenfield Road","zip":"48227","phone":"+1-313-835-5464","email":"","website":"https://www.masterscarcarecenter.com/","hours":"Mo,Tu,Th,Fr 08:00-18:00; We 08:00-18:30; Sa 08:00-17:00; Su off","brand":"","services":["tires","car_repair","tyres","oil_change"],"shopType":"general_repair"},{"id":"shop-mi-detroit-j-l-foreign-auto","name":"J & L Foreign Auto","slug":"mi-detroit-j-l-foreign-auto","lat":42.3436091,"lng":-83.0593544,"state":"MI","city":"Detroit","address":"3138 Cass Avenue","zip":"48201","phone":"","email":"","website":"","hours":"Mo-Fr 08:00-18:00","brand":"","services":["general_repair"],"shopType":"general_repair"},{"id":"shop-mi-pontiac-great-lakes-auto-repair","name":"Great Lakes Auto Repair","slug":"mi-pontiac-great-lakes-auto-repair","lat":42.6783686,"lng":-83.3113832,"state":"MI","city":"Pontiac","address":"309 West Walton Boulevard","zip":"48340","phone":"+1 248-858-4139","email":"","website":"https://www.greatlakesautorepair.com/","hours":"Mo-Fr 08:00-17:00","brand":"","services":["general_repair"],"shopType":"general_repair"},{"id":"shop-mi-madison-heights-madison-heights-auto-pound","name":"Madison Heights Auto Pound","slug":"mi-madison-heights-madison-heights-auto-pound","lat":42.5106883,"lng":-83.11293,"state":"MI","city":"Madison Heights","address":"789 Ajax Drive","zip":"48071","phone":"","email":"","website":"","hours":"","brand":"","services":["general_repair"],"shopType":"general_repair"},{"id":"shop-mi-pontiac-johnny-s-finer-finishes","name":"Johnny's Finer Finishes","slug":"mi-pontiac-johnny-s-finer-finishes","lat":42.6233949,"lng":-83.2823131,"state":"MI","city":"Pontiac","address":"45426 Woodward Avenue","zip":"48341","phone":"+1 248-335-2219","email":"","website":"https://www.johnnysfinerfinishes.com/","hours":"Mo-Fr 08:00-17:00","brand":"","services":["body_work","body_repair"],"shopType":"general_repair"},{"id":"shop-mi-grand-rapids-hermitage-towing-llc","name":"Hermitage Towing LLC","slug":"mi-grand-rapids-hermitage-towing-llc","lat":43.0036209,"lng":-85.6782478,"state":"MI","city":"Grand Rapids","address":"2205 Turner Avenue Northwest","zip":"49544","phone":"+1-616-458-1319","email":"","website":"https://www.hermitagetowing.com/","hours":"","brand":"","services":["general_repair"],"shopType":"general_repair"},{"id":"shop-mi-clinton-township-metro-tire-center","name":"Metro Tire Center","slug":"mi-clinton-township-metro-tire-center","lat":42.6103968,"lng":-82.9715883,"state":"MI","city":"Clinton Township","address":"15263 Canal Road","zip":"48038","phone":"+1 586-228-0800","email":"","website":"http://metrotirecentermi.com","hours":"Mo-Fr 08:00-18:00; Sa 08:00-14:00","brand":"","services":["tires"],"shopType":"tire_shop"},{"id":"shop-mi-pinconning-one-stop-auto-shop","name":"One Stop Auto Shop","slug":"mi-pinconning-one-stop-auto-shop","lat":43.8503397,"lng":-83.9653929,"state":"MI","city":"Pinconning","address":"711 South Mable Street","zip":"48650","phone":"+1 989-879-3113","email":"","website":"https://www.1stopautoshopmi.com/","hours":"Mo-Fr 08:00-18:00; Sa 08:00-12:00","brand":"","services":["tires"],"shopType":"general_repair"},{"id":"shop-mi-croswell-sal-s-auto-repair-towing","name":"Sal’s Auto Repair & Towing","slug":"mi-croswell-sal-s-auto-repair-towing","lat":43.2653977,"lng":-82.6091534,"state":"MI","city":"Croswell","address":"5346 Peck Road","zip":"48422","phone":"+1 810-679-0272","email":"","website":"https://www.salsautorepairandtowing.com/","hours":"24/7","brand":"","services":["general_repair"],"shopType":"general_repair"},{"id":"shop-mi-ferndale-the-tire-shoppe-auto-mechanic-repair","name":"The Tire Shoppe & Auto Mechanic Repair","slug":"mi-ferndale-the-tire-shoppe-auto-mechanic-repair","lat":42.4614711,"lng":-83.1114313,"state":"MI","city":"Ferndale","address":"1981 East 9 Mile Road","zip":"48220","phone":"+1 248-439-0606","email":"","website":"https://thetireshoppe.com/","hours":"Mo-Fr 09:00-18:00; Sa 09:00-15:00","brand":"","services":["tires"],"shopType":"tire_shop"},{"id":"shop-mi-livonia-notorious-tintz","name":"Notorious Tintz","slug":"mi-livonia-notorious-tintz","lat":42.3816595,"lng":-83.352124,"state":"MI","city":"Livonia","address":"13622 Merriman Rd","zip":"48150","phone":"+1 734-422-2583","email":"","website":"https://www.notorioustintz.com/","hours":"","brand":"","services":["window_tinting"],"shopType":"general_repair"},{"id":"shop-mi-detroit-us-auto-repair","name":"US Auto Repair","slug":"mi-detroit-us-auto-repair","lat":42.4053735,"lng":-83.0542054,"state":"MI","city":"Detroit","address":"11640 Conant Street","zip":"48212","phone":"","email":"","website":"","hours":"","brand":"","services":["general_repair"],"shopType":"general_repair"},{"id":"shop-mi-lansing-vision-tire-auto","name":"Vision Tire & Auto","slug":"mi-lansing-vision-tire-auto","lat":42.7403698,"lng":-84.5382163,"state":"MI","city":"Lansing","address":"631 North Pennsylvania Avenue","zip":"48912","phone":"","email":"","website":"","hours":"","brand":"","services":["tires","oil_change","tyres"],"shopType":"general_repair"},{"id":"shop-mi-ecorse-felps-auto-service","name":"Felps Auto Service","slug":"mi-ecorse-felps-auto-service","lat":42.2438962,"lng":-83.1563364,"state":"MI","city":"Ecorse","address":"289 Southfield Road","zip":"48229","phone":"","email":"","website":"","hours":"","brand":"","services":["general_repair"],"shopType":"general_repair"},{"id":"shop-mi-lincoln-park-southriver-collision","name":"Southriver Collision","slug":"mi-lincoln-park-southriver-collision","lat":42.2452532,"lng":-83.1614141,"state":"MI","city":"Lincoln Park","address":"517 Southfield Road","zip":"48146","phone":"","email":"","website":"","hours":"","brand":"","services":["painting","body_work","body_repair"],"shopType":"body_shop"},{"id":"shop-mi-lincoln-park-dave-s-auto-repair","name":"Dave's Auto Repair","slug":"mi-lincoln-park-dave-s-auto-repair","lat":42.2473214,"lng":-83.168196,"state":"MI","city":"Lincoln Park","address":"827 Southfield Road","zip":"48146","phone":"","email":"","website":"","hours":"","brand":"","services":["general_repair"],"shopType":"general_repair"},{"id":"shop-mi-wyandotte-mike-k-s-auto-repair","name":"Mike K's Auto Repair","slug":"mi-wyandotte-mike-k-s-auto-repair","lat":42.2141478,"lng":-83.1693645,"state":"MI","city":"Wyandotte","address":"1332 Ford Avenue","zip":"48192","phone":"+1-734-281-9752","email":"","website":"https://www.mikeks-autorepair.com/","hours":"Mo-Fr 08:00-18:00","brand":"","services":["general_repair"],"shopType":"general_repair"},{"id":"shop-mi-rockford-river-valley-auto-group","name":"River Valley Auto Group","slug":"mi-rockford-river-valley-auto-group","lat":43.1257352,"lng":-85.5504606,"state":"MI","city":"Rockford","address":"300 Northland Drive Northeast","zip":"49341","phone":"+1-616-866-4578","email":"","website":"https://www.rivervalleyauto.net/","hours":"","brand":"","services":["general_repair"],"shopType":"general_repair"},{"id":"shop-mi-middleville-street-dreams-by-ross-de-maagd-llc","name":"Street Dreams By Ross De Maagd LLC","slug":"mi-middleville-street-dreams-by-ross-de-maagd-llc","lat":42.7235628,"lng":-85.5065371,"state":"MI","city":"Middleville","address":"4837 Cherry Valley Road","zip":"49333","phone":"+1-269-795-3100","email":"","website":"http://streetdreamsbyross.com","hours":"Mo-Fr 09:00-17:00","brand":"","services":["general_repair"],"shopType":"general_repair"},{"id":"shop-mi-sault-ste-marie-reno-s-car-care","name":"Reno's Car Care","slug":"mi-sault-ste-marie-reno-s-car-care","lat":46.4727451,"lng":-84.3555249,"state":"MI","city":"Sault Ste Marie","address":"2700 Ashmun Street","zip":"49783","phone":"+1-906-632-9722","email":"","website":"","hours":"","brand":"","services":["general_repair"],"shopType":"general_repair"},{"id":"shop-mi-unknown-storey-automotive","name":"Storey Automotive","slug":"mi-unknown-storey-automotive","lat":46.4989912,"lng":-84.3577783,"state":"MI","city":"","address":"522 Spruce Street West","zip":"","phone":"+1-906-635-1300","email":"","website":"","hours":"","brand":"","services":["general_repair"],"shopType":"general_repair"},{"id":"shop-mi-sault-ste-marie-c-c-auto-collision","name":"C & C Auto & Collision","slug":"mi-sault-ste-marie-c-c-auto-collision","lat":46.4582926,"lng":-84.3534326,"state":"MI","city":"Sault Ste Marie","address":"3315 South M-129","zip":"49783","phone":"","email":"","website":"","hours":"","brand":"","services":["car_parts","car_repair","repairs","body_work"],"shopType":"body_shop"},{"id":"shop-mi-marysville-autostylers-rv","name":"AutoStylers RV","slug":"mi-marysville-autostylers-rv","lat":42.9207982,"lng":-82.4741746,"state":"MI","city":"Marysville","address":"1215 Gratiot Boulevard","zip":"48060","phone":"","email":"","website":"","hours":"","brand":"","services":["rv_repair"],"shopType":"general_repair"},{"id":"shop-mi-marysville-marysville-tire-auto","name":"Marysville Tire & Auto","slug":"mi-marysville-marysville-tire-auto","lat":42.9145056,"lng":-82.5007323,"state":"MI","city":"Marysville","address":"291 Range Road","zip":"48040","phone":"","email":"","website":"","hours":"","brand":"","services":["tires","car_repair","tyres"],"shopType":"general_repair"},{"id":"shop-mi-allen-park-tredroc-tire-services","name":"Tredroc Tire Services","slug":"mi-allen-park-tredroc-tire-services","lat":42.2815182,"lng":-83.1969578,"state":"MI","city":"Allen Park","address":"3500 Enterprise Drive","zip":"48101","phone":"+1-313-271-9300","email":"","website":"","hours":"Mo-Fr 07:00-17:00","brand":"","services":["tires"],"shopType":"tire_shop"},{"id":"shop-mi-allen-park-belle-tire-corporate-office-distribution-center","name":"Belle Tire Corporate Office & Distribution Center","slug":"mi-allen-park-belle-tire-corporate-office-distribution-center","lat":42.2922499,"lng":-83.1881063,"state":"MI","city":"Allen Park","address":"1000 Enterprise Drive","zip":"48101","phone":"+1-313-271-9400","email":"","website":"https://belletire.com","hours":"Mo-Fr 07:00-18:00","brand":"","services":["tires"],"shopType":"tire_shop"},{"id":"shop-mi-redford-township-tredroc-tire-services","name":"Tredroc Tire Services","slug":"mi-redford-township-tredroc-tire-services","lat":42.3767812,"lng":-83.3130533,"state":"MI","city":"Redford Township","address":"12606 Inkster Road","zip":"48239","phone":"+1-313-937-0400","email":"","website":"https://www.tredroc.com","hours":"Mo-Fr 07:00-17:00","brand":"","services":["tires"],"shopType":"tire_shop"},{"id":"shop-mi-romulus-tredroc-tire-services","name":"Tredroc Tire Services","slug":"mi-romulus-tredroc-tire-services","lat":42.1905808,"lng":-83.3729673,"state":"MI","city":"Romulus","address":"15515 Wayne Road","zip":"48174","phone":"+1-734-992-5591","email":"mrobinson@tredroc.com","website":"https://www.tredroc.com","hours":"Mo-Fr 07:00-17:00","brand":"","services":["tires"],"shopType":"tire_shop"},{"id":"shop-mi-traverse-city-tredroc-tire-services","name":"Tredroc Tire Services","slug":"mi-traverse-city-tredroc-tire-services","lat":44.7291864,"lng":-85.6252799,"state":"MI","city":"Traverse City","address":"2950 Cass Road","zip":"49684","phone":"+1-231-929-4600","email":"","website":"https://www.tredroc.com","hours":"Mo-Fr 07:30-17:00","brand":"","services":["tires"],"shopType":"tire_shop"},{"id":"shop-mi-hulbert-r-r-enterprizes-23-1-2-hour-towing","name":"R & R Enterprizes - 23 1/2 Hour Towing","slug":"mi-hulbert-r-r-enterprizes-23-1-2-hour-towing","lat":46.3367387,"lng":-85.1444347,"state":"MI","city":"Hulbert","address":"11675 South Hulbert Road","zip":"49748","phone":"+1-906-876-2427","email":"","website":"","hours":"Mo-Su 00:00-23:30","brand":"","services":["locksmith","roadside_assistance","tires","towing","tire_change"],"shopType":"general_repair"},{"id":"shop-mi-kalamazoo-michael-s-auto-service","name":"Michael's Auto Service","slug":"mi-kalamazoo-michael-s-auto-service","lat":42.2948336,"lng":-85.6129693,"state":"MI","city":"Kalamazoo","address":"1918 West Main Street","zip":"49006","phone":"","email":"","website":"","hours":"","brand":"","services":["general_repair"],"shopType":"general_repair"},{"id":"shop-mi-imlay-city-parsch-s-automotive","name":"Parsch's Automotive","slug":"mi-imlay-city-parsch-s-automotive","lat":43.0304222,"lng":-83.0742635,"state":"MI","city":"Imlay City","address":"314 East Capac Road","zip":"48444","phone":"+1 810 724 6630","email":"","website":"https://www.parschs.com/","hours":"","brand":"","services":["ac"],"shopType":"general_repair"},{"id":"shop-mi-detroit-fenkell-tire-shop","name":"Fenkell Tire Shop","slug":"mi-detroit-fenkell-tire-shop","lat":42.400597,"lng":-83.2572673,"state":"MI","city":"Detroit","address":"22000 Fenkell Street","zip":"48223","phone":"","email":"","website":"","hours":"","brand":"","services":["tires"],"shopType":"tire_shop"},{"id":"shop-mi-orchard-lake-orchard-lake-auto-repair","name":"Orchard Lake Auto Repair","slug":"mi-orchard-lake-orchard-lake-auto-repair","lat":42.5792406,"lng":-83.3617949,"state":"MI","city":"Orchard Lake","address":"4093 Orchard Lake Road","zip":"48323","phone":"","email":"","website":"","hours":"","brand":"","services":["general_repair"],"shopType":"general_repair"},{"id":"shop-mi-southgate-fort-lincoln-repair","name":"Fort Lincoln Repair","slug":"mi-southgate-fort-lincoln-repair","lat":42.2149747,"lng":-83.1933866,"state":"MI","city":"Southgate","address":"12837 Dix-Toledo Highway","zip":"48195","phone":"","email":"","website":"","hours":"","brand":"","services":["collision_repair","body_work"],"shopType":"general_repair"},{"id":"shop-mi-southgate-kool-radiator-service","name":"KOOL Radiator Service","slug":"mi-southgate-kool-radiator-service","lat":42.2275545,"lng":-83.2106525,"state":"MI","city":"Southgate","address":"15331 Goddard Road","zip":"48195","phone":"","email":"","website":"","hours":"","brand":"","services":["general_repair"],"shopType":"general_repair"},{"id":"shop-mi-detroit-three-stars-auto-repair-collission","name":"Three Stars Auto Repair & Collission","slug":"mi-detroit-three-stars-auto-repair-collission","lat":42.380877,"lng":-83.1702325,"state":"MI","city":"Detroit","address":"12755 Grand River Avenue","zip":"48204","phone":"","email":"","website":"","hours":"","brand":"","services":["general_repair"],"shopType":"general_repair"},{"id":"shop-mi-cadillac-peterson-services","name":"Peterson Services","slug":"mi-cadillac-peterson-services","lat":44.2529271,"lng":-85.4009073,"state":"MI","city":"Cadillac","address":"324 North Mitchell Street","zip":"48601","phone":"+1 231 775 8681","email":"","website":"https://www.petersonautoservices.com/","hours":"","brand":"","services":["general_repair"],"shopType":"general_repair"},{"id":"shop-mi-hancock-dave-s-super-service","name":"Dave's Super Service","slug":"mi-hancock-dave-s-super-service","lat":47.1263248,"lng":-88.5773091,"state":"MI","city":"Hancock","address":"112 Front Street","zip":"49930","phone":"+1 906 482 3410","email":"","website":"https://www.davessuperservice.net/","hours":"","brand":"","services":["general_repair"],"shopType":"general_repair"},{"id":"shop-mi-bessemer-c-m-oil-co","name":"C & M Oil Co.","slug":"mi-bessemer-c-m-oil-co","lat":46.4809346,"lng":-90.0435484,"state":"MI","city":"Bessemer","address":"605 East Lead Street","zip":"49911","phone":"+1 906 667 0222","email":"","website":"https://www.cmoilco.com/","hours":"Mo-Fr 06:00-18:00; Sa 07:00-13:00","brand":"","services":["general_repair"],"shopType":"general_repair"},{"id":"shop-mi-wakefield-bingos-garage","name":"Bingos Garage","slug":"mi-wakefield-bingos-garage","lat":46.4977143,"lng":-89.9113874,"state":"MI","city":"Wakefield","address":"180 M 28","zip":"49968","phone":"","email":"","website":"","hours":"","brand":"","services":["general_repair"],"shopType":"general_repair"},{"id":"shop-mi-marquette-young-s-tire-brake-alignment","name":"Young's Tire, Brake & Alignment","slug":"mi-marquette-young-s-tire-brake-alignment","lat":46.5318719,"lng":-87.3970169,"state":"MI","city":"Marquette","address":"1320 South Front Street","zip":"49855","phone":"+1 906 226 2642","email":"","website":"https://www.youngsalignment.com/","hours":"","brand":"","services":["tires","brakes","alignment"],"shopType":"general_repair"},{"id":"shop-mi-ishpeming-hometown-service","name":"Hometown Service","slug":"mi-ishpeming-hometown-service","lat":46.4895829,"lng":-87.6700185,"state":"MI","city":"Ishpeming","address":"110 Front Street","zip":"49849","phone":"","email":"","website":"","hours":"","brand":"","services":["general_repair"],"shopType":"general_repair"},{"id":"shop-mi-drummond-island-baileys-service","name":"Baileys Service","slug":"mi-drummond-island-baileys-service","lat":46.0090477,"lng":-83.7389839,"state":"MI","city":"Drummond Island","address":"34264 South Townline Road","zip":"49726","phone":"","email":"","website":"","hours":"","brand":"","services":["general_repair"],"shopType":"general_repair"},{"id":"shop-mi-harbor-springs-harbor-springs-car-care","name":"Harbor Springs Car Care","slug":"mi-harbor-springs-harbor-springs-car-care","lat":45.4350943,"lng":-84.9919418,"state":"MI","city":"Harbor Springs","address":"693 State Street","zip":"49740","phone":"+1 231 526 5566","email":"","website":"https://harborspringscarcare.com/","hours":"","brand":"","services":["general_repair"],"shopType":"general_repair"},{"id":"shop-mi-holland-valvoline","name":"Valvoline","slug":"mi-holland-valvoline","lat":42.8279846,"lng":-86.137471,"state":"MI","city":"Holland","address":"1001 Butternut Drive","zip":"49424","phone":"","email":"","website":"https://store.vioc.com/mi/holland/oil-change-030054.html","hours":"","brand":"Valvoline","services":["oil_change"],"shopType":"quick_lube"},{"id":"shop-mi-detroit-detroit-custom-collision","name":"Detroit Custom Collision","slug":"mi-detroit-detroit-custom-collision","lat":42.399503,"lng":-82.9829826,"state":"MI","city":"Detroit","address":"12105 Harper Avenue","zip":"48213","phone":"","email":"","website":"","hours":"","brand":"","services":["body_work"],"shopType":"body_shop"},{"id":"shop-mi-detroit-white-one-auto","name":"White One Auto","slug":"mi-detroit-white-one-auto","lat":42.3999601,"lng":-82.9811083,"state":"MI","city":"Detroit","address":"12245 Harper Avenue","zip":"48213","phone":"","email":"","website":"","hours":"","brand":"","services":["general_repair"],"shopType":"general_repair"},{"id":"shop-mi-saline-harry-s-auto-service","name":"Harry's Auto Service","slug":"mi-saline-harry-s-auto-service","lat":42.168942,"lng":-83.7774761,"state":"MI","city":"Saline","address":"221 East Michigan Avenue","zip":"48176","phone":"+1-734-429-9930","email":"","website":"https://www.harrysautoservice.com/","hours":"Mo-Su 09:00-23:00","brand":"","services":["general_repair"],"shopType":"general_repair"},{"id":"shop-mi-williamsburg-jlube-services","name":"JLube Services","slug":"mi-williamsburg-jlube-services","lat":44.7727531,"lng":-85.5003355,"state":"MI","city":"Williamsburg","address":"5940 US-31 North","zip":"49690","phone":"","email":"","website":"","hours":"","brand":"","services":["oil_change"],"shopType":"quick_lube"},{"id":"shop-mi-mio-blair-s-service","name":"Blair's Service","slug":"mi-mio-blair-s-service","lat":44.6750895,"lng":-84.1306213,"state":"MI","city":"Mio","address":"210 South Mount Tom Road","zip":"49647","phone":"+1 989 826 5033","email":"","website":"","hours":"","brand":"","services":["general_repair"],"shopType":"general_repair"},{"id":"shop-mi-oscoda-darrell-s-maxi-muffler","name":"Darrell's Maxi Muffler","slug":"mi-oscoda-darrell-s-maxi-muffler","lat":44.4456982,"lng":-83.3464935,"state":"MI","city":"Oscoda","address":"5673 F-41","zip":"48750","phone":"","email":"","website":"","hours":"","brand":"","services":["exhaust"],"shopType":"general_repair"},{"id":"shop-mi-sandusky-sanilac-oil-tire","name":"Sanilac Oil & Tire","slug":"mi-sandusky-sanilac-oil-tire","lat":43.3668801,"lng":-82.8262753,"state":"MI","city":"Sandusky","address":"1877 South Sandusky Road","zip":"48471","phone":"","email":"","website":"","hours":"","brand":"","services":["tires","ac"],"shopType":"general_repair"},{"id":"shop-mi-croswell-adam-s-service-station","name":"Adam's Service Station","slug":"mi-croswell-adam-s-service-station","lat":43.2758634,"lng":-82.6222349,"state":"MI","city":"Croswell","address":"15 Maple Street","zip":"48422","phone":"","email":"","website":"","hours":"","brand":"","services":["general_repair"],"shopType":"general_repair"},{"id":"shop-mi-detroit-united-collision-auto-repair","name":"United Collision Auto Repair","slug":"mi-detroit-united-collision-auto-repair","lat":42.429212,"lng":-83.2462608,"state":"MI","city":"Detroit","address":"20615 West 7 Mile Road","zip":"48219","phone":"+1-313-285-9031","email":"","website":"https://www.facebook.com/unitedcarcompany1/","hours":"","brand":"","services":["body_work"],"shopType":"body_shop"},{"id":"shop-mi-remus-gingrich-tire-center","name":"Gingrich Tire Center","slug":"mi-remus-gingrich-tire-center","lat":43.5963176,"lng":-85.1456335,"state":"MI","city":"Remus","address":"102 South Sheridan Avenue","zip":"49340","phone":"+1 989 967 3541","email":"","website":"https://www.gingrichtire.com/","hours":"","brand":"","services":["tires"],"shopType":"tire_shop"},{"id":"shop-mi-mears-duneland-off-road-center","name":"Duneland Off-Road Center","slug":"mi-mears-duneland-off-road-center","lat":43.681592,"lng":-86.4983661,"state":"MI","city":"Mears","address":"1951 North 24th Avenue","zip":"49436","phone":"+1 888 873 4047","email":"","website":"https://www.dunelandoffroadcenter.com/","hours":"","brand":"","services":["tires"],"shopType":"general_repair"},{"id":"shop-mi-alma-j-j-giles-tire-service","name":"J & J Giles Tire Service","slug":"mi-alma-j-j-giles-tire-service","lat":43.3786463,"lng":-84.6645237,"state":"MI","city":"Alma","address":"231 West Superior Street","zip":"48801","phone":"+1 989 463 3650","email":"","website":"https://j-j-giles-tire-service.business.site/","hours":"Mo-Fr 07:30-18:00; Sa 08:00-13:00","brand":"","services":["tires"],"shopType":"tire_shop"},{"id":"shop-mi-ashley-ashley-auto-repair","name":"Ashley Auto Repair","slug":"mi-ashley-ashley-auto-repair","lat":43.1866878,"lng":-84.4760434,"state":"MI","city":"Ashley","address":"104 West Oak Street","zip":"48806","phone":"","email":"","website":"","hours":"","brand":"","services":["general_repair"],"shopType":"general_repair"},{"id":"shop-mi-detroit-campus-collission","name":"Campus Collission","slug":"mi-detroit-campus-collission","lat":42.3468586,"lng":-83.0655783,"state":"MI","city":"Detroit","address":"665 Selden Street","zip":"48201","phone":"","email":"","website":"","hours":"","brand":"","services":["general_repair"],"shopType":"general_repair"},{"id":"shop-mi-saginaw-wally-king-service","name":"Wally King Service","slug":"mi-saginaw-wally-king-service","lat":43.4370727,"lng":-83.9604063,"state":"MI","city":"Saginaw","address":"1419 Davenport Avenue","zip":"48602","phone":"","email":"","website":"","hours":"","brand":"","services":["general_repair"],"shopType":"general_repair"},{"id":"shop-mi-saginaw-dan-s-quality-tires","name":"Dan's Quality Tires","slug":"mi-saginaw-dan-s-quality-tires","lat":43.4230086,"lng":-83.9722703,"state":"MI","city":"Saginaw","address":"1411 Court Street","zip":"48602","phone":"","email":"","website":"","hours":"","brand":"","services":["tires"],"shopType":"tire_shop"},{"id":"shop-mi-memphis-b-d-auto-and-truck-service","name":"B&D Auto and Truck Service","slug":"mi-memphis-b-d-auto-and-truck-service","lat":42.8940489,"lng":-82.7692835,"state":"MI","city":"Memphis","address":"80521 Main Street","zip":"48041","phone":"","email":"","website":"","hours":"","brand":"","services":["general_repair"],"shopType":"general_repair"},{"id":"shop-mi-detroit-2051-dalzelle","name":"2051 Dalzelle","slug":"mi-detroit-2051-dalzelle","lat":42.3299211,"lng":-83.0738471,"state":"MI","city":"Detroit","address":"2051 Dalzelle Street","zip":"48216","phone":"","email":"","website":"","hours":"","brand":"","services":["general_repair"],"shopType":"general_repair"},{"id":"shop-mi-detroit-downtown-mobil-service","name":"Downtown Mobil Service","slug":"mi-detroit-downtown-mobil-service","lat":42.3311505,"lng":-83.074255,"state":"MI","city":"Detroit","address":"2035 Michigan Avenue","zip":"48216","phone":"","email":"","website":"","hours":"","brand":"","services":["brakes"],"shopType":"general_repair"},{"id":"shop-mi-wyandotte-overland-truck-trailer-repair","name":"Overland Truck & Trailer Repair","slug":"mi-wyandotte-overland-truck-trailer-repair","lat":42.1914243,"lng":-83.1606095,"state":"MI","city":"Wyandotte","address":"760 Hillsdale Street","zip":"48192","phone":"","email":"","website":"","hours":"","brand":"","services":["general_repair"],"shopType":"general_repair"},{"id":"shop-mi-wyandotte-simmons-auto-electric","name":"Simmons Auto Electric","slug":"mi-wyandotte-simmons-auto-electric","lat":42.2141601,"lng":-83.1765424,"state":"MI","city":"Wyandotte","address":"2020 Ford Avenue","zip":"48192","phone":"","email":"","website":"","hours":"","brand":"","services":["electrical"],"shopType":"general_repair"},{"id":"shop-mi-wyandotte-walker-s-auto-service","name":"Walker's Auto Service","slug":"mi-wyandotte-walker-s-auto-service","lat":42.2134813,"lng":-83.1776272,"state":"MI","city":"Wyandotte","address":"2121 Ford Avenue","zip":"48192","phone":"","email":"","website":"","hours":"","brand":"","services":["general_repair"],"shopType":"general_repair"},{"id":"shop-mi-grand-rapids-jack-s-service-center","name":"Jack's Service Center","slug":"mi-grand-rapids-jack-s-service-center","lat":42.985081,"lng":-85.6901488,"state":"MI","city":"Grand Rapids","address":"850 Leonard Street Northwest","zip":"49504","phone":"+1 616 459 0975","email":"","website":"https://www.jacksservicecenter.com/","hours":"","brand":"","services":["general_repair"],"shopType":"general_repair"},{"id":"shop-mi-detroit-burt-s-auto-repair","name":"Burt's Auto Repair","slug":"mi-detroit-burt-s-auto-repair","lat":42.3436505,"lng":-83.2254271,"state":"MI","city":"Detroit","address":"18948 West Warren Avenue","zip":"48228","phone":"","email":"","website":"https://www.local.com/business/details/detroit-MI/burt-auto-repair-138368321/","hours":"","brand":"","services":["general_repair"],"shopType":"general_repair"},{"id":"shop-mi-zeeland-venema-service","name":"Venema Service","slug":"mi-zeeland-venema-service","lat":42.8136519,"lng":-86.0160862,"state":"MI","city":"Zeeland","address":"100 East Washington Avenue","zip":"49464","phone":"","email":"","website":"","hours":"","brand":"","services":["general_repair"],"shopType":"general_repair"},{"id":"shop-mi-dorr-dorr-standard-service","name":"Dorr Standard Service","slug":"mi-dorr-dorr-standard-service","lat":42.7254382,"lng":-85.7249511,"state":"MI","city":"Dorr","address":"1831 142nd Avenue","zip":"49323","phone":"+1 616 681 9136","email":"","website":"https://www.dorrstandard.com/","hours":"","brand":"","services":["general_repair"],"shopType":"general_repair"},{"id":"shop-mi-nashville-musser-service","name":"Musser Service","slug":"mi-nashville-musser-service","lat":42.6030227,"lng":-85.0938682,"state":"MI","city":"Nashville","address":"106 South Main Street","zip":"49073","phone":"","email":"","website":"","hours":"","brand":"","services":["general_repair"],"shopType":"general_repair"},{"id":"shop-mi-grand-ledge-grand-ledge-auto-tire","name":"Grand Ledge Auto & Tire","slug":"mi-grand-ledge-grand-ledge-auto-tire","lat":42.7412274,"lng":-84.7441886,"state":"MI","city":"Grand Ledge","address":"505 East Saginaw Highway","zip":"48837","phone":"","email":"","website":"","hours":"","brand":"","services":["tires"],"shopType":"tire_shop"},{"id":"shop-mi-east-lansing-h-h-mobil","name":"H&H Mobil","slug":"mi-east-lansing-h-h-mobil","lat":42.7465985,"lng":-84.4618312,"state":"MI","city":"East Lansing","address":"1500 Haslett Road","zip":"48823","phone":"+1 517 220 0326","email":"","website":"https://www.hhmobil.com/","hours":"","brand":"","services":["general_repair"],"shopType":"general_repair"},{"id":"shop-mi-lansing-all-auto-service","name":"All Auto Service","slug":"mi-lansing-all-auto-service","lat":42.7246757,"lng":-84.5386188,"state":"MI","city":"Lansing","address":"918 South Pennsylvania Avenue","zip":"48912","phone":"+1 517 885 3703","email":"","website":"https://www.allautoservice.net/","hours":"","brand":"","services":["general_repair"],"shopType":"general_repair"},{"id":"shop-mi-lansing-lake-lansing-road-mobil-service","name":"Lake Lansing Road Mobil Service","slug":"mi-lansing-lake-lansing-road-mobil-service","lat":42.7602782,"lng":-84.5127448,"state":"MI","city":"Lansing","address":"2704 Lake Lansing Road","zip":"48912","phone":"+1 517 484 2300","email":"","website":"https://lakelansingrdmobil.com/","hours":"6:00-23:45","brand":"","services":["general_repair"],"shopType":"general_repair"},{"id":"shop-mi-pickney-a-j-s-quick-lube","name":"A&J's Quick Lube","slug":"mi-pickney-a-j-s-quick-lube","lat":42.4637841,"lng":-83.8345148,"state":"MI","city":"Pickney","address":"5637 East M 36","zip":"48169","phone":"+1 810 206 1088","email":"","website":"https://www.ajsquicklube.com/","hours":"Mo-Fr 09:00-18:00; Sa 09:00-17:00","brand":"","services":["oil_change"],"shopType":"quick_lube"},{"id":"shop-mi-howell-murphy-s-family-auto-service","name":"Murphy's Family Auto Service","slug":"mi-howell-murphy-s-family-auto-service","lat":42.5104901,"lng":-83.9316402,"state":"MI","city":"Howell","address":"6000 Pinckney Road","zip":"48843","phone":"+1 517 552 3040","email":"","website":"https://www.murphysfamilyauto.com/","hours":"","brand":"","services":["general_repair"],"shopType":"general_repair"},{"id":"shop-mi-fowlerville-randys-service-station","name":"Randys Service Station","slug":"mi-fowlerville-randys-service-station","lat":42.5997384,"lng":-84.0713914,"state":"MI","city":"Fowlerville","address":"8030 Mason Road","zip":"48836","phone":"+1 517 223 8609","email":"","website":"https://randysservice.com/","hours":"","brand":"","services":["general_repair"],"shopType":"general_repair"},{"id":"shop-mi-detroit-express-auto-center","name":"Express Auto Center","slug":"mi-detroit-express-auto-center","lat":42.4426293,"lng":-83.2014971,"state":"MI","city":"Detroit","address":"20475 James Couzens Freeway","zip":"48235","phone":"","email":"","website":"","hours":"","brand":"","services":["general_repair"],"shopType":"general_repair"},{"id":"shop-mi-jackson-valentine-s-car-care","name":"Valentine's Car Care","slug":"mi-jackson-valentine-s-car-care","lat":42.2759583,"lng":-84.4545409,"state":"MI","city":"Jackson","address":"3151 County Farm Road","zip":"49202","phone":"","email":"","website":"","hours":"","brand":"","services":["general_repair"],"shopType":"general_repair"},{"id":"shop-mi-portage-airport-auto-service","name":"Airport Auto Service","slug":"mi-portage-airport-auto-service","lat":42.2398321,"lng":-85.5608596,"state":"MI","city":"Portage","address":"5216 Portage Road","zip":"49002","phone":"+1 269 345 5181","email":"","website":"https://www.airportautoservice.com/","hours":"Mo-Fr 08:00-17:30","brand":"","services":["general_repair"],"shopType":"general_repair"},{"id":"shop-mi-detroit-express-lube-auto-repair","name":"Express Lube & Auto Repair","slug":"mi-detroit-express-lube-auto-repair","lat":42.3999281,"lng":-83.0003435,"state":"MI","city":"Detroit","address":"10490 Gratiot Avenue","zip":"48213","phone":"","email":"","website":"","hours":"","brand":"","services":["oil_change"],"shopType":"quick_lube"},{"id":"shop-mi-detroit-hot-wheel-city","name":"Hot Wheel City","slug":"mi-detroit-hot-wheel-city","lat":42.429637,"lng":-83.2236424,"state":"MI","city":"Detroit","address":"18415 West 7 Mile Road","zip":"48219","phone":"","email":"","website":"","hours":"","brand":"","services":["tires"],"shopType":"general_repair"},{"id":"shop-mi-detroit-tower-s-garage","name":"Tower's Garage","slug":"mi-detroit-tower-s-garage","lat":42.3456302,"lng":-83.0367464,"state":"MI","city":"Detroit","address":"1544 Gratiot Avenue","zip":"48207","phone":"","email":"","website":"","hours":"","brand":"","services":["general_repair"],"shopType":"general_repair"},{"id":"shop-mi-detroit-big-ray-s-oil-change","name":"Big Ray's Oil Change","slug":"mi-detroit-big-ray-s-oil-change","lat":42.4268601,"lng":-83.278319,"state":"MI","city":"Detroit","address":"18915 Telegraph Road","zip":"48219","phone":"","email":"","website":"","hours":"","brand":"","services":["oil_change"],"shopType":"quick_lube"},{"id":"shop-mi-detroit-mr-muffler","name":"Mr. Muffler","slug":"mi-detroit-mr-muffler","lat":42.4274365,"lng":-83.2783381,"state":"MI","city":"Detroit","address":"18955 Telegraph Road","zip":"48219","phone":"","email":"","website":"","hours":"","brand":"","services":["exhaust"],"shopType":"general_repair"},{"id":"shop-mi-chelsea-kern-auto-sales-and-service","name":"Kern Auto Sales And Service","slug":"mi-chelsea-kern-auto-sales-and-service","lat":42.2971463,"lng":-84.0265073,"state":"MI","city":"Chelsea","address":"1630 South Main Street","zip":"48118","phone":"+1 734 475 2722","email":"","website":"https://www.kernautosalesandservice.com/","hours":"","brand":"","services":["general_repair"],"shopType":"general_repair"},{"id":"shop-mi-ann-arbor-brewers-north-campus-services","name":"Brewers North Campus Services","slug":"mi-ann-arbor-brewers-north-campus-services","lat":42.2983247,"lng":-83.7202245,"state":"MI","city":"Ann Arbor","address":"1763 Plymouth Road","zip":"48105","phone":"","email":"","website":"http://www.brewerstowing.com/","hours":"","brand":"","services":["general_repair"],"shopType":"general_repair"},{"id":"shop-mi-new-baltimore-preston-automotive","name":"Preston Automotive","slug":"mi-new-baltimore-preston-automotive","lat":42.6738306,"lng":-82.8169376,"state":"MI","city":"New Baltimore","address":"28230 23 Mile Road","zip":"48047","phone":"+1-586-948-1100","email":"","website":"https://www.prestonautorepair.com/","hours":"Mo-Fr 08:00-18:00","brand":"","services":["general_repair"],"shopType":"general_repair"},{"id":"shop-mi-new-baltimore-quality-lube-express","name":"Quality Lube Express","slug":"mi-new-baltimore-quality-lube-express","lat":42.6736615,"lng":-82.8169289,"state":"MI","city":"New Baltimore","address":"28230 23 Mile Road","zip":"48047","phone":"+1-586-421-0600","email":"","website":"https://www.qualitylubeexpress.com/","hours":"Mo-Fr 08:00-19:00; Sa 08:00-17:00; Su 10:00-15:00","brand":"","services":["oil_change"],"shopType":"quick_lube"},{"id":"shop-mi-detroit-milwaukee-john-r-auto-repair","name":"Milwaukee & John R Auto Repair","slug":"mi-detroit-milwaukee-john-r-auto-repair","lat":42.3697089,"lng":-83.0704633,"state":"MI","city":"Detroit","address":"104 East Milwaukee Street","zip":"48202","phone":"","email":"","website":"","hours":"","brand":"","services":["general_repair"],"shopType":"general_repair"},{"id":"shop-mi-roseville-shadowoods-auto-center","name":"Shadowoods Auto Center","slug":"mi-roseville-shadowoods-auto-center","lat":42.5274601,"lng":-82.9179396,"state":"MI","city":"Roseville","address":"31487 Gratiot Avenue","zip":"48066","phone":"+1 586 294 4160","email":"","website":"https://shadowoodsauto.com/","hours":"","brand":"","services":["general_repair"],"shopType":"general_repair"},{"id":"shop-mi-warren-bob-service-center","name":"Bob Service Center","slug":"mi-warren-bob-service-center","lat":42.4637446,"lng":-82.9759716,"state":"MI","city":"Warren","address":"14328 East 9 Mile Road","zip":"48089","phone":"","email":"","website":"","hours":"","brand":"","services":["general_repair"],"shopType":"general_repair"},{"id":"shop-mi-bloomfield-hills-bloomfield-car-care","name":"Bloomfield Car Care","slug":"mi-bloomfield-hills-bloomfield-car-care","lat":42.5809466,"lng":-83.280128,"state":"MI","city":"Bloomfield Hills","address":"4009 Telegraph Road","zip":"48302","phone":"","email":"","website":"","hours":"","brand":"","services":["general_repair"],"shopType":"general_repair"},{"id":"shop-mi-franklin-franklin-auto-service","name":"Franklin Auto Service","slug":"mi-franklin-franklin-auto-service","lat":42.5279004,"lng":-83.3063871,"state":"MI","city":"Franklin","address":"32725 Franklin Road","zip":"48025","phone":"+1 248 626 2080","email":"","website":"https://www.franklinautoservice.com/","hours":"Mo-Fr 07:30-19:00","brand":"","services":["general_repair"],"shopType":"general_repair"},{"id":"shop-mi-hazel-park-brownie-s-muffler-service","name":"Brownie's Muffler Service","slug":"mi-hazel-park-brownie-s-muffler-service","lat":42.4477122,"lng":-83.1025748,"state":"MI","city":"Hazel Park","address":"11 East 8 Mile Road","zip":"48030","phone":"","email":"","website":"","hours":"","brand":"","services":["exhaust"],"shopType":"general_repair"},{"id":"shop-mi-trenton-valvoline","name":"Valvoline","slug":"mi-trenton-valvoline","lat":42.1405317,"lng":-83.2147744,"state":"MI","city":"Trenton","address":"3901 West Road","zip":"48183","phone":"","email":"","website":"https://store.vioc.com/mi/trenton/oil-change-030070.html","hours":"","brand":"Valvoline","services":["oil_change"],"shopType":"quick_lube"},{"id":"shop-mi-plymouth-denny-s-service-center","name":"Denny's Service Center","slug":"mi-plymouth-denny-s-service-center","lat":42.3817493,"lng":-83.4617631,"state":"MI","city":"Plymouth","address":"1008 Starkweather Street","zip":"48170","phone":"+1-734-453-8115","email":"","website":"https://www.dennysautomotiverepair.com/","hours":"","brand":"","services":["car_repair","electrical","oil_change","diagnostics","brakes","repairs"],"shopType":"general_repair"},{"id":"shop-mi-lansing-big-ray-s-express-lube","name":"Big Ray's Express Lube","slug":"mi-lansing-big-ray-s-express-lube","lat":42.7070958,"lng":-84.5476805,"state":"MI","city":"Lansing","address":"2345 South Cedar Street","zip":"48910","phone":"","email":"","website":"","hours":"","brand":"","services":["oil_change"],"shopType":"quick_lube"},{"id":"shop-mi-grosse-pointe-jess-s-service-center","name":"Jess's Service Center","slug":"mi-grosse-pointe-jess-s-service-center","lat":42.3764398,"lng":-82.934584,"state":"MI","city":"Grosse Pointe","address":"15302 East Jefferson Avenue","zip":"48230","phone":"","email":"","website":"","hours":"","brand":"","services":["general_repair"],"shopType":"general_repair"},{"id":"shop-mi-grosse-pointe-krausmann-service","name":"Krausmann Service","slug":"mi-grosse-pointe-krausmann-service","lat":42.3891737,"lng":-82.9183721,"state":"MI","city":"Grosse Pointe","address":"16820 Kercheval Avenue","zip":"48230","phone":"","email":"","website":"","hours":"","brand":"","services":["general_repair"],"shopType":"general_repair"},{"id":"shop-mi-lincoln-park-motorcity-auto-towing","name":"Motorcity Auto Towing","slug":"mi-lincoln-park-motorcity-auto-towing","lat":42.2534648,"lng":-83.1896456,"state":"MI","city":"Lincoln Park","address":"1785 Southfield Road","zip":"48146","phone":"+1-734-283-3340","email":"","website":"","hours":"24/7","brand":"","services":["towing"],"shopType":"general_repair"},{"id":"shop-mi-lincoln-park-metro-sales-service","name":"Metro Sales & Service","slug":"mi-lincoln-park-metro-sales-service","lat":42.2534343,"lng":-83.1895344,"state":"MI","city":"Lincoln Park","address":"1785 Southfield Road","zip":"48146","phone":"+1-734-283-3340","email":"","website":"","hours":"Mo-Sa 09:00-17:00","brand":"","services":["reconditioning"],"shopType":"general_repair"},{"id":"shop-mi-dearborn-heights-hills-auto-service","name":"Hills Auto Service","slug":"mi-dearborn-heights-hills-auto-service","lat":42.3121897,"lng":-83.3063932,"state":"MI","city":"Dearborn Heights","address":"27000 Cherry Hill Road","zip":"48127","phone":"","email":"","website":"","hours":"","brand":"","services":["general_repair"],"shopType":"general_repair"},{"id":"shop-mi-madison-heights-fast-change","name":"Fast Change","slug":"mi-madison-heights-fast-change","lat":42.5334271,"lng":-83.1065933,"state":"MI","city":"Madison Heights","address":"32822 John R Road","zip":"48071","phone":"+1-586-899-9238","email":"","website":"https://fastchangeonline.com/","hours":"Su 10:00-16:00; Mo-Fr 8:00-19:00; Sa 9:00-18:00","brand":"","services":["oil_change"],"shopType":"quick_lube"},{"id":"shop-mi-detroit-chalmers-service-station","name":"Chalmers Service Station","slug":"mi-detroit-chalmers-service-station","lat":42.4347976,"lng":-82.9748359,"state":"MI","city":"Detroit","address":"14400 East 7 Mile Road","zip":"48205","phone":"","email":"","website":"","hours":"","brand":"","services":["general_repair"],"shopType":"general_repair"},{"id":"shop-mi-detroit-y-s-auto-service","name":"Y & S Auto Service","slug":"mi-detroit-y-s-auto-service","lat":42.4153303,"lng":-83.2416145,"state":"MI","city":"Detroit","address":"20300 West McNichols Road","zip":"48219","phone":"","email":"","website":"","hours":"","brand":"","services":["general_repair"],"shopType":"general_repair"},{"id":"shop-mi-detroit-elmhurst-auto-repiar","name":"Elmhurst Auto Repiar","slug":"mi-detroit-elmhurst-auto-repiar","lat":42.3778597,"lng":-83.1326219,"state":"MI","city":"Detroit","address":"11774 Broadstreet Avenue","zip":"48204","phone":"","email":"","website":"","hours":"","brand":"","services":["general_repair"],"shopType":"general_repair"},{"id":"shop-mi-taylor-vitale-collision-repair-auto-painting","name":"Vitale Collision Repair & Auto Painting","slug":"mi-taylor-vitale-collision-repair-auto-painting","lat":42.2122486,"lng":-83.2805436,"state":"MI","city":"Taylor","address":"25200 Northline Road","zip":"48180","phone":"+1-734-946-7900","email":"","website":"","hours":"","brand":"","services":["body_work"],"shopType":"body_shop"},{"id":"shop-mi-winn-j-t-auto-body-frame-collision","name":"J T Auto Body Frame Collision","slug":"mi-winn-j-t-auto-body-frame-collision","lat":43.5254796,"lng":-84.9047256,"state":"MI","city":"Winn","address":"2918 West Blanchard Road","zip":"48896","phone":"","email":"","website":"","hours":"","brand":"","services":["body_work"],"shopType":"body_shop"},{"id":"shop-mi-detroit-the-straits-garage","name":"The Straits Garage","slug":"mi-detroit-the-straits-garage","lat":42.3368291,"lng":-83.0181486,"state":"MI","city":"Detroit","address":"217 Joseph Campau Street","zip":"48207","phone":"","email":"","website":"","hours":"","brand":"","services":["general_repair"],"shopType":"general_repair"},{"id":"shop-mi-willis-willis-and-bunton-amoco","name":"Willis and Bunton Amoco","slug":"mi-willis-willis-and-bunton-amoco","lat":42.1580779,"lng":-83.5616979,"state":"MI","city":"Willis","address":"10004 Willis Road","zip":"48191","phone":"+1-734-461-9444","email":"","website":"","hours":"","brand":"","services":["general_repair"],"shopType":"general_repair"},{"id":"shop-mi-marquette-hoover-s-auto-body","name":"Hoover's Auto Body","slug":"mi-marquette-hoover-s-auto-body","lat":46.5674665,"lng":-87.4153224,"state":"MI","city":"Marquette","address":"1375 Union Street","zip":"49855","phone":"+1-906-226-2722","email":"","website":"","hours":"","brand":"","services":["body_work"],"shopType":"body_shop"},{"id":"shop-mi-trenton-jim-s-garage-inc","name":"Jim's Garage Inc","slug":"mi-trenton-jim-s-garage-inc","lat":42.1669902,"lng":-83.1718646,"state":"MI","city":"Trenton","address":"344 West Jefferson Avenue","zip":"48183","phone":"+1-734-284-0886","email":"","website":"http://www.facebook.com/jimsgarage1985/","hours":"Mo-Fr 08:00-17:00","brand":"","services":["general_repair"],"shopType":"general_repair"},{"id":"shop-mi-detroit-goodyear","name":"Goodyear","slug":"mi-detroit-goodyear","lat":42.3702583,"lng":-83.0725723,"state":"MI","city":"Detroit","address":"3075 East Grand Boulevard","zip":"48202","phone":"","email":"","website":"","hours":"","brand":"Goodyear","services":["general_repair"],"shopType":"general_repair"},{"id":"shop-mi-detroit-unique-auto-repair","name":"Unique Auto Repair","slug":"mi-detroit-unique-auto-repair","lat":42.3578516,"lng":-83.1956085,"state":"MI","city":"Detroit","address":"15327 Joy Road","zip":"48228","phone":"","email":"","website":"","hours":"","brand":"","services":["general_repair"],"shopType":"general_repair"},{"id":"shop-mi-detroit-valvoline","name":"Valvoline","slug":"mi-detroit-valvoline","lat":42.4022607,"lng":-83.2213198,"state":"MI","city":"Detroit","address":"18306 Grand River Avenue","zip":"48223","phone":"+1-313-646-6905","email":"elachkar18@live.com","website":"https://www.detroitquicklube.com/","hours":"","brand":"Valvoline","services":["oil_change"],"shopType":"quick_lube"},{"id":"shop-mi-detroit-rosedale-complete-auto-repair","name":"Rosedale Complete Auto Repair","slug":"mi-detroit-rosedale-complete-auto-repair","lat":42.4041523,"lng":-83.2259147,"state":"MI","city":"Detroit","address":"18760 Grand River Avenue","zip":"48223","phone":"+1-313-272-0670","email":"","website":"https://rosedale-complete-auto-repair.business.site/","hours":"","brand":"","services":["general_repair"],"shopType":"general_repair"},{"id":"shop-mi-ypsilanti-tuffy","name":"Tuffy","slug":"mi-ypsilanti-tuffy","lat":42.2487762,"lng":-83.6508472,"state":"MI","city":"Ypsilanti","address":"2441 Washtenaw Avenue","zip":"48197","phone":"","email":"","website":"","hours":"","brand":"Tuffy","services":["general_repair"],"shopType":"general_repair"},{"id":"shop-mi-ypsilanti-mr-muffler","name":"Mr Muffler","slug":"mi-ypsilanti-mr-muffler","lat":42.2497749,"lng":-83.65339,"state":"MI","city":"Ypsilanti","address":"2684 Washtenaw Avenue","zip":"48197","phone":"","email":"","website":"https://www.mrmufflerypsilanti.com/","hours":"","brand":"","services":["muffler","exhaust"],"shopType":"general_repair"},{"id":"shop-mi-detroit-cooper-auto-service","name":"Cooper Auto Service","slug":"mi-detroit-cooper-auto-service","lat":42.3710123,"lng":-83.1384849,"state":"MI","city":"Detroit","address":"10300 Livernois Avenue","zip":"48204","phone":"","email":"","website":"","hours":"","brand":"","services":["general_repair"],"shopType":"general_repair"},{"id":"shop-mi-detroit-mike-s-auto-repair","name":"Mike's Auto Repair","slug":"mi-detroit-mike-s-auto-repair","lat":42.3722452,"lng":-83.0447754,"state":"MI","city":"Detroit","address":"5800 Chene Street","zip":"48211","phone":"","email":"","website":"","hours":"","brand":"","services":["general_repair"],"shopType":"general_repair"},{"id":"shop-mi-detroit-one-shop-auto","name":"One Shop Auto","slug":"mi-detroit-one-shop-auto","lat":42.384909,"lng":-83.0714837,"state":"MI","city":"Detroit","address":"8900 Oakland Avenue","zip":"48211","phone":"","email":"","website":"","hours":"","brand":"","services":["general_repair"],"shopType":"general_repair"},{"id":"shop-mi-detroit-donny-s-collision","name":"Donny's Collision","slug":"mi-detroit-donny-s-collision","lat":42.3726788,"lng":-83.2079038,"state":"MI","city":"Detroit","address":"16420 Plymouth Road","zip":"48227","phone":"","email":"","website":"","hours":"","brand":"","services":["body_work"],"shopType":"body_shop"},{"id":"shop-mi-detroit-a-a-auto-repair","name":"A&A Auto Repair","slug":"mi-detroit-a-a-auto-repair","lat":42.3727452,"lng":-83.2031476,"state":"MI","city":"Detroit","address":"16030 Plymouth Road","zip":"48227","phone":"","email":"","website":"","hours":"","brand":"","services":["general_repair"],"shopType":"general_repair"},{"id":"shop-mi-detroit-budget-auto-repair","name":"Budget Auto Repair","slug":"mi-detroit-budget-auto-repair","lat":42.3722795,"lng":-83.1994235,"state":"MI","city":"Detroit","address":"15631 Plymouth Road","zip":"48227","phone":"","email":"","website":"","hours":"","brand":"","services":["general_repair"],"shopType":"general_repair"},{"id":"shop-mi-detroit-jay-oil-change","name":"Jay Oil Change","slug":"mi-detroit-jay-oil-change","lat":42.3741817,"lng":-83.1972286,"state":"MI","city":"Detroit","address":"11710 Greenfield Road","zip":"48227","phone":"","email":"","website":"","hours":"","brand":"","services":["oil_change"],"shopType":"quick_lube"},{"id":"shop-mi-detroit-ultra-motors","name":"Ultra Motors","slug":"mi-detroit-ultra-motors","lat":42.3750559,"lng":-83.1980008,"state":"MI","city":"Detroit","address":"12001 Greenfield Road","zip":"48227","phone":"","email":"","website":"","hours":"","brand":"","services":["general_repair"],"shopType":"general_repair"},{"id":"shop-mi-detroit-greenfield-collision","name":"Greenfield Collision","slug":"mi-detroit-greenfield-collision","lat":42.3743909,"lng":-83.1980604,"state":"MI","city":"Detroit","address":"11741 Greenfield Road","zip":"48227","phone":"","email":"","website":"","hours":"","brand":"","services":["body_work"],"shopType":"body_shop"},{"id":"shop-mi-detroit-master-brakes","name":"Master Brakes","slug":"mi-detroit-master-brakes","lat":42.3773838,"lng":-82.9818966,"state":"MI","city":"Detroit","address":"10960 Mack Avenue","zip":"48214","phone":"","email":"","website":"","hours":"","brand":"","services":["brakes"],"shopType":"general_repair"},{"id":"shop-mi-detroit-hood-s-tire-services","name":"Hood's Tire Services","slug":"mi-detroit-hood-s-tire-services","lat":42.3752857,"lng":-82.9876319,"state":"MI","city":"Detroit","address":"10401 Mack Avenue","zip":"48214","phone":"","email":"","website":"","hours":"","brand":"","services":["tires"],"shopType":"tire_shop"},{"id":"shop-mi-detroit-f-s-tire-store","name":"F&S Tire Store","slug":"mi-detroit-f-s-tire-store","lat":42.3690734,"lng":-83.001519,"state":"MI","city":"Detroit","address":"8437 Mack Avenue","zip":"48214","phone":"","email":"","website":"","hours":"","brand":"","services":["tires"],"shopType":"tire_shop"},{"id":"shop-mi-redford-t-k-auto-inc","name":"T & K Auto Inc","slug":"mi-redford-t-k-auto-inc","lat":42.361893,"lng":-83.2748219,"state":"MI","city":"Redford","address":"9194 Telegraph Road","zip":"48239","phone":"","email":"","website":"","hours":"","brand":"","services":["general_repair"],"shopType":"general_repair"},{"id":"shop-mi-redford-township-goodyear","name":"Goodyear","slug":"mi-redford-township-goodyear","lat":42.3652181,"lng":-83.2761209,"state":"MI","city":"Redford Township","address":"9565 Telegraph Road","zip":"48239","phone":"","email":"","website":"https://www.goodyear.com/en-US/tire-shop/Redford+MI+48239+US/000134818","hours":"","brand":"Goodyear","services":["tires"],"shopType":"general_repair"},{"id":"shop-mi-detroit-alter-collision","name":"Alter Collision","slug":"mi-detroit-alter-collision","lat":42.3843901,"lng":-82.9460437,"state":"MI","city":"Detroit","address":"14824 Charlevoix Street","zip":"48215","phone":"","email":"","website":"","hours":"","brand":"","services":["body_work"],"shopType":"body_shop"},{"id":"shop-mi-detroit-one-stop-auto","name":"One Stop Auto","slug":"mi-detroit-one-stop-auto","lat":42.3768245,"lng":-83.1114006,"state":"MI","city":"Detroit","address":"9711 Linwood Avenue","zip":"48206","phone":"","email":"","website":"","hours":"","brand":"","services":["general_repair"],"shopType":"general_repair"},{"id":"shop-mi-detroit-guzman-tire","name":"Guzman Tire","slug":"mi-detroit-guzman-tire","lat":42.3167076,"lng":-83.1258722,"state":"MI","city":"Detroit","address":"7601 Dix Street","zip":"","phone":"","email":"","website":"","hours":"","brand":"","services":["tires"],"shopType":"tire_shop"},{"id":"shop-mi-detroit-elite-collision","name":"Elite Collision","slug":"mi-detroit-elite-collision","lat":42.4364029,"lng":-83.1172307,"state":"MI","city":"Detroit","address":"19590 Woodward Avenue","zip":"48203","phone":"","email":"","website":"","hours":"","brand":"","services":["body_work"],"shopType":"body_shop"},{"id":"shop-mi-grand-rapids-south-division-auto","name":"South Division Auto","slug":"mi-grand-rapids-south-division-auto","lat":42.916915,"lng":-85.6666901,"state":"MI","city":"Grand Rapids","address":"2555 Division Avenue South","zip":"49507","phone":"","email":"","website":"","hours":"","brand":"","services":["general_repair"],"shopType":"general_repair"},{"id":"shop-mi-freeland-top-notch-tint","name":"Top Notch Tint","slug":"mi-freeland-top-notch-tint","lat":43.4959498,"lng":-84.0667156,"state":"MI","city":"Freeland","address":"7760 Kochville Road","zip":"48623","phone":"+1-989-573-8043","email":"","website":"","hours":"Mo-Fr 09:00-17:00","brand":"","services":["general_repair"],"shopType":"general_repair"},{"id":"shop-mi-eastpointe-muffer-man","name":"Muffer Man","slug":"mi-eastpointe-muffer-man","lat":42.4651039,"lng":-82.9569246,"state":"MI","city":"Eastpointe","address":"22700 North Gratiot Avenue","zip":"48021","phone":"+1 586 773 8760","email":"","website":"https://www.mufflermancenter.com/","hours":"Mo-Fr 08:00-17:00","brand":"","services":["exhaust","body_work"],"shopType":"general_repair"},{"id":"shop-mi-brighton-a-plus-transmission-auto-repair","name":"A Plus Transmission & Auto Repair","slug":"mi-brighton-a-plus-transmission-auto-repair","lat":42.5392761,"lng":-83.7523747,"state":"MI","city":"Brighton","address":"4355 Old US-23","zip":"48114","phone":"+1-810-229-7878","email":"","website":"https://www.aplustransmission.com","hours":"Mo-Fr 09:00-18:00","brand":"","services":["transmission"],"shopType":"transmission_shop"},{"id":"shop-mi-eastpointe-eastpointe-auto-repairs-mufflers","name":"Eastpointe Auto Repairs & Mufflers","slug":"mi-eastpointe-eastpointe-auto-repairs-mufflers","lat":42.4544979,"lng":-82.9640514,"state":"MI","city":"Eastpointe","address":"21302 North Gratiot Avenue","zip":"48021","phone":"+1-586-944-2626","email":"","website":"https://eastpointeautorepair.com/contact/","hours":"","brand":"","services":["car_repair","exhaust"],"shopType":"general_repair"},{"id":"shop-mi-eastpointe-firestone","name":"Firestone","slug":"mi-eastpointe-firestone","lat":42.456006,"lng":-82.9644363,"state":"MI","city":"Eastpointe","address":"21427 South Gratiot Avenue","zip":"","phone":"+1-586-498-1180","email":"","website":"https://cityautomotiverepair.com/","hours":"Mo-Sa 08:00-18:00","brand":"Firestone","services":["general_repair"],"shopType":"general_repair"},{"id":"shop-mi-detroit-frank-s-auto-muffler","name":"Frank's Auto & Muffler","slug":"mi-detroit-frank-s-auto-muffler","lat":42.4491413,"lng":-82.9802803,"state":"MI","city":"Detroit","address":"14010 East 8 Mile Road","zip":"","phone":"+1-313-466-6000","email":"","website":"","hours":"","brand":"","services":["exhaust"],"shopType":"general_repair"},{"id":"shop-mi-detroit-tires-galore-of-michigan","name":"Tires Galore of Michigan","slug":"mi-detroit-tires-galore-of-michigan","lat":42.4040049,"lng":-83.2756645,"state":"MI","city":"Detroit","address":"15703 Dale Street","zip":"48219","phone":"+1-313-537-1500","email":"","website":"","hours":"Mo-Su 09:00-18:00","brand":"","services":["tires"],"shopType":"tire_shop"},{"id":"shop-mi-detroit-detroit-affordable-muffler-and-auto-repair","name":"Detroit Affordable Muffler and Auto Repair","slug":"mi-detroit-detroit-affordable-muffler-and-auto-repair","lat":42.4018618,"lng":-83.1777149,"state":"MI","city":"Detroit","address":"13435 Fenkell Street","zip":"48227","phone":"+1-313-784-7784","email":"","website":"","hours":"Mo-Sa 09:00-18:00","brand":"","services":["car_repair","exhaust"],"shopType":"general_repair"},{"id":"shop-mi-detroit-detroit-auto-service","name":"Detroit Auto Service","slug":"mi-detroit-detroit-auto-service","lat":42.4322779,"lng":-82.9791015,"state":"MI","city":"Detroit","address":"14082 Gratiot Avenue","zip":"48205","phone":"+1-313-526-8000","email":"","website":"http://www.detroitautosrvc.com/","hours":"","brand":"","services":["general_repair"],"shopType":"general_repair"},{"id":"shop-mi-detroit-detroit-oil-express","name":"Detroit Oil Express","slug":"mi-detroit-detroit-oil-express","lat":42.4205587,"lng":-83.1413242,"state":"MI","city":"Detroit","address":"17415 Livernois Avenue","zip":"48221","phone":"+1-313-270-0570","email":"","website":"https://www.loc8nearme.com/michigan/detroit/detroit-oil-express/4394574/","hours":"Mo-Sa 08:00-19:00","brand":"","services":["general_repair"],"shopType":"general_repair"},{"id":"shop-mi-detroit-gratiot-auto-repair","name":"Gratiot Auto Repair","slug":"mi-detroit-gratiot-auto-repair","lat":42.4307758,"lng":-82.9800801,"state":"MI","city":"Detroit","address":"13990 Gratiot Avenue","zip":"","phone":"+1-313-245-4545","email":"","website":"","hours":"","brand":"","services":["oil_change","rim_repair","tires","batteries","tyres"],"shopType":"general_repair"},{"id":"shop-mi-detroit-express-quick-lube","name":"Express Quick Lube","slug":"mi-detroit-express-quick-lube","lat":42.4316887,"lng":-82.9795455,"state":"MI","city":"Detroit","address":"14024 Gratiot Avenue","zip":"","phone":"+1-313-245-5500","email":"","website":"https://www.expressautorepairdetroit.com/Contact/Find-Us/Mode/2/14050-Gratiot-Ave-Detroit-MI-48205/details","hours":"","brand":"","services":["oil_change"],"shopType":"quick_lube"},{"id":"shop-mi-dearborn-the-oil-exchange","name":"The Oil Exchange","slug":"mi-dearborn-the-oil-exchange","lat":42.3192764,"lng":-83.1870534,"state":"MI","city":"Dearborn","address":"14748 Michigan Avenue","zip":"","phone":"+1-313-914-5813","email":"","website":"http://theoilexchangedearborn.com/","hours":"","brand":"","services":["general_repair"],"shopType":"general_repair"},{"id":"shop-mi-grand-rapids-international-car-audio-llc","name":"International Car Audio LLC","slug":"mi-grand-rapids-international-car-audio-llc","lat":42.9112239,"lng":-85.6654255,"state":"MI","city":"Grand Rapids","address":"2850 Division Avenue South","zip":"49548","phone":"+1-616-836-8909","email":"","website":"https://internationalcaraudiollc.com","hours":"Mo-Su 09:00-19:00","brand":"","services":["general_repair"],"shopType":"general_repair"},{"id":"shop-mi-dearborn-unique-auto-of-dearborn","name":"Unique Auto of Dearborn","slug":"mi-dearborn-unique-auto-of-dearborn","lat":42.3405682,"lng":-83.1772156,"state":"MI","city":"Dearborn","address":"6811 Schaefer Road","zip":"","phone":"","email":"","website":"","hours":"","brand":"","services":["general_repair"],"shopType":"general_repair"},{"id":"shop-mi-detroit-amc-automotive","name":"AMC Automotive","slug":"mi-detroit-amc-automotive","lat":42.3585625,"lng":-83.1147537,"state":"MI","city":"Detroit","address":"7667 Grand River Avenue","zip":"48208","phone":"","email":"","website":"","hours":"","brand":"","services":["general_repair"],"shopType":"general_repair"},{"id":"shop-mi-northville-phil-s-76-service-inc","name":"Phil's 76 Service Inc.","slug":"mi-northville-phil-s-76-service-inc","lat":42.4263717,"lng":-83.471787,"state":"MI","city":"Northville","address":"19340 Gerald Street","zip":"48167","phone":"+1-248-349-2550","email":"","website":"https://phils76autorepair.com","hours":"Mo-Fr 08:00-17:00; Sa,Su 11:00-17:00","brand":"","services":["general_repair"],"shopType":"general_repair"},{"id":"shop-mi-detroit-shatila-service-center","name":"Shatila Service Center","slug":"mi-detroit-shatila-service-center","lat":42.3433067,"lng":-83.2094578,"state":"MI","city":"Detroit","address":"16641 West Warren Avenue","zip":"","phone":"+1-313-586-1067","email":"","website":"","hours":"","brand":"","services":["towing"],"shopType":"general_repair"},{"id":"shop-mi-howell-superior-small-engine-worx-llc","name":"Superior Small Engine Worx LLC","slug":"mi-howell-superior-small-engine-worx-llc","lat":42.6754723,"lng":-83.8564849,"state":"MI","city":"Howell","address":"5139 East Clyde Road","zip":"","phone":"+1-517-618-7218","email":"","website":"https://smallengineworx.com","hours":"Mo-Fr 09:00-17:30","brand":"","services":["engine_repair"],"shopType":"general_repair"},{"id":"shop-mi-detroit-big-moe-auto-repair","name":"Big Moe Auto Repair","slug":"mi-detroit-big-moe-auto-repair","lat":42.3682102,"lng":-83.1970175,"state":"MI","city":"Detroit","address":"9900 Greenfield Road","zip":"48227","phone":"+1-313-835-1038","email":"","website":"https://bigmoeautorepair.com","hours":"Mo-Sa 08:00-18:00","brand":"","services":["general_repair"],"shopType":"general_repair"},{"id":"shop-mi-ecorse-untouchables-tires","name":"Untouchables Tires","slug":"mi-ecorse-untouchables-tires","lat":42.2596532,"lng":-83.1385651,"state":"MI","city":"Ecorse","address":"3702 West Jefferson Avenue","zip":"48229","phone":"+1-313-789-8098","email":"","website":"","hours":"","brand":"","services":["tires"],"shopType":"tire_shop"},{"id":"shop-mi-pontiac-ltm-auto-truck-trailer","name":"LTM Auto Truck & Trailer","slug":"mi-pontiac-ltm-auto-truck-trailer","lat":42.6827376,"lng":-83.288306,"state":"MI","city":"Pontiac","address":"1591 East Highwood Boulevard","zip":"48340","phone":"+1-248-333-3772","email":"","website":"https://www.autorepairpontiac.com","hours":"Mo-Fr 09:00-18:00","brand":"","services":["general_repair"],"shopType":"general_repair"},{"id":"shop-mi-detroit-top-job-oil-change","name":"Top Job Oil Change","slug":"mi-detroit-top-job-oil-change","lat":42.3313762,"lng":-83.1243837,"state":"MI","city":"Detroit","address":"6532 Michigan Avenue","zip":"48210","phone":"","email":"","website":"","hours":"","brand":"","services":["oil_change"],"shopType":"quick_lube"},{"id":"shop-mi-detroit-metro-tire","name":"Metro Tire","slug":"mi-detroit-metro-tire","lat":42.3317151,"lng":-83.0886026,"state":"MI","city":"Detroit","address":"3250 Michigan Avenue","zip":"48216","phone":"","email":"","website":"","hours":"","brand":"","services":["tires"],"shopType":"tire_shop"},{"id":"shop-mi-holland-a-j-automotive","name":"A & J Automotive","slug":"mi-holland-a-j-automotive","lat":42.8142544,"lng":-86.0903756,"state":"MI","city":"Holland","address":"2490 Van Ommen Drive","zip":"49424","phone":"+1-616-494-9447","email":"","website":"https://ajautollc.com","hours":"Mo-Fr 08:00-17:00","brand":"","services":["general_repair"],"shopType":"general_repair"},{"id":"shop-mi-canton-quick-lane","name":"Quick Lane","slug":"mi-canton-quick-lane","lat":42.327716,"lng":-83.4891506,"state":"MI","city":"Canton","address":"6181 North Canton Center Road","zip":"","phone":"+1-734-582-7280","email":"","website":"https://www.quicklane.com/en-us/oil-change-tire-auto-repair-store/mi/canton/48187/quick-lane-tire-and-auto-center/QL268/","hours":"","brand":"","services":["tires"],"shopType":"general_repair"},{"id":"shop-mi-detroit-detailxperts","name":"DetailXPerts","slug":"mi-detroit-detailxperts","lat":42.3650725,"lng":-83.0730268,"state":"MI","city":"Detroit","address":"440 Burroughs Street","zip":"48202","phone":"","email":"","website":"","hours":"","brand":"","services":["general_repair"],"shopType":"general_repair"},{"id":"shop-mi-alma-precision-auto-body-and-service-center","name":"Precision Auto Body and Service Center","slug":"mi-alma-precision-auto-body-and-service-center","lat":43.3682383,"lng":-84.6064609,"state":"MI","city":"Alma","address":"5240 North State Road","zip":"48801","phone":"+1-989-463-2261","email":"","website":"","hours":"","brand":"","services":["body_work","body_repair"],"shopType":"general_repair"},{"id":"shop-mi-homer-ez-money-racing","name":"EZ Money Racing","slug":"mi-homer-ez-money-racing","lat":42.1371636,"lng":-84.8607882,"state":"MI","city":"Homer","address":"22231 West M 60","zip":"","phone":"+1-517-617-1345","email":"","website":"","hours":"","brand":"","services":["general_repair"],"shopType":"general_repair"},{"id":"shop-mi-jackson-infinite-motorsports","name":"Infinite Motorsports","slug":"mi-jackson-infinite-motorsports","lat":42.2549854,"lng":-84.4042028,"state":"MI","city":"Jackson","address":"200 East Ganson Street","zip":"49202","phone":"+1-517-414-3058","email":"","website":"","hours":"","brand":"","services":["detailing","wrapping"],"shopType":"general_repair"},{"id":"shop-mi-warren-pole-position-auto-body","name":"Pole Position Auto Body","slug":"mi-warren-pole-position-auto-body","lat":42.4919936,"lng":-82.9777198,"state":"MI","city":"Warren","address":"26777 Bunert Road","zip":"48089","phone":"+1-586-775-4825","email":"","website":"","hours":"","brand":"","services":["painting","car_repair","parts","body_work"],"shopType":"general_repair"},{"id":"shop-mi-clare-valvoline-express-care","name":"Valvoline Express Care","slug":"mi-clare-valvoline-express-care","lat":43.8389069,"lng":-84.7688392,"state":"MI","city":"Clare","address":"10344 South Clare Avenue","zip":"48617","phone":"+1-989-272-4084","email":"","website":"https://locations.expresscare.com/mi/clare/0000584585/","hours":"Mo-Fr 08:30-17:30; Sa 08:00-15:00","brand":"Valvoline","services":["oil_change"],"shopType":"quick_lube"},{"id":"shop-mi-redford-daly-auto-repair","name":"Daly Auto Repair","slug":"mi-redford-daly-auto-repair","lat":42.4415019,"lng":-83.3215511,"state":"MI","city":"Redford","address":"25775 8 Mile Road","zip":"48240","phone":"+1-313-694-3258","email":"","website":"https://dalyautorepair.com","hours":"Mo-Fr 08:00-18:00; Sa 08:00-16:00","brand":"","services":["general_repair"],"shopType":"general_repair"},{"id":"shop-mi-southfield-tesla-service","name":"Tesla Service","slug":"mi-southfield-tesla-service","lat":42.4483383,"lng":-83.2787056,"state":"MI","city":"Southfield","address":"21375 Telegraph Road","zip":"","phone":"","email":"","website":"","hours":"","brand":"Tesla","services":["electrical"],"shopType":"general_repair"},{"id":"shop-mi-southfield-glassman-body-shop","name":"Glassman Body Shop","slug":"mi-southfield-glassman-body-shop","lat":42.4541533,"lng":-83.2775932,"state":"MI","city":"Southfield","address":"22250 Telegraph Road","zip":"48033","phone":"+1-248-654-8945","email":"","website":"https://www.glassmanbodyshop.com/","hours":"","brand":"","services":["body_work"],"shopType":"body_shop"},{"id":"shop-mi-detroit-fred-sons-1-collision-shop","name":"Fred & Sons #1 Collision Shop","slug":"mi-detroit-fred-sons-1-collision-shop","lat":42.4222372,"lng":-83.1406254,"state":"MI","city":"Detroit","address":"17600 Livernois Avenue","zip":"48221","phone":"","email":"","website":"","hours":"","brand":"","services":["body_work"],"shopType":"body_shop"},{"id":"shop-mi-detroit-ray-s-foreign-car-repair","name":"Ray's Foreign Car Repair","slug":"mi-detroit-ray-s-foreign-car-repair","lat":42.4097048,"lng":-83.1479673,"state":"MI","city":"Detroit","address":"7625 Puritan Street","zip":"48238","phone":"","email":"","website":"","hours":"","brand":"","services":["general_repair"],"shopType":"general_repair"},{"id":"shop-mi-kalamazoo-valvoline","name":"Valvoline","slug":"mi-kalamazoo-valvoline","lat":42.3258231,"lng":-85.515438,"state":"MI","city":"Kalamazoo","address":"5810 Gull Road","zip":"49048","phone":"","email":"","website":"https://store.vioc.com/mi/kalamazoo/oil-change-030094.html","hours":"","brand":"Valvoline","services":["oil_change"],"shopType":"quick_lube"},{"id":"shop-mi-lincoln-park-auto-advantage","name":"Auto Advantage","slug":"mi-lincoln-park-auto-advantage","lat":42.2519168,"lng":-83.1814088,"state":"MI","city":"Lincoln Park","address":"1486 Southfield Road","zip":"48146","phone":"+1-313-386-1234","email":"","website":"","hours":"","brand":"","services":["general_repair"],"shopType":"general_repair"},{"id":"shop-mi-comstock-park-hankinson-s-radiator-shop","name":"Hankinson's Radiator Shop","slug":"mi-comstock-park-hankinson-s-radiator-shop","lat":43.0534702,"lng":-85.6498826,"state":"MI","city":"Comstock Park","address":"4976 West River Drive Northeast","zip":"49321","phone":"+1-616-784-3810","email":"","website":"","hours":"Mo-Fr 08:00-17:30","brand":"","services":["general_repair"],"shopType":"general_repair"},{"id":"shop-mi-comsock-park-magnum-auto-repair","name":"Magnum Auto Repair","slug":"mi-comsock-park-magnum-auto-repair","lat":43.0577232,"lng":-85.6422641,"state":"MI","city":"Comsock Park","address":"5210 West River Drive Northeast","zip":"49321","phone":"+1-616-785-6033","email":"","website":"","hours":"Mo-Fr 08:00-17:00; Sa-Su closed","brand":"","services":["general_repair"],"shopType":"general_repair"},{"id":"shop-mi-comsock-park-west-river-car-care","name":"West River Car Care","slug":"mi-comsock-park-west-river-car-care","lat":43.0618938,"lng":-85.6360359,"state":"MI","city":"Comsock Park","address":"5484 West River Drive Northeast","zip":"49321","phone":"+1-616-647-2870","email":"","website":"","hours":"Mo-Fr 08:00-17:30","brand":"","services":["general_repair"],"shopType":"general_repair"},{"id":"shop-mi-comsock-park-rapid-cycle-works","name":"Rapid Cycle Works","slug":"mi-comsock-park-rapid-cycle-works","lat":43.0644237,"lng":-85.6315781,"state":"MI","city":"Comsock Park","address":"5588 West River Drive Northeast","zip":"49321","phone":"+1-616-202-7054","email":"","website":"","hours":"Mo,Tu,Th,Fr 09:00-17:00","brand":"","services":["general_repair"],"shopType":"general_repair"},{"id":"shop-mi-lincoln-park-national-auto-glass","name":"National Auto Glass","slug":"mi-lincoln-park-national-auto-glass","lat":42.2473764,"lng":-83.1957663,"state":"MI","city":"Lincoln Park","address":"2580 Dix Highway","zip":"48146","phone":"","email":"","website":"","hours":"","brand":"","services":["general_repair"],"shopType":"general_repair"},{"id":"shop-mi-detroit-riviera-auto-service","name":"Riviera Auto Service","slug":"mi-detroit-riviera-auto-service","lat":42.361124,"lng":-82.9822851,"state":"MI","city":"Detroit","address":"9939 East Jefferson Avenue","zip":"48214","phone":"","email":"","website":"","hours":"","brand":"","services":["general_repair"],"shopType":"general_repair"},{"id":"shop-mi-farmington-darrell-s-firestone","name":"Darrell's Firestone","slug":"mi-farmington-darrell-s-firestone","lat":42.4640172,"lng":-83.3760617,"state":"MI","city":"Farmington","address":"23534 Farmington Road","zip":"","phone":"","email":"","website":"https://www.darrellsfirestone.com/","hours":"","brand":"Firestone","services":["general_repair"],"shopType":"general_repair"},{"id":"shop-mi-warren-lads-auto-center","name":"Lads Auto center","slug":"mi-warren-lads-auto-center","lat":42.5031276,"lng":-83.0797235,"state":"MI","city":"Warren","address":"28813 Universal Drive","zip":"","phone":"+1 586 277 1132","email":"","website":"http://LADSAUTOMOTIVE.COM","hours":"","brand":"","services":["general_repair"],"shopType":"general_repair"},{"id":"shop-mi-westland-westland-auto-lube","name":"Westland Auto Lube","slug":"mi-westland-westland-auto-lube","lat":42.3174981,"lng":-83.388415,"state":"MI","city":"Westland","address":"1112 North Wayne Road","zip":"48185","phone":"","email":"","website":"","hours":"","brand":"","services":["oil_change"],"shopType":"quick_lube"},{"id":"shop-mi-westland-zacks-auto","name":"Zacks Auto","slug":"mi-westland-zacks-auto","lat":42.3175757,"lng":-83.3884183,"state":"MI","city":"Westland","address":"1124 North Wayne Road","zip":"48185","phone":"","email":"","website":"","hours":"","brand":"","services":["general_repair"],"shopType":"general_repair"},{"id":"shop-mi-marysville-busha-motors","name":"Busha Motors","slug":"mi-marysville-busha-motors","lat":42.9088592,"lng":-82.4752821,"state":"MI","city":"Marysville","address":"500 East Huron Boulevard","zip":"48040","phone":"+1-810-364-6658","email":"","website":"https://bushamotors.com","hours":"Mo-Fr 09:00-18:00; Sa 09:00-12:00","brand":"","services":["body_work","body_repair"],"shopType":"general_repair"},{"id":"shop-mi-detroit-dannie-s-family-oil-change","name":"Dannie's Family Oil Change","slug":"mi-detroit-dannie-s-family-oil-change","lat":42.3583081,"lng":-83.1755206,"state":"MI","city":"Detroit","address":"13303 Joy Road","zip":"48228","phone":"","email":"","website":"","hours":"","brand":"","services":["oil_change"],"shopType":"quick_lube"},{"id":"shop-mi-redford-charter-township-collision-shop","name":"Collision Shop","slug":"mi-redford-charter-township-collision-shop","lat":42.3986792,"lng":-83.2759078,"state":"MI","city":"Redford Charter Township","address":"15124 Telegraph Road","zip":"48239","phone":"+1-313-286-3850","email":"","website":"https://collisionshopmi.com","hours":"Mo-Fr 09:00-17:00; Sa 09:00-14:00","brand":"","services":["body_work"],"shopType":"body_shop"},{"id":"shop-mi-warren-wheel-alignment-shop-s88-00","name":"Wheel Alignment Shop S88.00","slug":"mi-warren-wheel-alignment-shop-s88-00","lat":42.5348421,"lng":-83.0289897,"state":"MI","city":"Warren","address":"32690 Van Dyke Avenue","zip":"48093","phone":"+1-313-638-8000","email":"","website":"https://www.wheelalignment.shop/","hours":"Mo-Sa 08:00-18:00; Su 12:00-17:00","brand":"","services":["wheel_alignment","alignment"],"shopType":"general_repair"},{"id":"shop-mi-birmingham-quick-lube-birmingham","name":"Quick Lube Birmingham","slug":"mi-birmingham-quick-lube-birmingham","lat":42.5342311,"lng":-83.201341,"state":"MI","city":"Birmingham","address":"33400 Woodward Avenue","zip":"48009","phone":"","email":"","website":"","hours":"Mo-Sa 08:00-18:00; Su 10:00-17:00","brand":"","services":["oil_change"],"shopType":"quick_lube"},{"id":"shop-mi-wyandotte-the-detail-shop","name":"The Detail Shop","slug":"mi-wyandotte-the-detail-shop","lat":42.1993721,"lng":-83.1691228,"state":"MI","city":"Wyandotte","address":"1333 Eureka Road","zip":"48192","phone":"+1-734-324-5797","email":"","website":"","hours":"","brand":"","services":["general_repair"],"shopType":"general_repair"},{"id":"shop-mi-detroit-norris-collision","name":"Norris Collision","slug":"mi-detroit-norris-collision","lat":42.3675835,"lng":-83.1367428,"state":"MI","city":"Detroit","address":"9669 Grand River Avenue","zip":"48204","phone":"","email":"","website":"","hours":"","brand":"","services":["body_work"],"shopType":"body_shop"},{"id":"shop-mi-detroit-sonny-s-service","name":"Sonny's Service","slug":"mi-detroit-sonny-s-service","lat":42.3677523,"lng":-83.1373386,"state":"MI","city":"Detroit","address":"9689 Grand River Avenue","zip":"48204","phone":"","email":"","website":"","hours":"","brand":"","services":["general_repair"],"shopType":"general_repair"},{"id":"shop-mi-dearborn-hnn-west-dearborn-auto-repair","name":"HNN West Dearborn Auto Repair","slug":"mi-dearborn-hnn-west-dearborn-auto-repair","lat":42.2929162,"lng":-83.2492599,"state":"MI","city":"Dearborn","address":"2701 Monroe Street","zip":"","phone":"+1 313-562-8760","email":"","website":"","hours":"","brand":"","services":["general_repair"],"shopType":"general_repair"},{"id":"shop-mi-riverview-al-s-auto-glass-inc","name":"Al's Auto Glass, Inc.","slug":"mi-riverview-al-s-auto-glass-inc","lat":42.1764371,"lng":-83.1884826,"state":"MI","city":"Riverview","address":"18085 Fort Street","zip":"48193","phone":"+1-734-246-4500","email":"","website":"","hours":"","brand":"","services":["glass"],"shopType":"general_repair"},{"id":"shop-mi-detroit-a-1-auto-repair","name":"A 1 Auto Repair","slug":"mi-detroit-a-1-auto-repair","lat":42.3823501,"lng":-83.0168043,"state":"MI","city":"Detroit","address":"5788 Van Dyke Street","zip":"48213","phone":"","email":"","website":"","hours":"","brand":"","services":["general_repair"],"shopType":"general_repair"},{"id":"shop-mi-detroit-service-tire-alignment","name":"Service Tire & Alignment","slug":"mi-detroit-service-tire-alignment","lat":42.3151916,"lng":-83.1158185,"state":"MI","city":"Detroit","address":"2200 Waterman Street","zip":"48209","phone":"","email":"","website":"","hours":"","brand":"","services":["tires","alignment"],"shopType":"tire_shop"},{"id":"shop-mi-detroit-mc-auto-service","name":"MC Auto Service","slug":"mi-detroit-mc-auto-service","lat":42.3116136,"lng":-83.1133126,"state":"MI","city":"Detroit","address":"1650 Waterman Street","zip":"48209","phone":"","email":"","website":"","hours":"","brand":"","services":["general_repair"],"shopType":"general_repair"},{"id":"shop-mi-detroit-maaco-auto-body-shop-painting","name":"Maaco Auto Body Shop & Painting","slug":"mi-detroit-maaco-auto-body-shop-painting","lat":42.3724791,"lng":-83.2190185,"state":"MI","city":"Detroit","address":"18250 Plymouth Road","zip":"48228","phone":"","email":"","website":"","hours":"","brand":"Maaco","services":["painting","body_work","body_repair"],"shopType":"body_shop"},{"id":"shop-mi-detroit-sunshine-auto-collision","name":"Sunshine Auto Collision","slug":"mi-detroit-sunshine-auto-collision","lat":42.3726454,"lng":-83.2111008,"state":"MI","city":"Detroit","address":"16800 Plymouth Road","zip":"48227","phone":"","email":"","website":"","hours":"","brand":"","services":["body_work"],"shopType":"body_shop"},{"id":"shop-mi-ecorse-top-hat-auto-inc","name":"Top Hat Auto Inc.","slug":"mi-ecorse-top-hat-auto-inc","lat":42.2504598,"lng":-83.1410907,"state":"MI","city":"Ecorse","address":"4091 West Jefferson Avenue","zip":"48229","phone":"","email":"","website":"","hours":"","brand":"","services":["general_repair"],"shopType":"general_repair"},{"id":"shop-mi-detroit-donald-leese-towing","name":"Donald Leese Towing","slug":"mi-detroit-donald-leese-towing","lat":42.4000063,"lng":-83.2646178,"state":"MI","city":"Detroit","address":"22605 Fenkell Street","zip":"48223","phone":"","email":"","website":"","hours":"","brand":"","services":["general_repair"],"shopType":"general_repair"},{"id":"shop-mi-white-lake-miller-s-highland-tire-auto-repair","name":"Miller's Highland Tire & Auto Repair","slug":"mi-white-lake-miller-s-highland-tire-auto-repair","lat":42.649642,"lng":-83.5131616,"state":"MI","city":"White Lake","address":"7421 Highland Road","zip":"48383","phone":"","email":"","website":"","hours":"","brand":"","services":["tires"],"shopType":"tire_shop"},{"id":"shop-mi-white-lake-belle-tire","name":"Belle Tire","slug":"mi-white-lake-belle-tire","lat":42.6561666,"lng":-83.4689024,"state":"MI","city":"White Lake","address":"9201 Highland Road","zip":"48383","phone":"+1 248-694-9997","email":"","website":"https://www.belletire.com/stores/detail/63/belle-tire-white-lake-mi","hours":"Mo 08:00-20:00; Tu-We 08:00-18:00; Th 08:00-20:00; Fr 08:00-18:00; Sa 08:00-17:00; Su closed","brand":"Belle Tire","services":["tires"],"shopType":"tire_shop"},{"id":"shop-mi-detroit-mccall-towing-repair","name":"McCall Towing & Repair","slug":"mi-detroit-mccall-towing-repair","lat":42.3725054,"lng":-83.1195967,"state":"MI","city":"Detroit","address":"9535 Dexter Avenue","zip":"48206","phone":"","email":"","website":"","hours":"","brand":"","services":["general_repair"],"shopType":"general_repair"},{"id":"shop-mi-detroit-xpress-mufflers","name":"Xpress Mufflers","slug":"mi-detroit-xpress-mufflers","lat":42.4017406,"lng":-83.1980205,"state":"MI","city":"Detroit","address":"15430 Fenkell Street","zip":"48227","phone":"","email":"","website":"","hours":"","brand":"","services":["exhaust"],"shopType":"general_repair"},{"id":"shop-mi-reed-city-reed-city-auto-sales-service","name":"Reed City Auto Sales & Service","slug":"mi-reed-city-reed-city-auto-sales-service","lat":43.8878329,"lng":-85.5420549,"state":"MI","city":"Reed City","address":"22964 W US-10","zip":"49677","phone":"","email":"","website":"","hours":"","brand":"","services":["general_repair"],"shopType":"general_repair"},{"id":"shop-mi-onaway-norb-s-auto-body","name":"Norb's Auto Body","slug":"mi-onaway-norb-s-auto-body","lat":45.35712,"lng":-84.2302287,"state":"MI","city":"Onaway","address":"20806 Washington Street","zip":"49765","phone":"+1-989-733-2696","email":"","website":"","hours":"","brand":"","services":["body_work"],"shopType":"body_shop"},