[{"id":"shop-ne-unknown-lube-express-center","name":"Lube Express Center","slug":"ne-unknown-lube-express-center","lat":42.0972192,"lng":-102.8868815,"state":"NE","city":"","address":"","zip":"","phone":"","email":"","website":"","hours":"","brand":"","services":["oil_change"],"shopType":"quick_lube"},{"id":"shop-ne-unknown-pst-automotive","name":"PST Automotive","slug":"ne-unknown-pst-automotive","lat":42.09705,"lng":-102.8930613,"state":"NE","city":"","address":"West 3rd Street","zip":"69301","phone":"","email":"","website":"","hours":"","brand":"","services":["general_repair"],"shopType":"general_repair"},{"id":"shop-ne-unknown-mr-tire-car-care-center","name":"Mr Tire Car Care Center","slug":"ne-unknown-mr-tire-car-care-center","lat":42.0975057,"lng":-102.8809914,"state":"NE","city":"","address":"","zip":"","phone":"","email":"","website":"","hours":"","brand":"","services":["tires"],"shopType":"tire_shop"},{"id":"shop-ne-unknown-tom-s-auto-and-cycle-repair","name":"Tom's Auto and Cycle Repair","slug":"ne-unknown-tom-s-auto-and-cycle-repair","lat":42.0964947,"lng":-102.8843898,"state":"NE","city":"","address":"","zip":"","phone":"","email":"","website":"","hours":"","brand":"","services":["general_repair"],"shopType":"general_repair"},{"id":"shop-ne-unknown-zach-oil-service-center","name":"Zach Oil Service Center","slug":"ne-unknown-zach-oil-service-center","lat":42.2269649,"lng":-97.0181672,"state":"NE","city":"","address":"","zip":"","phone":"","email":"","website":"","hours":"","brand":"","services":["general_repair"],"shopType":"general_repair"},{"id":"shop-ne-unknown-spann-auto-machine","name":"Spann Auto Machine","slug":"ne-unknown-spann-auto-machine","lat":42.2272708,"lng":-97.0174108,"state":"NE","city":"","address":"","zip":"","phone":"","email":"","website":"","hours":"","brand":"","services":["general_repair"],"shopType":"general_repair"},{"id":"shop-ne-unknown-winning-finish","name":"Winning Finish","slug":"ne-unknown-winning-finish","lat":42.2257375,"lng":-97.0173384,"state":"NE","city":"","address":"","zip":"","phone":"","email":"","website":"","hours":"","brand":"","services":["general_repair"],"shopType":"general_repair"},{"id":"shop-ne-unknown-exhaust-pros-lightning-lube","name":"Exhaust Pros & Lightning Lube","slug":"ne-unknown-exhaust-pros-lightning-lube","lat":42.2289411,"lng":-97.0201842,"state":"NE","city":"","address":"","zip":"","phone":"","email":"","website":"","hours":"","brand":"","services":["oil_change","exhaust"],"shopType":"quick_lube"},{"id":"shop-ne-unknown-arnie-s-ford","name":"Arnie's Ford","slug":"ne-unknown-arnie-s-ford","lat":42.230947,"lng":-97.0168181,"state":"NE","city":"","address":"","zip":"","phone":"","email":"","website":"","hours":"","brand":"","services":["general_repair"],"shopType":"general_repair"},{"id":"shop-ne-unknown-main-street-auto-care","name":"Main Street Auto Care","slug":"ne-unknown-main-street-auto-care","lat":42.2352267,"lng":-97.0182343,"state":"NE","city":"","address":"","zip":"","phone":"","email":"","website":"","hours":"","brand":"","services":["general_repair"],"shopType":"general_repair"},{"id":"shop-ne-unknown-heikes-automotive","name":"Heikes Automotive","slug":"ne-unknown-heikes-automotive","lat":42.2331852,"lng":-97.0174725,"state":"NE","city":"","address":"","zip":"","phone":"","email":"","website":"","hours":"","brand":"","services":["general_repair"],"shopType":"general_repair"},{"id":"shop-ne-unknown-white-horse","name":"White Horse","slug":"ne-unknown-white-horse","lat":42.2338386,"lng":-97.018186,"state":"NE","city":"","address":"","zip":"","phone":"","email":"","website":"","hours":"","brand":"","services":["general_repair"],"shopType":"general_repair"},{"id":"shop-ne-unknown-sinclair","name":"Sinclair","slug":"ne-unknown-sinclair","lat":42.2349547,"lng":-97.0172177,"state":"NE","city":"","address":"","zip":"","phone":"","email":"","website":"","hours":"","brand":"","services":["general_repair"],"shopType":"general_repair"},{"id":"shop-ne-unknown-breitbarth-one-stop","name":"Breitbarth One Stop","slug":"ne-unknown-breitbarth-one-stop","lat":42.1164475,"lng":-96.7074391,"state":"NE","city":"","address":"","zip":"","phone":"","email":"","website":"","hours":"","brand":"","services":["general_repair"],"shopType":"general_repair"},{"id":"shop-ne-unknown-tj-s-auto-repair","name":"TJ's Auto Repair","slug":"ne-unknown-tj-s-auto-repair","lat":42.1108653,"lng":-96.7067815,"state":"NE","city":"","address":"","zip":"","phone":"","email":"","website":"","hours":"","brand":"","services":["general_repair"],"shopType":"general_repair"},{"id":"shop-ne-niobrara-moody-motor-company","name":"Moody Motor Company","slug":"ne-niobrara-moody-motor-company","lat":42.7512006,"lng":-98.0350118,"state":"NE","city":"Niobrara","address":"251 Spruce Avenue","zip":"68760","phone":"+1-800-745-5650; +1-402-857-3711","email":"","website":"https://www.moodymotor.com/","hours":"Mo-Fr 08:00-17:30; Sa 08:00-16:00; Su closed","brand":"","services":["general_repair"],"shopType":"general_repair"},{"id":"shop-ne-unknown-j-k-auto","name":"J & K Auto","slug":"ne-unknown-j-k-auto","lat":42.7507955,"lng":-98.030422,"state":"NE","city":"","address":"","zip":"","phone":"","email":"","website":"","hours":"","brand":"","services":["general_repair"],"shopType":"general_repair"},{"id":"shop-ne-tilden-wills-paint-body","name":"Wills Paint & Body","slug":"ne-tilden-wills-paint-body","lat":42.0477957,"lng":-97.8306256,"state":"NE","city":"Tilden","address":"300 E 1st ST","zip":"68781","phone":"+1-402 368-2945","email":"","website":"","hours":"24/7","brand":"","services":["towing","glass","body_work","body_repair"],"shopType":"general_repair"},{"id":"shop-ne-valentine-premium-automotive-repair-inc","name":"Premium Automotive Repair Inc.","slug":"ne-valentine-premium-automotive-repair-inc","lat":42.8743583,"lng":-100.5494752,"state":"NE","city":"Valentine","address":"353 Hwy 97","zip":"69201","phone":"+1 402-376-1550","email":"","website":"https://premiumautorepairinc.com","hours":"Mo-Fr 08:00-17:30, Sa 08:00-12:00","brand":"","services":["repair","towing"],"shopType":"general_repair"},{"id":"shop-ne-alliance-kaiser-tire","name":"Kaiser Tire","slug":"ne-alliance-kaiser-tire","lat":42.0964479,"lng":-102.886337,"state":"NE","city":"Alliance","address":"1115 West 3rd Street","zip":"68301","phone":"+1-308-762-1689","email":"kaisertire@gmail.com","website":"https://www.kaisertirellc.com","hours":"Mo-Fr 07:00-17:00","brand":"","services":["tires"],"shopType":"tire_shop"},{"id":"shop-ne-unknown-fox-run-quik-lube","name":"Fox Run Quik Lube","slug":"ne-unknown-fox-run-quik-lube","lat":42.8982533,"lng":-97.3992712,"state":"NE","city":"","address":"","zip":"","phone":"","email":"","website":"","hours":"","brand":"","services":["oil_change"],"shopType":"quick_lube"},{"id":"shop-ne-unknown-ricks-auto","name":"Ricks Auto","slug":"ne-unknown-ricks-auto","lat":42.2067647,"lng":-97.5384432,"state":"NE","city":"","address":"","zip":"","phone":"","email":"","website":"","hours":"","brand":"","services":["general_repair"],"shopType":"general_repair"},{"id":"shop-ne-unknown-rogers-auto-repair","name":"Rogers Auto Repair","slug":"ne-unknown-rogers-auto-repair","lat":42.4994588,"lng":-97.536125,"state":"NE","city":"","address":"","zip":"","phone":"","email":"","website":"","hours":"","brand":"","services":["general_repair"],"shopType":"general_repair"},{"id":"shop-ne-unknown-scott-s-automotive","name":"Scott's Automotive","slug":"ne-unknown-scott-s-automotive","lat":42.3849456,"lng":-96.9871089,"state":"NE","city":"","address":"","zip":"","phone":"","email":"","website":"","hours":"","brand":"","services":["general_repair"],"shopType":"general_repair"},{"id":"shop-ne-unknown-sturdevant-s-auto-parts","name":"Sturdevant's Auto Parts","slug":"ne-unknown-sturdevant-s-auto-parts","lat":42.8773497,"lng":-97.3669751,"state":"NE","city":"","address":"","zip":"","phone":"","email":"","website":"","hours":"","brand":"","services":["general_repair"],"shopType":"general_repair"},{"id":"shop-ne-unknown-chadron-express-lube","name":"Chadron Express Lube","slug":"ne-unknown-chadron-express-lube","lat":42.8240267,"lng":-103.0189142,"state":"NE","city":"","address":"","zip":"","phone":"","email":"","website":"","hours":"","brand":"","services":["oil_change"],"shopType":"quick_lube"},{"id":"shop-ne-unknown-quality-tire","name":"Quality Tire","slug":"ne-unknown-quality-tire","lat":42.8258561,"lng":-103.0210642,"state":"NE","city":"","address":"","zip":"","phone":"","email":"","website":"","hours":"","brand":"","services":["tires"],"shopType":"tire_shop"},{"id":"shop-ne-unknown-les-schwab-tire-center","name":"Les Schwab Tire Center","slug":"ne-unknown-les-schwab-tire-center","lat":42.9042913,"lng":-97.3990029,"state":"NE","city":"","address":"","zip":"","phone":"","email":"","website":"","hours":"","brand":"Les Schwab","services":["tires"],"shopType":"tire_shop"},{"id":"shop-ne-unknown-graham-tire","name":"Graham Tire","slug":"ne-unknown-graham-tire","lat":42.9029565,"lng":-97.3992226,"state":"NE","city":"","address":"","zip":"","phone":"","email":"","website":"","hours":"","brand":"Goodyear","services":["tires"],"shopType":"tire_shop"},{"id":"shop-ne-unknown-hoffart-repair","name":"Hoffart Repair","slug":"ne-unknown-hoffart-repair","lat":42.3500729,"lng":-97.7932378,"state":"NE","city":"","address":"","zip":"","phone":"","email":"","website":"","hours":"","brand":"","services":["general_repair"],"shopType":"general_repair"},{"id":"shop-ne-unknown-h-l-truck-repair-llc","name":"H & L Truck Repair LLC","slug":"ne-unknown-h-l-truck-repair-llc","lat":42.8789295,"lng":-97.3352446,"state":"NE","city":"","address":"","zip":"","phone":"","email":"","website":"","hours":"","brand":"","services":["general_repair"],"shopType":"general_repair"},{"id":"shop-ne-homer-troy-s-auto-world","name":"Troy's Auto World","slug":"ne-homer-troy-s-auto-world","lat":42.2982851,"lng":-96.4889095,"state":"NE","city":"Homer","address":"725 Grant Road","zip":"68030","phone":"+1-402-698-2414","email":"","website":"","hours":"Mo-Fr 08:00-17:00, Sa 08:00-12:00, Su closed","brand":"","services":["general_repair"],"shopType":"general_repair"},{"id":"shop-ne-springview-munger-atv-repair","name":"Munger ATV Repair","slug":"ne-springview-munger-atv-repair","lat":42.8219044,"lng":-99.7482154,"state":"NE","city":"Springview","address":"221 South Main Street","zip":"68778","phone":"+1-402-382-5514","email":"","website":"","hours":"","brand":"","services":["general_repair"],"shopType":"general_repair"},{"id":"shop-ne-springview-hespe-auto-center","name":"Hespe Auto Center","slug":"ne-springview-hespe-auto-center","lat":42.823651,"lng":-99.7497175,"state":"NE","city":"Springview","address":"121 South Linden Street","zip":"68778","phone":"+1-402-497-3855","email":"","website":"","hours":"","brand":"","services":["general_repair"],"shopType":"general_repair"},{"id":"shop-ne-unknown-kauls-ag-auto","name":"Kauls AG & Auto","slug":"ne-unknown-kauls-ag-auto","lat":42.8619164,"lng":-97.8909772,"state":"NE","city":"","address":"","zip":"","phone":"","email":"","website":"","hours":"","brand":"","services":["general_repair"],"shopType":"general_repair"},{"id":"shop-ne-unknown-brian-s-repair-inc","name":"Brian's Repair Inc.","slug":"ne-unknown-brian-s-repair-inc","lat":42.6890973,"lng":-96.6838416,"state":"NE","city":"","address":"","zip":"","phone":"","email":"","website":"","hours":"","brand":"","services":["general_repair"],"shopType":"general_repair"},{"id":"shop-ne-stromsburg-burg-auto","name":"Burg Auto","slug":"ne-stromsburg-burg-auto","lat":41.1122459,"lng":-97.5979079,"state":"NE","city":"Stromsburg","address":"","zip":"","phone":"","email":"","website":"","hours":"","brand":"","services":["general_repair"],"shopType":"general_repair"},{"id":"shop-ne-cedar-bluffs-gary-s-autobody-shop","name":"Gary's Autobody Shop","slug":"ne-cedar-bluffs-gary-s-autobody-shop","lat":41.3973094,"lng":-96.613131,"state":"NE","city":"Cedar Bluffs","address":"West Main Street","zip":"68015","phone":"","email":"","website":"","hours":"","brand":"","services":["body_work"],"shopType":"body_shop"},{"id":"shop-ne-weston-route-92-garage-llc","name":"Route 92 Garage LLC","slug":"ne-weston-route-92-garage-llc","lat":41.2054877,"lng":-96.7449089,"state":"NE","city":"Weston","address":"2344 County Road K","zip":"68070","phone":"+1-402-642-5000","email":"","website":"","hours":"Mo-Fr 08:00-17:00; Sa 08:00-12:00","brand":"","services":["general_repair"],"shopType":"general_repair"},{"id":"shop-ne-unknown-hordville-shop","name":"Hordville Shop","slug":"ne-unknown-hordville-shop","lat":41.0758201,"lng":-97.8859743,"state":"NE","city":"","address":"","zip":"","phone":"","email":"","website":"","hours":"","brand":"","services":["general_repair"],"shopType":"general_repair"},{"id":"shop-ne-omaha-brakes-plus","name":"Brakes Plus","slug":"ne-omaha-brakes-plus","lat":41.267112,"lng":-95.9826136,"state":"NE","city":"Omaha","address":"846 North Saddle Creek Road","zip":"68132","phone":"+1-402-556-7766","email":"","website":"https://www.brakesplus.com","hours":"Mo-Fr 08:00-18:00;Sa 08:00-17:00","brand":"Brakes Plus","services":["brakes"],"shopType":"general_repair"},{"id":"shop-ne-unknown-acutek-auto-repair","name":"Acutek Auto Repair","slug":"ne-unknown-acutek-auto-repair","lat":40.7735984,"lng":-96.7109029,"state":"NE","city":"","address":"","zip":"","phone":"","email":"","website":"","hours":"","brand":"","services":["general_repair"],"shopType":"general_repair"},{"id":"shop-ne-unknown-deshler-motors","name":"Deshler Motors","slug":"ne-unknown-deshler-motors","lat":40.1475157,"lng":-97.7239813,"state":"NE","city":"","address":"","zip":"","phone":"","email":"","website":"","hours":"08:00-17:00","brand":"","services":["general_repair"],"shopType":"general_repair"},{"id":"shop-ne-bellevue-jiffy-lube","name":"Jiffy Lube","slug":"ne-bellevue-jiffy-lube","lat":41.1387719,"lng":-95.9569926,"state":"NE","city":"Bellevue","address":"2908 Samson Way","zip":"68123","phone":"+14022921241","email":"","website":"https://www.jiffylube.com/locations/ne/bellevue/3439","hours":"","brand":"Jiffy Lube","services":["oil_change"],"shopType":"quick_lube"},{"id":"shop-ne-unknown-junior-s-garage","name":"Junior's Garage","slug":"ne-unknown-junior-s-garage","lat":40.2560724,"lng":-103.6418204,"state":"NE","city":"","address":"","zip":"","phone":"","email":"","website":"","hours":"","brand":"","services":["general_repair"],"shopType":"general_repair"},{"id":"shop-ne-unknown-brush-auto-repair","name":"Brush Auto Repair","slug":"ne-unknown-brush-auto-repair","lat":40.2551084,"lng":-103.6250742,"state":"NE","city":"","address":"","zip":"","phone":"","email":"","website":"","hours":"","brand":"","services":["general_repair"],"shopType":"general_repair"},{"id":"shop-ne-unknown-rudy-s-g-t-o","name":"Rudy's G.T.O.","slug":"ne-unknown-rudy-s-g-t-o","lat":40.2563079,"lng":-103.6154612,"state":"NE","city":"","address":"","zip":"","phone":"","email":"","website":"","hours":"","brand":"","services":["tires"],"shopType":"general_repair"},{"id":"shop-ne-unknown-jd-z-auto-body","name":"JD'z Auto Body","slug":"ne-unknown-jd-z-auto-body","lat":40.2549425,"lng":-103.621346,"state":"NE","city":"","address":"","zip":"","phone":"","email":"","website":"","hours":"","brand":"","services":["body_work"],"shopType":"body_shop"},{"id":"shop-ne-unknown-a-r-automotive-service","name":"A & R Automotive Service","slug":"ne-unknown-a-r-automotive-service","lat":40.2555955,"lng":-103.6207612,"state":"NE","city":"","address":"","zip":"","phone":"","email":"","website":"","hours":"","brand":"","services":["general_repair"],"shopType":"general_repair"},{"id":"shop-ne-unknown-auto-glass-center","name":"Auto Glass Center","slug":"ne-unknown-auto-glass-center","lat":40.9158775,"lng":-98.3622543,"state":"NE","city":"","address":"","zip":"","phone":"","email":"","website":"","hours":"","brand":"","services":["general_repair"],"shopType":"general_repair"},{"id":"shop-ne-unknown-lee-janssen-motor-company","name":"Lee Janssen Motor Company","slug":"ne-unknown-lee-janssen-motor-company","lat":40.4329654,"lng":-99.3958842,"state":"NE","city":"","address":"","zip":"","phone":"","email":"","website":"","hours":"","brand":"","services":["general_repair"],"shopType":"general_repair"},{"id":"shop-ne-unknown-janssen-sons-ford","name":"Janssen & Sons Ford","slug":"ne-unknown-janssen-sons-ford","lat":40.4369791,"lng":-99.3883257,"state":"NE","city":"","address":"","zip":"","phone":"","email":"","website":"","hours":"","brand":"Ford","services":["general_repair"],"shopType":"general_repair"},{"id":"shop-ne-holdrege-dannull-engine-service","name":"Dannull Engine Service","slug":"ne-holdrege-dannull-engine-service","lat":40.4375527,"lng":-99.3842032,"state":"NE","city":"Holdrege","address":"309 West 4th Avenue","zip":"68949","phone":"","email":"","website":"","hours":"","brand":"","services":["engine_repair"],"shopType":"general_repair"},{"id":"shop-ne-unknown-spady-quicklube","name":"Spady Quicklube","slug":"ne-unknown-spady-quicklube","lat":40.4376364,"lng":-99.3730693,"state":"NE","city":"","address":"","zip":"","phone":"","email":"","website":"","hours":"","brand":"","services":["oil_change"],"shopType":"quick_lube"},{"id":"shop-ne-holdrege-spady-auto-parts","name":"Spady Auto Parts","slug":"ne-holdrege-spady-auto-parts","lat":40.4377977,"lng":-99.3735977,"state":"NE","city":"Holdrege","address":"512 4th Avenue","zip":"68949","phone":"","email":"","website":"https://www.spadysales.com/","hours":"","brand":"","services":["general_repair"],"shopType":"general_repair"},{"id":"shop-ne-unknown-spady-service","name":"Spady Service","slug":"ne-unknown-spady-service","lat":40.4375568,"lng":-99.373713,"state":"NE","city":"","address":"","zip":"","phone":"","email":"","website":"","hours":"","brand":"","services":["general_repair"],"shopType":"general_repair"},{"id":"shop-ne-unknown-sentry","name":"Sentry","slug":"ne-unknown-sentry","lat":40.4375588,"lng":-99.3660526,"state":"NE","city":"","address":"","zip":"","phone":"","email":"","website":"","hours":"","brand":"","services":["general_repair"],"shopType":"general_repair"},{"id":"shop-ne-unknown-zoom-auto","name":"Zoom Auto","slug":"ne-unknown-zoom-auto","lat":40.4391287,"lng":-99.3589689,"state":"NE","city":"","address":"","zip":"","phone":"","email":"","website":"","hours":"","brand":"","services":["general_repair"],"shopType":"general_repair"},{"id":"shop-ne-holdrege-tbo-ag-tire-wheel","name":"TBO Ag Tire & Wheel","slug":"ne-holdrege-tbo-ag-tire-wheel","lat":40.4455242,"lng":-99.3800591,"state":"NE","city":"Holdrege","address":"1105 Burlington Street","zip":"68949","phone":"","email":"","website":"","hours":"","brand":"","services":["tires"],"shopType":"tire_shop"},{"id":"shop-ne-unknown-john-s-ford","name":"John's Ford","slug":"ne-unknown-john-s-ford","lat":40.4922249,"lng":-98.9529281,"state":"NE","city":"","address":"","zip":"","phone":"","email":"","website":"","hours":"","brand":"Ford","services":["general_repair"],"shopType":"general_repair"},{"id":"shop-ne-unknown-king-of-kars","name":"King of Kars","slug":"ne-unknown-king-of-kars","lat":40.4885674,"lng":-98.952169,"state":"NE","city":"","address":"","zip":"","phone":"","email":"","website":"","hours":"","brand":"","services":["general_repair"],"shopType":"general_repair"},{"id":"shop-ne-unknown-sinclair-2","name":"Sinclair","slug":"ne-unknown-sinclair-2","lat":40.9173005,"lng":-100.1661481,"state":"NE","city":"","address":"","zip":"","phone":"","email":"","website":"","hours":"","brand":"","services":["general_repair"],"shopType":"general_repair"},{"id":"shop-ne-gothenburg-pick-s-repair","name":"Pick's Repair","slug":"ne-gothenburg-pick-s-repair","lat":40.9275746,"lng":-100.1634275,"state":"NE","city":"Gothenburg","address":"805 D Street","zip":"69138","phone":"+1-308-537-2170","email":"","website":"","hours":"","brand":"","services":["general_repair"],"shopType":"general_repair"},{"id":"shop-ne-unknown-gothenburg-tires-service","name":"Gothenburg Tires & Service","slug":"ne-unknown-gothenburg-tires-service","lat":40.9280204,"lng":-100.1645675,"state":"NE","city":"","address":"","zip":"","phone":"","email":"","website":"","hours":"","brand":"","services":["tires"],"shopType":"tire_shop"},{"id":"shop-ne-unknown-dawson-tire-wheel","name":"Dawson Tire & Wheel","slug":"ne-unknown-dawson-tire-wheel","lat":40.9254123,"lng":-100.1585352,"state":"NE","city":"","address":"","zip":"","phone":"","email":"","website":"","hours":"","brand":"","services":["tires"],"shopType":"tire_shop"},{"id":"shop-ne-unknown-lane-s-body-shop","name":"Lane's Body Shop","slug":"ne-unknown-lane-s-body-shop","lat":40.9252486,"lng":-100.1642282,"state":"NE","city":"","address":"","zip":"","phone":"","email":"","website":"","hours":"","brand":"","services":["body_work"],"shopType":"body_shop"},{"id":"shop-ne-unknown-dorn-s-service","name":"Dorn's Service","slug":"ne-unknown-dorn-s-service","lat":41.8296843,"lng":-103.6609516,"state":"NE","city":"","address":"","zip":"","phone":"","email":"","website":"","hours":"","brand":"","services":["general_repair"],"shopType":"general_repair"},{"id":"shop-ne-unknown-major-muffler","name":"Major Muffler","slug":"ne-unknown-major-muffler","lat":41.9864879,"lng":-96.9120841,"state":"NE","city":"","address":"","zip":"","phone":"","email":"","website":"","hours":"","brand":"","services":["exhaust"],"shopType":"general_repair"},{"id":"shop-ne-wisner-f-f-tire-service","name":"F & F Tire & Service","slug":"ne-wisner-f-f-tire-service","lat":41.9862626,"lng":-96.9131544,"state":"NE","city":"Wisner","address":"661 E Avenue East","zip":"68791","phone":"+1-402-529-3538","email":"","website":"","hours":"","brand":"","services":["tires"],"shopType":"tire_shop"},{"id":"shop-ne-unknown-first-class-glass-and-alignment","name":"First Class Glass and Alignment","slug":"ne-unknown-first-class-glass-and-alignment","lat":41.983914,"lng":-96.9081118,"state":"NE","city":"","address":"","zip":"","phone":"","email":"","website":"","hours":"","brand":"","services":["alignment"],"shopType":"general_repair"},{"id":"shop-ne-beemer-sight-n-sound","name":"Sight 'N Sound","slug":"ne-beemer-sight-n-sound","lat":41.928147,"lng":-96.8107386,"state":"NE","city":"Beemer","address":"427 Front Street","zip":"68716","phone":"+1-402-528-3230","email":"","website":"","hours":"","brand":"","services":["general_repair"],"shopType":"general_repair"},{"id":"shop-ne-unknown-stieren-farm-repair","name":"Stieren Farm Repair","slug":"ne-unknown-stieren-farm-repair","lat":41.9287536,"lng":-96.813166,"state":"NE","city":"","address":"","zip":"","phone":"","email":"","website":"","hours":"","brand":"","services":["general_repair"],"shopType":"general_repair"},{"id":"shop-ne-beemer-beemer-small-engine-and-repair","name":"Beemer Small Engine and Repair","slug":"ne-beemer-beemer-small-engine-and-repair","lat":41.9303679,"lng":-96.8024291,"state":"NE","city":"Beemer","address":"Sherman Street","zip":"68716","phone":"","email":"","website":"","hours":"","brand":"","services":["engine_repair"],"shopType":"general_repair"},{"id":"shop-ne-omaha-steve-s-service","name":"Steve's Service","slug":"ne-omaha-steve-s-service","lat":41.2774463,"lng":-96.0357539,"state":"NE","city":"Omaha","address":"7901 Blondo Street","zip":"68134","phone":"+1-402-391-9580","email":"","website":"","hours":"","brand":"","services":["general_repair"],"shopType":"general_repair"},{"id":"shop-ne-omaha-discount-tire","name":"Discount Tire","slug":"ne-omaha-discount-tire","lat":41.2335041,"lng":-96.2049726,"state":"NE","city":"Omaha","address":"18520 Wright Street","zip":"68130","phone":"+1-402-686-2036","email":"","website":"http://stores.discounttire.com/ne/omaha/neo-05/","hours":"","brand":"Discount Tire","services":["tires"],"shopType":"tire_shop"},{"id":"shop-ne-omaha-huber-cadillac-service","name":"Huber Cadillac Service","slug":"ne-omaha-huber-cadillac-service","lat":41.264304,"lng":-96.0893917,"state":"NE","city":"Omaha","address":"11102 West Dodge Road","zip":"68154","phone":"+1-877-229-7073","email":"","website":"http://www.hubercadillac.net/service","hours":"","brand":"","services":["ac"],"shopType":"general_repair"},{"id":"shop-ne-omaha-jensen-tire-auto","name":"Jensen Tire & Auto","slug":"ne-omaha-jensen-tire-auto","lat":41.2652874,"lng":-96.0998826,"state":"NE","city":"Omaha","address":"707 North 120th Street","zip":"68154","phone":"+1-402-496-2450","email":"","website":"https://www.jensentireandauto.com/","hours":"","brand":"","services":["tires"],"shopType":"tire_shop"},{"id":"shop-ne-unknown-wolfgang-auto-service","name":"Wolfgang Auto Service","slug":"ne-unknown-wolfgang-auto-service","lat":40.7914021,"lng":-96.6759509,"state":"NE","city":"","address":"","zip":"","phone":"+1-402-488-0230","email":"","website":"","hours":"","brand":"","services":["general_repair"],"shopType":"general_repair"},{"id":"shop-ne-unknown-ford-collision-center","name":"Ford Collision Center","slug":"ne-unknown-ford-collision-center","lat":40.7254929,"lng":-96.6752322,"state":"NE","city":"","address":"","zip":"","phone":"","email":"","website":"","hours":"","brand":"Ford","services":["body_work"],"shopType":"body_shop"},{"id":"shop-ne-lincoln-pete-s-auto-repair","name":"Pete's Auto Repair","slug":"ne-lincoln-pete-s-auto-repair","lat":40.8405936,"lng":-96.6546948,"state":"NE","city":"Lincoln","address":"4710 Madison Avenue","zip":"68504","phone":"","email":"","website":"","hours":"","brand":"","services":["general_repair"],"shopType":"general_repair"},{"id":"shop-ne-lincoln-valvoline-instant-oil-change","name":"Valvoline Instant Oil Change","slug":"ne-lincoln-valvoline-instant-oil-change","lat":40.847281,"lng":-96.6833458,"state":"NE","city":"Lincoln","address":"2611 Fairfield Street","zip":"68521","phone":"+1-531-510-0105","email":"","website":"https://store.vioc.com/ne/lincoln/2611-fairfield-st","hours":"Mo-Fr 08:00-19:00; Sa 08:00-17:00; Su 09:00-16:00","brand":"Valvoline","services":["oil_change","batteries"],"shopType":"quick_lube"},{"id":"shop-ne-lincoln-pit-crew-tires-and-accessories","name":"Pit Crew Tires and Accessories","slug":"ne-lincoln-pit-crew-tires-and-accessories","lat":40.8430121,"lng":-96.6723461,"state":"NE","city":"Lincoln","address":"3320 Cornhusker Highway","zip":"68504","phone":"+1-402-325-8735","email":"","website":"https://www.pitcrewtires.com/","hours":"Mo-Fr 08:00-17:30","brand":"","services":["tires"],"shopType":"tire_shop"},{"id":"shop-ne-unknown-parkway-66","name":"Parkway 66","slug":"ne-unknown-parkway-66","lat":40.7880518,"lng":-96.6543607,"state":"NE","city":"","address":"","zip":"","phone":"","email":"","website":"","hours":"","brand":"","services":["general_repair"],"shopType":"general_repair"},{"id":"shop-ne-lincoln-jiffy-lube","name":"Jiffy Lube","slug":"ne-lincoln-jiffy-lube","lat":40.7555452,"lng":-96.6534935,"state":"NE","city":"Lincoln","address":"4800 Old Cheney Road","zip":"68516","phone":"+1 402-875-7800","email":"","website":"https://lincoln.jiffylube.com/locations/store/3410/4800-old-chaney-rd-lincoln-ne-68516-3139","hours":"Su 09:00-17:00; Mo-Sa 07:00-19:00","brand":"Jiffy Lube","services":["oil_change"],"shopType":"quick_lube"},{"id":"shop-ne-lincoln-valvoline-instant-oil-change-2","name":"Valvoline Instant Oil Change","slug":"ne-lincoln-valvoline-instant-oil-change-2","lat":40.7546004,"lng":-96.670598,"state":"NE","city":"Lincoln","address":"3500 Village Drive","zip":"68516","phone":"+1-402-421-8089","email":"","website":"https://store.vioc.com/ne/lincoln/oil-change-gr0008.html","hours":"Mo-Fr 08:00-18:00; Sa 08:00-17:00; Su 10:00-16:00","brand":"Valvoline","services":["oil_change","batteries"],"shopType":"quick_lube"},{"id":"shop-ne-lincoln-ernie-s-service","name":"Ernie's Service","slug":"ne-lincoln-ernie-s-service","lat":40.7992561,"lng":-96.6628776,"state":"NE","city":"Lincoln","address":"4000 A Street","zip":"68510","phone":"+1-402-489-6400","email":"","website":"","hours":"","brand":"","services":["general_repair"],"shopType":"general_repair"},{"id":"shop-ne-lincoln-mike-s-66-towing-co","name":"Mike's 66 & Towing Co","slug":"ne-lincoln-mike-s-66-towing-co","lat":40.8510955,"lng":-96.6382853,"state":"NE","city":"Lincoln","address":"6000 Colfax Avenue","zip":"68507","phone":"+1-402-466-1438","email":"","website":"https://mikes66towing.com/","hours":"","brand":"","services":["general_repair"],"shopType":"general_repair"},{"id":"shop-ne-maxwell-wright-s-body-shop","name":"Wright's Body Shop","slug":"ne-maxwell-wright-s-body-shop","lat":41.0779577,"lng":-100.5252143,"state":"NE","city":"Maxwell","address":"South Pine Street","zip":"69151","phone":"","email":"","website":"","hours":"","brand":"","services":["body_work"],"shopType":"body_shop"},{"id":"shop-ne-lincoln-quick-lane-tire-repair","name":"Quick Lane Tire & Repair","slug":"ne-lincoln-quick-lane-tire-repair","lat":40.8817182,"lng":-96.6826863,"state":"NE","city":"Lincoln","address":"2600 Wildcat Drive","zip":"68521","phone":"+1-402-458-9833","email":"","website":"","hours":"Mo-Fr 07:00-18:00; Sa 07:00-13:00","brand":"","services":["oil_change","tires","brakes","repairs","tyres"],"shopType":"general_repair"},{"id":"shop-ne-lincoln-gregg-young-mitsubishi-service-center","name":"Gregg Young Mitsubishi Service Center","slug":"ne-lincoln-gregg-young-mitsubishi-service-center","lat":40.8759986,"lng":-96.683095,"state":"NE","city":"Lincoln","address":"6320 Telluride Drive","zip":"68521","phone":"","email":"","website":"","hours":"","brand":"","services":["car_repair","electrical","air_conditioning","oil_change","tyres","diagnostics","tires","brakes","muffler","batteries","exhaust","alignment"],"shopType":"general_repair"},{"id":"shop-ne-lincoln-anderson-mazda-of-lincoln-service-center","name":"Anderson Mazda of Lincoln Service Center","slug":"ne-lincoln-anderson-mazda-of-lincoln-service-center","lat":40.8773096,"lng":-96.6825509,"state":"NE","city":"Lincoln","address":"6500 Telluride Drive","zip":"68521","phone":"+1-402-817-5203","email":"","website":"","hours":"","brand":"","services":["car_repair","oil_change","tyres","diagnostics","tires","brakes","muffler","batteries","repairs","exhaust","alignment"],"shopType":"general_repair"},{"id":"shop-ne-grand-island-miller-used-tires","name":"Miller Used Tires","slug":"ne-grand-island-miller-used-tires","lat":40.9248807,"lng":-98.3500059,"state":"NE","city":"Grand Island","address":"811 West 4th Street","zip":"68801","phone":"","email":"","website":"","hours":"","brand":"","services":["tires"],"shopType":"tire_shop"},{"id":"shop-ne-omaha-brakes-plus-2","name":"Brakes Plus","slug":"ne-omaha-brakes-plus-2","lat":41.2637513,"lng":-96.1030608,"state":"NE","city":"Omaha","address":"12110 West Dodge Road","zip":"68154","phone":"+1-402-401-2343","email":"","website":"https://www.brakesplus.com","hours":"Mo-Fr 08:00-18:00;Sa 08:00-17:00","brand":"Brakes Plus","services":["brakes"],"shopType":"general_repair"},{"id":"shop-ne-papillion-brakes-plus","name":"Brakes Plus","slug":"ne-papillion-brakes-plus","lat":41.16937,"lng":-96.02246,"state":"NE","city":"Papillion","address":"10051 South 71st Avenue","zip":"68133","phone":"+1-402-401-2295","email":"","website":"https://www.brakesplus.com","hours":"Mo-Fr 08:00-18:00;Sa 08:00-17:00","brand":"Brakes Plus","services":["brakes"],"shopType":"general_repair"},{"id":"shop-ne-omaha-brakes-plus-3","name":"Brakes Plus","slug":"ne-omaha-brakes-plus-3","lat":41.2936039,"lng":-96.1769342,"state":"NE","city":"Omaha","address":"3837 North 168th Street","zip":"68116","phone":"+1-402-408-2003","email":"","website":"https://www.brakesplus.com","hours":"Mo-Fr 08:00-18:00;Sa 08:00-17:00","brand":"Brakes Plus","services":["brakes"],"shopType":"general_repair"},{"id":"shop-ne-omaha-brakes-plus-4","name":"Brakes Plus","slug":"ne-omaha-brakes-plus-4","lat":41.226745,"lng":-96.137692,"state":"NE","city":"Omaha","address":"3422 South 143rd Plaza","zip":"68144","phone":"+1-402-333-4433","email":"","website":"https://www.brakesplus.com","hours":"Mo-Fr 08:00-18:00;Sa 08:00-17:00","brand":"Brakes Plus","services":["brakes"],"shopType":"general_repair"},{"id":"shop-ne-omaha-brakes-plus-5","name":"Brakes Plus","slug":"ne-omaha-brakes-plus-5","lat":41.294621,"lng":-96.051883,"state":"NE","city":"Omaha","address":"3907 North 90th Street","zip":"68134","phone":"+1-402-573-0033","email":"","website":"https://www.brakesplus.com","hours":"Mo-Fr 08:00-18:00;Sa 08:00-17:00","brand":"Brakes Plus","services":["brakes"],"shopType":"general_repair"},{"id":"shop-ne-lincoln-muscle-car-concepts-and-restoration-llc","name":"Muscle Car Concepts and Restoration, LLC","slug":"ne-lincoln-muscle-car-concepts-and-restoration-llc","lat":40.8419683,"lng":-96.6937682,"state":"NE","city":"Lincoln","address":"1821 Cornhusker Highway","zip":"68521","phone":"+1-402-484-0330","email":"","website":"https://www.musclecarconcepts.com/","hours":"Mo,We,Fr 08:00-17:00; Sa 08:00-12:00","brand":"","services":["general_repair"],"shopType":"general_repair"},{"id":"shop-ne-waterloo-elkhorn-automotive","name":"Elkhorn Automotive","slug":"ne-waterloo-elkhorn-automotive","lat":41.2781411,"lng":-96.2781357,"state":"NE","city":"Waterloo","address":"2009 River Road Drive","zip":"68069","phone":"","email":"","website":"","hours":"","brand":"","services":["general_repair"],"shopType":"general_repair"},{"id":"shop-ne-valley-everett-s-repair-inc","name":"Everett's Repair Inc.","slug":"ne-valley-everett-s-repair-inc","lat":41.3132395,"lng":-96.3426237,"state":"NE","city":"Valley","address":"207 East Valley Street","zip":"68064","phone":"","email":"","website":"https://www.everettsauto.com/","hours":"","brand":"","services":["general_repair"],"shopType":"general_repair"},{"id":"shop-ne-gretna-american-auto-repair","name":"American Auto Repair","slug":"ne-gretna-american-auto-repair","lat":41.1393141,"lng":-96.2479799,"state":"NE","city":"Gretna","address":"112 South McKenna Avenue","zip":"68028","phone":"","email":"","website":"","hours":"","brand":"","services":["general_repair"],"shopType":"general_repair"},{"id":"shop-ne-gretna-hintz-auto-repair","name":"Hintz Auto Repair","slug":"ne-gretna-hintz-auto-repair","lat":41.1452126,"lng":-96.2380647,"state":"NE","city":"Gretna","address":"108 East Glenmore Drive","zip":"68028","phone":"","email":"","website":"","hours":"","brand":"","services":["general_repair"],"shopType":"general_repair"},{"id":"shop-ne-papillion-jensen-tire","name":"Jensen Tire","slug":"ne-papillion-jensen-tire","lat":41.1444943,"lng":-96.0646351,"state":"NE","city":"Papillion","address":"11342 South 96th Street","zip":"68046","phone":"","email":"","website":"","hours":"","brand":"","services":["tires"],"shopType":"tire_shop"},{"id":"shop-ne-omaha-star-auto-repair","name":"Star Auto Repair","slug":"ne-omaha-star-auto-repair","lat":41.2456691,"lng":-95.9555427,"state":"NE","city":"Omaha","address":"Park Avenue","zip":"68105","phone":"","email":"","website":"","hours":"","brand":"","services":["general_repair"],"shopType":"general_repair"},{"id":"shop-ne-omaha-abc-auto-glass-of-omaha","name":"ABC Auto Glass of Omaha","slug":"ne-omaha-abc-auto-glass-of-omaha","lat":41.191035,"lng":-95.9672254,"state":"NE","city":"Omaha","address":"6823 South 36th Street","zip":"68107","phone":"+1-402-734-9000","email":"","website":"https://abcglassomaha.com/","hours":"Mo-Fr 09:00-19:00; Sa 10:00-16:00","brand":"","services":["general_repair"],"shopType":"general_repair"},{"id":"shop-ne-ord-trotters-tire-pros","name":"Trotters Tire Pros","slug":"ne-ord-trotters-tire-pros","lat":41.5938097,"lng":-98.912749,"state":"NE","city":"Ord","address":"303 U Street","zip":"68862","phone":"","email":"","website":"","hours":"","brand":"","services":["tires"],"shopType":"tire_shop"},{"id":"shop-ne-omaha-baxter-subaru","name":"Baxter Subaru","slug":"ne-omaha-baxter-subaru","lat":41.2659336,"lng":-96.1832168,"state":"NE","city":"Omaha","address":"17130 Burt Street","zip":"68118","phone":"+1-402-397-8305","email":"","website":"","hours":"","brand":"","services":["general_repair"],"shopType":"general_repair"},{"id":"shop-ne-omaha-audi-omaha","name":"Audi Omaha","slug":"ne-omaha-audi-omaha","lat":41.2653708,"lng":-96.185811,"state":"NE","city":"Omaha","address":"17340 Burt Street","zip":"68118","phone":"+1-402-951-9284","email":"","website":"","hours":"","brand":"Audi","services":["general_repair"],"shopType":"general_repair"},{"id":"shop-ne-omaha-village-pointe-toyota","name":"Village Pointe Toyota","slug":"ne-omaha-village-pointe-toyota","lat":41.2654099,"lng":-96.2013605,"state":"NE","city":"Omaha","address":"18201 Cuming Street","zip":"68022","phone":"+1-402-206-2295","email":"","website":"https://www.villagepointetoyota.com/","hours":"","brand":"","services":["general_repair"],"shopType":"general_repair"},{"id":"shop-ne-omaha-baxter-volkswagen-omaha","name":"Baxter Volkswagen Omaha","slug":"ne-omaha-baxter-volkswagen-omaha","lat":41.265624,"lng":-96.1842575,"state":"NE","city":"Omaha","address":"17220 Burt Street","zip":"68118","phone":"+1-402-397-8200","email":"","website":"","hours":"","brand":"","services":["general_repair"],"shopType":"general_repair"},{"id":"shop-ne-wahoo-walker-point-s-tire-service-wahoo","name":"Walker Point S Tire & Service - Wahoo","slug":"ne-wahoo-walker-point-s-tire-service-wahoo","lat":41.2112558,"lng":-96.6228755,"state":"NE","city":"Wahoo","address":"615 North Chestnut Street","zip":"68066","phone":"+1-402-443-3309","email":"","website":"https://pointstire.com/","hours":"Mo-Fr 07:30-17:00","brand":"","services":["tires"],"shopType":"tire_shop"},{"id":"shop-ne-ashland-agc-repair-welding-llc","name":"AGC Repair & Welding LLC","slug":"ne-ashland-agc-repair-welding-llc","lat":41.0456405,"lng":-96.403324,"state":"NE","city":"Ashland","address":"580 Ashland Road","zip":"68003","phone":"+1-402-521-9519","email":"","website":"https://agcrepair.com/","hours":"Mo-Fr 08:00-17:00","brand":"","services":["general_repair"],"shopType":"general_repair"},{"id":"shop-ne-waverly-e-s-foreign-auto-repair","name":"E's Foreign Auto Repair","slug":"ne-waverly-e-s-foreign-auto-repair","lat":40.9104168,"lng":-96.5354176,"state":"NE","city":"Waverly","address":"13601 Energy Way","zip":"68462","phone":"+1 402-853-9885","email":"","website":"business.site","hours":"Mo-Fr 08:00-17:00","brand":"","services":["general_repair"],"shopType":"general_repair"},{"id":"shop-ne-omaha-rebuilders-auto","name":"Rebuilders Auto","slug":"ne-omaha-rebuilders-auto","lat":41.2273467,"lng":-96.0141188,"state":"NE","city":"Omaha","address":"6508 Grover Street","zip":"68106","phone":"+1-402-763-8776","email":"rebuildersauto@yahoo.com","website":"rebuildersauto.com","hours":"Mo-Fr 10:00-19:00","brand":"","services":["general_repair"],"shopType":"general_repair"},{"id":"shop-ne-omaha-certified-fleet-services-inc","name":"Certified Fleet Services Inc","slug":"ne-omaha-certified-fleet-services-inc","lat":41.2273797,"lng":-96.0137739,"state":"NE","city":"Omaha","address":"6502 Grover Street","zip":"68106","phone":"+1-402-731-5322","email":"","website":"","hours":"Mo-Fr 08:00-17:00","brand":"","services":["truck_repair"],"shopType":"general_repair"},{"id":"shop-ne-omaha-suspension-shop-inc","name":"Suspension Shop Inc.","slug":"ne-omaha-suspension-shop-inc","lat":41.2273456,"lng":-96.0135265,"state":"NE","city":"Omaha","address":"6502 Grover Street","zip":"68106","phone":"+1-402-331-0129","email":"kathy@ssinc.omhcoxmail.com","website":"https://www.suspensionshopinc.com/","hours":"Mo-Fr 08:00-17:00","brand":"","services":["truck_repair","suspension"],"shopType":"general_repair"},{"id":"shop-ne-omaha-andy-s-auto-service","name":"Andy's Auto Service","slug":"ne-omaha-andy-s-auto-service","lat":41.2272129,"lng":-95.966571,"state":"NE","city":"Omaha","address":"3408 South 36th Street","zip":"68105","phone":"+1 402 556 6666","email":"","website":"","hours":"","brand":"","services":["general_repair"],"shopType":"general_repair"},{"id":"shop-ne-omaha-g-a-s-auto","name":"G.A.S. Auto","slug":"ne-omaha-g-a-s-auto","lat":41.2296554,"lng":-95.9664014,"state":"NE","city":"Omaha","address":"3160 South 36th Street","zip":"68105","phone":"+1 402 933 2400","email":"","website":"","hours":"","brand":"","services":["general_repair"],"shopType":"general_repair"},{"id":"shop-ne-grand-island-jack-s-tire-services","name":"Jack's Tire Services","slug":"ne-grand-island-jack-s-tire-services","lat":40.8936307,"lng":-98.3403501,"state":"NE","city":"Grand Island","address":"2840 South Locust Street","zip":"68801","phone":"","email":"","website":"https://jackstireco.com/","hours":"","brand":"","services":["tires"],"shopType":"tire_shop"},{"id":"shop-ne-lexington-goodyear","name":"Goodyear","slug":"ne-lexington-goodyear","lat":40.739126,"lng":-99.7406981,"state":"NE","city":"Lexington","address":"","zip":"","phone":"","email":"","website":"","hours":"","brand":"Goodyear","services":["general_repair"],"shopType":"general_repair"},{"id":"shop-ne-omaha-autographix","name":"Autographix","slug":"ne-omaha-autographix","lat":41.2134232,"lng":-96.0821865,"state":"NE","city":"Omaha","address":"4522 South 108th Street","zip":"68137","phone":"+1 402 884-4090","email":"","website":"https://autographixne.com","hours":"","brand":"","services":["general_repair"],"shopType":"general_repair"},{"id":"shop-ne-unknown-s-sons-tire-auto-repair","name":"S & Sons Tire & Auto Repair","slug":"ne-unknown-s-sons-tire-auto-repair","lat":41.4616145,"lng":-96.7772611,"state":"NE","city":"","address":"","zip":"","phone":"","email":"","website":"https://www.ssonsincconstruction.com/tire-and-auto-repair","hours":"","brand":"","services":["tires"],"shopType":"tire_shop"},{"id":"shop-ne-lincoln-morrow-collision-center","name":"Morrow Collision Center","slug":"ne-lincoln-morrow-collision-center","lat":40.8412506,"lng":-96.6078069,"state":"NE","city":"Lincoln","address":"2801 North 83rd Street","zip":"68507","phone":"+1-402-477-2224","email":"","website":"https://www.morrowcollision.com/","hours":"Mo-Fr 08:00-17:00; Sa 08:00-15:00","brand":"","services":["body_work","body_repair"],"shopType":"body_shop"},{"id":"shop-ne-lincoln-morrow-collision-center-2","name":"Morrow Collision Center","slug":"ne-lincoln-morrow-collision-center-2","lat":40.8471152,"lng":-96.6894071,"state":"NE","city":"Lincoln","address":"3600 North 22nd Street","zip":"68521","phone":"+1-402-477-2224","email":"","website":"","hours":"Mo-Fr 08:00-17:00","brand":"","services":["body_work","body_repair"],"shopType":"body_shop"},{"id":"shop-ne-lincoln-kallhoff-auto-repair","name":"Kallhoff Auto Repair","slug":"ne-lincoln-kallhoff-auto-repair","lat":40.8438904,"lng":-96.8018173,"state":"NE","city":"Lincoln","address":"6000 West Adams Street","zip":"68524","phone":"+1-402-202-8677","email":"","website":"","hours":"Mo-Fr 07:00-16:00","brand":"","services":["car_repair"],"shopType":"general_repair"},{"id":"shop-ne-exeter-ekeler-repair","name":"Ekeler Repair","slug":"ne-exeter-ekeler-repair","lat":40.6460125,"lng":-97.4503963,"state":"NE","city":"Exeter","address":"107 North Exeter Avenue","zip":"68351","phone":"+1-402-266-2991","email":"","website":"","hours":"Mo-Fr 08:00-17:00","brand":"","services":["car_repair"],"shopType":"general_repair"},{"id":"shop-ne-lincoln-jiffy-lube-2","name":"Jiffy Lube","slug":"ne-lincoln-jiffy-lube-2","lat":40.8131329,"lng":-96.6503494,"state":"NE","city":"Lincoln","address":"5111 O Street","zip":"68510","phone":"+1-402-875-7804","email":"","website":"","hours":"Mo-Fr 08:00-18:00; Sa 07:00-17:00","brand":"Jiffy Lube","services":["oil_change","car_repair"],"shopType":"quick_lube"},{"id":"shop-ne-lincoln-glass-doctor","name":"Glass Doctor","slug":"ne-lincoln-glass-doctor","lat":40.8643406,"lng":-96.642397,"state":"NE","city":"Lincoln","address":"5100 North 57th Street","zip":"68507","phone":"+1-402-817-3739","email":"","website":"https://glassdoctor.com/lincoln?cid=LSTL_MGD000191","hours":"","brand":"Glass Doctor","services":["glass_repair"],"shopType":"general_repair"},{"id":"shop-ne-unknown-bill-s-transmissions","name":"Bill's Transmissions","slug":"ne-unknown-bill-s-transmissions","lat":40.2024272,"lng":-98.0675968,"state":"NE","city":"","address":"","zip":"","phone":"","email":"","website":"","hours":"","brand":"","services":["transmission"],"shopType":"transmission_shop"},{"id":"shop-ne-unknown-powell-s-body-shop-and-towing","name":"Powell's Body Shop and Towing","slug":"ne-unknown-powell-s-body-shop-and-towing","lat":40.1992965,"lng":-98.067062,"state":"NE","city":"","address":"","zip":"","phone":"","email":"","website":"","hours":"","brand":"","services":["body_work"],"shopType":"body_shop"},{"id":"shop-ne-unknown-superior-paint-and-body","name":"Superior Paint and Body","slug":"ne-unknown-superior-paint-and-body","lat":40.0345724,"lng":-98.0661094,"state":"NE","city":"","address":"","zip":"","phone":"","email":"","website":"","hours":"","brand":"","services":["body_work"],"shopType":"body_shop"},{"id":"shop-ne-lincoln-the-auto-connection","name":"The Auto Connection","slug":"ne-lincoln-the-auto-connection","lat":40.8143544,"lng":-96.6914287,"state":"NE","city":"Lincoln","address":"2037 P Street","zip":"68503","phone":"+1-402-477-8200","email":"","website":"https://www.autorepairlincolnne.com/","hours":"Mo-Fr 07:30-17:30","brand":"","services":["general_repair"],"shopType":"general_repair"},{"id":"shop-ne-lincoln-autosounds-of-lincoln","name":"Autosounds of Lincoln","slug":"ne-lincoln-autosounds-of-lincoln","lat":40.8137849,"lng":-96.6546168,"state":"NE","city":"Lincoln","address":"4720 O Street","zip":"68510","phone":"+1-402-466-4400","email":"","website":"https://www.autosoundsoflincoln.com/","hours":"Mo-Th 09:00-18:00; Fr 09:00-17:30; Sa 09:00-16:00","brand":"","services":["general_repair"],"shopType":"general_repair"},{"id":"shop-ne-ogallala-308-mobile-truck-auto-tire-repair","name":"308 Mobile Truck Auto & Tire Repair","slug":"ne-ogallala-308-mobile-truck-auto-tire-repair","lat":41.1278456,"lng":-101.7359911,"state":"NE","city":"Ogallala","address":"517 Platte View Drive","zip":"69153","phone":"+1-308-352-6516","email":"","website":"https://308mobilerepair.com","hours":"24/7","brand":"","services":["tires"],"shopType":"tire_shop"},{"id":"shop-ne-falls-city-harmons-ok-tire","name":"Harmons Ok Tire","slug":"ne-falls-city-harmons-ok-tire","lat":40.063861,"lng":-95.6020008,"state":"NE","city":"Falls City","address":"1903 Harlan Street","zip":"68355","phone":"","email":"","website":"","hours":"","brand":"","services":["tires"],"shopType":"tire_shop"},{"id":"shop-ne-papillion-discount-tire","name":"Discount Tire","slug":"ne-papillion-discount-tire","lat":41.1607047,"lng":-96.0231146,"state":"NE","city":"Papillion","address":"9974 South 71st Avenue","zip":"68133","phone":"+14023319175","email":"","website":"","hours":"","brand":"Discount Tire","services":["tires"],"shopType":"tire_shop"},{"id":"shop-ne-papillion-brakes-plus-2","name":"Brakes Plus","slug":"ne-papillion-brakes-plus-2","lat":41.1600959,"lng":-96.0229463,"state":"NE","city":"Papillion","address":"10050 South 71st Avenue","zip":"68133","phone":"+14024012295","email":"","website":"","hours":"","brand":"Brakes Plus","services":["brakes"],"shopType":"general_repair"},{"id":"shop-ne-papillion-christian-brothers","name":"Christian Brothers","slug":"ne-papillion-christian-brothers","lat":41.1487341,"lng":-96.0900293,"state":"NE","city":"Papillion","address":"11319 Cumberland Drive","zip":"68046","phone":"","email":"","website":"","hours":"","brand":"Christian Brothers","services":["general_repair"],"shopType":"general_repair"},{"id":"shop-ne-unknown-forever-auto-clinic","name":"Forever Auto Clinic","slug":"ne-unknown-forever-auto-clinic","lat":40.8245965,"lng":-96.6898075,"state":"NE","city":"","address":"","zip":"","phone":"+1-402-318-9794","email":"","website":"","hours":"","brand":"","services":["general_repair"],"shopType":"general_repair"},{"id":"shop-ne-lincoln-doc-s-auto-clinic","name":"Doc's Auto Clinic","slug":"ne-lincoln-doc-s-auto-clinic","lat":40.8580389,"lng":-96.6701473,"state":"NE","city":"Lincoln","address":"3330 Superior Street","zip":"68504","phone":"+1-402-464-4330","email":"","website":"","hours":"","brand":"","services":["body_work","body_repair"],"shopType":"general_repair"},{"id":"shop-ne-omaha-tires-plus","name":"Tires Plus","slug":"ne-omaha-tires-plus","lat":41.2484688,"lng":-96.028217,"state":"NE","city":"Omaha","address":"7437 Pacific Street","zip":"68114","phone":"","email":"","website":"","hours":"","brand":"Tires Plus","services":["tires"],"shopType":"tire_shop"},{"id":"shop-ne-omaha-certified-transmission","name":"Certified Transmission","slug":"ne-omaha-certified-transmission","lat":41.2491112,"lng":-96.0297611,"state":"NE","city":"Omaha","address":"7516 Pacific Street","zip":"68114","phone":"","email":"","website":"","hours":"","brand":"","services":["transmission"],"shopType":"transmission_shop"},{"id":"shop-ne-unknown-discount-tire","name":"Discount Tire","slug":"ne-unknown-discount-tire","lat":40.9427513,"lng":-98.3842795,"state":"NE","city":"","address":"","zip":"","phone":"","email":"","website":"","hours":"","brand":"Discount Tire","services":["tires"],"shopType":"tire_shop"},{"id":"shop-ne-unknown-hauxwell-motors","name":"Hauxwell Motors","slug":"ne-unknown-hauxwell-motors","lat":40.1985787,"lng":-100.6338695,"state":"NE","city":"","address":"","zip":"","phone":"","email":"","website":"","hours":"","brand":"","services":["general_repair"],"shopType":"general_repair"},{"id":"shop-ne-omaha-firestone","name":"Firestone","slug":"ne-omaha-firestone","lat":41.2860521,"lng":-96.0532139,"state":"NE","city":"Omaha","address":"3018 North 90th Street","zip":"68134","phone":"","email":"","website":"","hours":"","brand":"Firestone","services":["general_repair"],"shopType":"general_repair"},{"id":"shop-ne-seward-midwest-automotive","name":"Midwest Automotive","slug":"ne-seward-midwest-automotive","lat":40.8855836,"lng":-97.1026373,"state":"NE","city":"Seward","address":"1389 Progressive Road","zip":"68434","phone":"+1-402-643-3306","email":"","website":"","hours":"Mo-Fr 07:30-18:00; Sa 07:30-12:00","brand":"","services":["car_repair","electrical","air_conditioning","oil_change","tyres","tires","car_parts","towing","brakes","muffler","batteries","exhaust","alignment"],"shopType":"general_repair"},{"id":"shop-ne-unknown-sauder-s-automotive","name":"Sauder's Automotive","slug":"ne-unknown-sauder-s-automotive","lat":41.1177297,"lng":-102.9587418,"state":"NE","city":"","address":"","zip":"","phone":"","email":"","website":"","hours":"","brand":"","services":["general_repair"],"shopType":"general_repair"},{"id":"shop-ne-papillion-huncho-tints","name":"Huncho Tints","slug":"ne-papillion-huncho-tints","lat":41.1643872,"lng":-96.0537311,"state":"NE","city":"Papillion","address":"720 North Frontier Drive","zip":"68046","phone":"","email":"","website":"","hours":"","brand":"","services":["general_repair"],"shopType":"general_repair"},{"id":"shop-ne-alda-chuck-s-creations-auto-restoration-mobile-sand-blasting","name":"Chuck's Creations, Auto Restoration & Mobile Sand Blasting","slug":"ne-alda-chuck-s-creations-auto-restoration-mobile-sand-blasting","lat":40.8695423,"lng":-98.4694823,"state":"NE","city":"Alda","address":"302 West Front Street","zip":"68810","phone":"+1-308-258-4013","email":"krazytattoodude81@gmail.com","website":"https://chuckscreationsgrandisland.com/","hours":"Mo-Fr 08:00-17:00","brand":"","services":["body_work","car_parts","painting","body_repair","repairs","glass"],"shopType":"general_repair"},{"id":"shop-ne-omaha-america-glass","name":"America Glass","slug":"ne-omaha-america-glass","lat":41.2316246,"lng":-95.9413675,"state":"NE","city":"Omaha","address":"1913 Vinton Street","zip":"68108","phone":"","email":"","website":"","hours":"","brand":"","services":["glass"],"shopType":"general_repair"},{"id":"shop-ne-lincoln-outlaw-autobody","name":"Outlaw Autobody","slug":"ne-lincoln-outlaw-autobody","lat":40.844708,"lng":-96.6478695,"state":"NE","city":"Lincoln","address":"5216 Knox Street","zip":"68504","phone":"+1-402-890-4026","email":"","website":"","hours":"Mo-Sa 07:00-19:00","brand":"","services":["painting","mechanics","body_work","body_repair"],"shopType":"general_repair"},{"id":"shop-ne-lincoln-hanquist-service","name":"Hanquist Service","slug":"ne-lincoln-hanquist-service","lat":40.7977108,"lng":-96.6969201,"state":"NE","city":"Lincoln","address":"1501 South 17th Street","zip":"68502","phone":"","email":"","website":"","hours":"","brand":"","services":["general_repair"],"shopType":"general_repair"},{"id":"shop-ne-lincoln-autoglass-now","name":"Autoglass Now","slug":"ne-lincoln-autoglass-now","lat":40.8131722,"lng":-96.6793186,"state":"NE","city":"Lincoln","address":"2911 O Street","zip":"68510","phone":"+1-402-904-4500","email":"","website":"","hours":"Mo-Fr 08:00-17:00","brand":"","services":["general_repair"],"shopType":"general_repair"},{"id":"shop-ne-omaha-tuffy","name":"Tuffy","slug":"ne-omaha-tuffy","lat":41.2334277,"lng":-96.2029397,"state":"NE","city":"Omaha","address":"18440 Wright Street","zip":"68130","phone":"","email":"","website":"","hours":"","brand":"Tuffy","services":["general_repair"],"shopType":"general_repair"},{"id":"shop-ne-omaha-jensen-tire-auto-2","name":"Jensen Tire & Auto","slug":"ne-omaha-jensen-tire-auto-2","lat":41.1932347,"lng":-96.1769547,"state":"NE","city":"Omaha","address":"16755 Monroe Street","zip":"68135","phone":"","email":"","website":"","hours":"","brand":"","services":["tires"],"shopType":"tire_shop"},{"id":"shop-ne-omaha-aamco","name":"AAMCO","slug":"ne-omaha-aamco","lat":41.2041622,"lng":-96.1227033,"state":"NE","city":"Omaha","address":"5254 South 133rd Court","zip":"68137","phone":"+1-402-983-8693","email":"","website":"https://www.aamco-omahawest.com/","hours":"Mo-Fr 7:30-18:00","brand":"AAMCO","services":["inspection","transmission","oil_change"],"shopType":"general_repair"},{"id":"shop-ne-papillion-midlands-auto-repair","name":"Midlands Auto Repair","slug":"ne-papillion-midlands-auto-repair","lat":41.142519,"lng":-96.0241566,"state":"NE","city":"Papillion","address":"1107 Applewood Drive","zip":"68046","phone":"","email":"","website":"","hours":"","brand":"","services":["general_repair"],"shopType":"general_repair"},{"id":"shop-ne-papillon-shadow-lake-collision-center","name":"Shadow Lake Collision Center","slug":"ne-papillon-shadow-lake-collision-center","lat":41.1387083,"lng":-96.0252256,"state":"NE","city":"Papillon","address":"1215 Applewood Drive","zip":"68046","phone":"","email":"","website":"","hours":"","brand":"","services":["body_work"],"shopType":"body_shop"},{"id":"shop-ne-lincoln-valvoline-instant-oil-change-3","name":"Valvoline Instant Oil Change","slug":"ne-lincoln-valvoline-instant-oil-change-3","lat":40.7332263,"lng":-96.6031071,"state":"NE","city":"Lincoln","address":"8500 Amber Hill Court","zip":"68526","phone":"+1-402-904-3626","email":"","website":"https://store.vioc.com/ne/lincoln/oil-change-gr0009.html","hours":"Mo-Fr 08:00-18:00; Sa 08:00-17:00; Su 10:00-16:00","brand":"Valvoline","services":["oil_change","batteries"],"shopType":"quick_lube"},{"id":"shop-ne-lincoln-piedmont-auto-care","name":"Piedmont Auto Care","slug":"ne-lincoln-piedmont-auto-care","lat":40.7996169,"lng":-96.6510282,"state":"NE","city":"Lincoln","address":"1316 South 50th Street","zip":"68510","phone":"","email":"","website":"","hours":"","brand":"","services":["general_repair"],"shopType":"general_repair"},{"id":"shop-ne-lincoln-norm-s-car-care","name":"Norm's Car Care","slug":"ne-lincoln-norm-s-car-care","lat":40.7992466,"lng":-96.6637578,"state":"NE","city":"Lincoln","address":"3940 A Street","zip":"68510","phone":"+1-402-483-2418","email":"","website":"https://www.normscarcare.com/","hours":"Mo-Fr 07:00-17:00","brand":"","services":["general_repair"],"shopType":"general_repair"},{"id":"shop-ne-lincoln-t-o-haas-tire","name":"T.O. Haas Tire","slug":"ne-lincoln-t-o-haas-tire","lat":40.8661556,"lng":-96.6809858,"state":"NE","city":"Lincoln","address":"2700 Folkways Boulevard","zip":"68521","phone":"+1-402-227-3599","email":"","website":"","hours":"Mo-Fr 07:30-17:30; Sa 07:30-17:00","brand":"","services":["car_repair","oil_change","diagnostics","tires","brakes","tyres","alignment"],"shopType":"general_repair"},{"id":"shop-ne-waverly-schmit-automotive-inc","name":"Schmit Automotive Inc","slug":"ne-waverly-schmit-automotive-inc","lat":40.9168571,"lng":-96.5265512,"state":"NE","city":"Waverly","address":"14311 Highway 6","zip":"68462","phone":"+1-402-786-2224","email":"","website":"https://schmitauto.com","hours":"Mo-Fr 07:30-17:30","brand":"","services":["general_repair"],"shopType":"general_repair"},{"id":"shop-ne-unknown-precision-collision-inc","name":"Precision Collision Inc.","slug":"ne-unknown-precision-collision-inc","lat":40.7400742,"lng":-96.842789,"state":"NE","city":"","address":"9026 Austin Avenue","zip":"68339","phone":"","email":"","website":"","hours":"","brand":"","services":["body_work"],"shopType":"body_shop"},{"id":"shop-ne-lincoln-tuffy-tire-auto-service-center","name":"Tuffy Tire & Auto Service Center","slug":"ne-lincoln-tuffy-tire-auto-service-center","lat":40.7381717,"lng":-96.6993123,"state":"NE","city":"Lincoln","address":"1525 Pine Lake Road","zip":"68512","phone":"+1-402-421-1900","email":"","website":"https://www.tuffylincoln.com","hours":"","brand":"Tuffy","services":["tires","car_repair","tyres","oil_change"],"shopType":"general_repair"},{"id":"shop-ne-lincoln-tim-s-auto-services-radiator-repair","name":"Tim's Auto Services & Radiator Repair","slug":"ne-lincoln-tim-s-auto-services-radiator-repair","lat":40.8049943,"lng":-96.7030292,"state":"NE","city":"Lincoln","address":"1240 F Street","zip":"68508","phone":"+1 402-477-2100","email":"timgriess@timsautocenter.net","website":"","hours":"Mo-Th 07:30-17:00; Fr 07:30-12:00","brand":"","services":["general_repair"],"shopType":"general_repair"},{"id":"shop-ne-omaha-valvoline","name":"Valvoline","slug":"ne-omaha-valvoline","lat":41.2043201,"lng":-96.080965,"state":"NE","city":"Omaha","address":"5321 South 108th Street","zip":"","phone":"+1-402-592-6550","email":"","website":"https://store.vioc.com/ne/omaha/oil-change-ar2203.html","hours":"","brand":"Valvoline","services":["oil_change"],"shopType":"quick_lube"},{"id":"shop-ne-lincoln-midas","name":"Midas","slug":"ne-lincoln-midas","lat":40.8137605,"lng":-96.6230516,"state":"NE","city":"Lincoln","address":"7030 O Street","zip":"68510","phone":"+1-402-937-8333","email":"","website":"https://www.midas.com/lincoln/store.aspx?shopnum=2211&dmanum=496001","hours":"Mo-We 07:30-18:00; Fr-Sa 07:30-18:00","brand":"Midas","services":["oil_change","air_conditioning","tyres","diagnostics","tires","suspension","brakes","muffler","exhaust","alignment"],"shopType":"general_repair"},{"id":"shop-ne-lincoln-jiffy-lube-3","name":"Jiffy Lube","slug":"ne-lincoln-jiffy-lube-3","lat":40.8137725,"lng":-96.6732016,"state":"NE","city":"Lincoln","address":"3250 O Street","zip":"68510","phone":"+1-402-875-7802","email":"","website":"https://www.jiffylube.com/","hours":"Mo-Fr 08:00-18:00; Sa 07:00-17:00","brand":"Jiffy Lube","services":["oil_change","tires","engine_repair","fluid_changes","batteries","filters","inspection","tyres"],"shopType":"quick_lube"},{"id":"shop-ne-lincoln-glenn-s-carstar-body-shop","name":"Glenn's CARSTAR Body Shop","slug":"ne-lincoln-glenn-s-carstar-body-shop","lat":40.8088034,"lng":-96.6911957,"state":"NE","city":"Lincoln","address":"2051 K Street","zip":"68510","phone":"+1-402-475-8441","email":"","website":"https://www.carstar.com/store/glenns-carstar-body-shop-lincoln-nebraska","hours":"Mo-Fr 08:00-17:00","brand":"","services":["body_work"],"shopType":"body_shop"},{"id":"shop-ne-unknown-xtreme-dents-auto-hail-repair","name":"Xtreme Dents Auto Hail Repair","slug":"ne-unknown-xtreme-dents-auto-hail-repair","lat":41.8677323,"lng":-103.6624614,"state":"NE","city":"","address":"","zip":"","phone":"","email":"","website":"","hours":"","brand":"","services":["body_work","body_repair"],"shopType":"general_repair"},{"id":"shop-ne-omaha-jensen-tire-auto-3","name":"Jensen Tire & Auto","slug":"ne-omaha-jensen-tire-auto-3","lat":41.2569,"lng":-95.9428844,"state":"NE","city":"Omaha","address":"2010 Harney Street","zip":"68102","phone":"+1 402 342 5076","email":"","website":"https://jensentireandauto.com/locations/2010-harney-street/","hours":"","brand":"","services":["tyre_change","tyres_balance","tyre_rotation","tyre_mounting","tires","tyres"],"shopType":"general_repair"},{"id":"shop-ne-unknown-m-d-auto","name":"M&D Auto","slug":"ne-unknown-m-d-auto","lat":40.1377672,"lng":-97.1822819,"state":"NE","city":"","address":"","zip":"","phone":"","email":"","website":"","hours":"","brand":"","services":["general_repair"],"shopType":"general_repair"},{"id":"shop-ne-greenwood-frontier-cooperative","name":"Frontier Cooperative","slug":"ne-greenwood-frontier-cooperative","lat":40.9602936,"lng":-96.4430359,"state":"NE","city":"Greenwood","address":"426 Highway 6","zip":"68366","phone":"+1-402-381-8170","email":"","website":"","hours":"","brand":"","services":["general_repair"],"shopType":"general_repair"},{"id":"shop-ne-omaha-baxter-auto-body-west-dodge","name":"Baxter Auto Body West Dodge","slug":"ne-omaha-baxter-auto-body-west-dodge","lat":41.2671729,"lng":-96.1894202,"state":"NE","city":"Omaha","address":"North 177th Circle","zip":"68118","phone":"","email":"","website":"","hours":"","brand":"","services":["body_work"],"shopType":"body_shop"},{"id":"shop-ne-kearney-big-o-tires","name":"Big O Tires","slug":"ne-kearney-big-o-tires","lat":40.7278703,"lng":-99.0833346,"state":"NE","city":"Kearney","address":"116 West 56th Street","zip":"68847","phone":"","email":"","website":"","hours":"","brand":"Big O Tires","services":["tires"],"shopType":"tire_shop"},{"id":"shop-ne-omaha-the-internet-car-lot-service-center","name":"The Internet Car Lot Service Center","slug":"ne-omaha-the-internet-car-lot-service-center","lat":41.2519458,"lng":-95.9400149,"state":"NE","city":"Omaha","address":"1805 Leavenworth Street","zip":"68102","phone":"+1-402-204-1340","email":"","website":"","hours":"Mo-Fr 09:00-17:00","brand":"","services":["body_repair","muffler","repairs","motor","painting","brakes","tyres","alignment","air_conditioning","body_work","tires","transmission","transmission_repair","car_repair","electrical","oil_change","diagnostics","batteries","inspection","exhaust"],"shopType":"general_repair"},{"id":"shop-ne-unknown-firestone","name":"Firestone","slug":"ne-unknown-firestone","lat":41.4018516,"lng":-102.3466957,"state":"NE","city":"","address":"","zip":"","phone":"","email":"","website":"","hours":"","brand":"Firestone","services":["general_repair"],"shopType":"general_repair"},{"id":"shop-ne-lincoln-dillon-s-service-center","name":"Dillon's Service Center","slug":"ne-lincoln-dillon-s-service-center","lat":40.8772393,"lng":-96.6806619,"state":"NE","city":"Lincoln","address":"6521 North 28th Street","zip":"68504","phone":"+1-402-435-1260","email":"","website":"https://www.dillonsauto.com/","hours":"Mo-Fr 08:00-16:30","brand":"","services":["diagnostics","car_repair","oil_change"],"shopType":"general_repair"},{"id":"shop-ne-unknown-riverdale-auto-repair","name":"Riverdale Auto Repair","slug":"ne-unknown-riverdale-auto-repair","lat":40.7836533,"lng":-99.16275,"state":"NE","city":"","address":"","zip":"","phone":"","email":"","website":"","hours":"Mo-Sa 08:00-20:00","brand":"","services":["general_repair"],"shopType":"general_repair"},{"id":"shop-ne-north-platte-modern-tire-pros","name":"Modern Tire Pros","slug":"ne-north-platte-modern-tire-pros","lat":41.1211866,"lng":-100.7645587,"state":"NE","city":"North Platte","address":"1402 South Jeffers Street","zip":"69101","phone":"+1-308-532-1213","email":"","website":"","hours":"","brand":"","services":["tires"],"shopType":"tire_shop"},{"id":"shop-ne-grand-island-centro-mex","name":"Centro Mex","slug":"ne-grand-island-centro-mex","lat":40.9259198,"lng":-98.3475904,"state":"NE","city":"Grand Island","address":"607 West 4th Street","zip":"68801","phone":"","email":"","website":"","hours":"","brand":"","services":["general_repair"],"shopType":"general_repair"},{"id":"shop-ne-grand-island-bg-s-transmissions","name":"BG&S Transmissions","slug":"ne-grand-island-bg-s-transmissions","lat":40.9210348,"lng":-98.3482495,"state":"NE","city":"Grand Island","address":"901 West 2nd Street","zip":"68801","phone":"","email":"","website":"","hours":"","brand":"","services":["transmission"],"shopType":"transmission_shop"},{"id":"shop-ne-grand-island-the-shop","name":"The Shop","slug":"ne-grand-island-the-shop","lat":40.9255179,"lng":-98.3501112,"state":"NE","city":"Grand Island","address":"404 North Eddy Street","zip":"68801","phone":"","email":"","website":"","hours":"","brand":"","services":["general_repair"],"shopType":"general_repair"},{"id":"shop-ne-grand-island-bob-s-body-shop","name":"Bob's Body Shop","slug":"ne-grand-island-bob-s-body-shop","lat":40.9190764,"lng":-98.3602012,"state":"NE","city":"Grand Island","address":"1902 West Old Lincoln Highway","zip":"68803","phone":"","email":"","website":"","hours":"","brand":"","services":["body_work"],"shopType":"body_shop"},{"id":"shop-ne-grand-island-personal-automotive-services","name":"Personal Automotive Services","slug":"ne-grand-island-personal-automotive-services","lat":40.9171898,"lng":-98.3660773,"state":"NE","city":"Grand Island","address":"2404 West Lincoln Highway","zip":"68803","phone":"","email":"","website":"","hours":"","brand":"","services":["general_repair"],"shopType":"general_repair"},{"id":"shop-ne-grand-island-riverside-motors","name":"Riverside Motors","slug":"ne-grand-island-riverside-motors","lat":40.9170892,"lng":-98.3671083,"state":"NE","city":"Grand Island","address":"2502 West Old Lincoln Highway","zip":"68803","phone":"","email":"","website":"","hours":"","brand":"","services":["general_repair"],"shopType":"general_repair"},{"id":"shop-ne-unknown-auto-works-service-repair","name":"Auto Works Service & Repair","slug":"ne-unknown-auto-works-service-repair","lat":41.8688171,"lng":-103.6759529,"state":"NE","city":"","address":"","zip":"","phone":"","email":"","website":"","hours":"","brand":"","services":["general_repair"],"shopType":"general_repair"},{"id":"shop-ne-unknown-jk-automotive","name":"JK Automotive","slug":"ne-unknown-jk-automotive","lat":41.843041,"lng":-103.6634993,"state":"NE","city":"","address":"","zip":"","phone":"","email":"","website":"","hours":"","brand":"","services":["general_repair"],"shopType":"general_repair"},{"id":"shop-ne-unknown-nebraska-land-tire-and-service","name":"Nebraska Land Tire and service","slug":"ne-unknown-nebraska-land-tire-and-service","lat":41.8549127,"lng":-103.6620102,"state":"NE","city":"","address":"","zip":"","phone":"","email":"","website":"","hours":"","brand":"","services":["tires"],"shopType":"tire_shop"},{"id":"shop-ne-unknown-mike-s-care-care","name":"Mike's Care Care","slug":"ne-unknown-mike-s-care-care","lat":41.8825399,"lng":-103.6769847,"state":"NE","city":"","address":"","zip":"","phone":"","email":"","website":"","hours":"","brand":"","services":["general_repair"],"shopType":"general_repair"},{"id":"shop-ne-unknown-jd-s-ace-body-shop","name":"JD's Ace Body Shop","slug":"ne-unknown-jd-s-ace-body-shop","lat":41.8596814,"lng":-103.6494877,"state":"NE","city":"","address":"","zip":"","phone":"","email":"","website":"","hours":"","brand":"","services":["body_work","body_repair"],"shopType":"body_shop"},{"id":"shop-ne-lincoln-inmotion-auto-care","name":"inMOTION Auto Care","slug":"ne-lincoln-inmotion-auto-care","lat":40.8147052,"lng":-96.6086764,"state":"NE","city":"Lincoln","address":"131 Russwood Parkway","zip":"68505","phone":"+1-402-802-9380","email":"","website":"https://www.inmotionautocare.com/","hours":"Mo-Fr 07:30-17:30","brand":"","services":["general_repair"],"shopType":"general_repair"},{"id":"shop-ne-lincoln-jensen-tire-auto","name":"Jensen Tire & Auto","slug":"ne-lincoln-jensen-tire-auto","lat":40.8403644,"lng":-96.6077499,"state":"NE","city":"Lincoln","address":"2733 North 83rd Street","zip":"68507","phone":"+1-402-464-0006","email":"","website":"https://jensentireandauto.com/locations/2733-north-83rd-street/","hours":"Mo-Fr 07:00-18:00","brand":"","services":["tires","oil_change","tyres","brakes"],"shopType":"general_repair"},{"id":"shop-ne-omaha-inter-tech-collision-center","name":"Inter-Tech Collision Center","slug":"ne-omaha-inter-tech-collision-center","lat":41.2048729,"lng":-96.1575689,"state":"NE","city":"Omaha","address":"15555 Q Street","zip":"68137","phone":"","email":"","website":"","hours":"","brand":"","services":["body_work"],"shopType":"body_shop"},{"id":"shop-ne-omaha-dave-s-auto-body-co","name":"Dave's Auto Body Co","slug":"ne-omaha-dave-s-auto-body-co","lat":41.3179518,"lng":-96.0640451,"state":"NE","city":"Omaha","address":"9630 Redick Avenue","zip":"68122","phone":"+1-402-671-0646","email":"","website":"https://davesautobodyco.com/","hours":"Mo-Fr 7:30-17:30","brand":"","services":["body_work"],"shopType":"body_shop"},{"id":"shop-ne-lincoln-t-o-haas-tire-2","name":"T.O. Haas Tire","slug":"ne-lincoln-t-o-haas-tire-2","lat":40.814317,"lng":-96.7291608,"state":"NE","city":"Lincoln","address":"640 West O Street","zip":"68528","phone":"+1-402-576-5580","email":"","website":"https://tohaastire.com/locations/west-o-street-in-lincoln/","hours":"Mo-Fr 07:30-17:30; Sa 07:30-17:00","brand":"","services":["car_repair","oil_change","diagnostics","tires","brakes","tyres","alignment"],"shopType":"general_repair"},{"id":"shop-ne-lincoln-meineke","name":"Meineke","slug":"ne-lincoln-meineke","lat":40.8535915,"lng":-96.6525711,"state":"NE","city":"Lincoln","address":"4010 North 48th Street","zip":"68504","phone":"+1-402-410-6085","email":"","website":"https://www.meineke.com/locations/ne/lincoln-2887/","hours":"Mo-Fr 07:30-17:30; Sa 07:30-16:00","brand":"Meineke","services":["exhaust"],"shopType":"general_repair"},{"id":"shop-ne-lincoln-b-g-s-transmissions","name":"B G & S Transmissions","slug":"ne-lincoln-b-g-s-transmissions","lat":40.8566552,"lng":-96.6514933,"state":"NE","city":"Lincoln","address":"4911 Superior Street","zip":"68504","phone":"+1-402-435-3637","email":"info@bgandstransmissions.com","website":"","hours":"Mo-Fr 07:30-17:00","brand":"","services":["transmission_repair","transmission"],"shopType":"transmission_shop"},{"id":"shop-ne-lincoln-rnr-tire-express","name":"RNR Tire Express","slug":"ne-lincoln-rnr-tire-express","lat":40.8561063,"lng":-96.6815314,"state":"NE","city":"Lincoln","address":"4300 North 27th Street","zip":"68521","phone":"+1-402-975-8133","email":"3405gm@vailteam.com","website":"https://rnrtires.com/","hours":"Mo-Fr 09:00-18:00; Sa 09:00-17:00","brand":"","services":["tires"],"shopType":"tire_shop"},{"id":"shop-ne-omaha-charlie-graham-great-plains-auto-body","name":"Charlie Graham Great Plains Auto Body","slug":"ne-omaha-charlie-graham-great-plains-auto-body","lat":41.2521349,"lng":-95.9752412,"state":"NE","city":"Omaha","address":"4103 Leavenworth Street","zip":"68105","phone":"+1-402-551-6000","email":"","website":"https://greatplainsautobody.com/","hours":"Mo-Fr 07:30-17:30","brand":"","services":["engine_repair","wheels","hail_damage_repair","shock_absorbers","battery_testing","glass_repair","engine_lights_testing","painting","brakes","tyres","body_work","tires","towing","starters","alternator","fluid_changes","steering","exhausts","car_repair","oil_change","exhaust"],"shopType":"general_repair"},{"id":"shop-ne-lincoln-firestone","name":"Firestone","slug":"ne-lincoln-firestone","lat":40.8166611,"lng":-96.630206,"state":"NE","city":"Lincoln","address":"300 North 66th Street","zip":"68505","phone":"+1-402-875-6478","email":"","website":"https://local.firestonecompleteautocare.com/nebraska/lincoln/300-n-66th-st/","hours":"Mo-Sa 07:00-18:00; Su 09:00-17:00","brand":"Firestone","services":["tires","tyres"],"shopType":"general_repair"},{"id":"shop-ne-unknown-t-o-haas","name":"T. O. Haas","slug":"ne-unknown-t-o-haas","lat":40.7375277,"lng":-96.6831788,"state":"NE","city":"","address":"","zip":"","phone":"","email":"","website":"","hours":"","brand":"","services":["tires"],"shopType":"general_repair"},{"id":"shop-ne-lincoln-jiffy-lube-4","name":"Jiffy Lube","slug":"ne-lincoln-jiffy-lube-4","lat":40.7878864,"lng":-96.6533925,"state":"NE","city":"Lincoln","address":"2402 South 48th Street","zip":"68506","phone":"","email":"","website":"","hours":"","brand":"Jiffy Lube","services":["oil_change"],"shopType":"quick_lube"},{"id":"shop-ne-unknown-firestone-2","name":"Firestone","slug":"ne-unknown-firestone-2","lat":40.8121012,"lng":-96.7047134,"state":"NE","city":"","address":"","zip":"","phone":"","email":"","website":"","hours":"","brand":"Firestone","services":["general_repair"],"shopType":"general_repair"},{"id":"shop-ne-lincoln-n-street-oil-lube","name":"N Street Oil & Lube","slug":"ne-lincoln-n-street-oil-lube","lat":40.8128043,"lng":-96.6970375,"state":"NE","city":"Lincoln","address":"1646 N Street","zip":"68508","phone":"","email":"","website":"","hours":"","brand":"","services":["oil_change"],"shopType":"quick_lube"},{"id":"shop-ne-papillion-jiffy-lube","name":"jiffy lube","slug":"ne-papillion-jiffy-lube","lat":41.1711022,"lng":-96.0440086,"state":"NE","city":"Papillion","address":"925 North Adams Street","zip":"68046","phone":"","email":"","website":"","hours":"","brand":"Jiffy Lube","services":["oil_change"],"shopType":"quick_lube"},{"id":"shop-ne-unknown-shelby-auto-clinic","name":"Shelby Auto Clinic","slug":"ne-unknown-shelby-auto-clinic","lat":41.1917053,"lng":-97.4271171,"state":"NE","city":"","address":"","zip":"","phone":"","email":"","website":"","hours":"","brand":"","services":["general_repair"],"shopType":"general_repair"},{"id":"shop-ne-unknown-wilburn-s-transmissions","name":"Wilburn's Transmissions","slug":"ne-unknown-wilburn-s-transmissions","lat":41.8621416,"lng":-103.6367059,"state":"NE","city":"","address":"","zip":"","phone":"","email":"","website":"","hours":"","brand":"","services":["transmission_repair","transmission"],"shopType":"transmission_shop"},{"id":"shop-ne-unknown-peerless-tires","name":"Peerless Tires","slug":"ne-unknown-peerless-tires","lat":41.8458926,"lng":-103.6601213,"state":"NE","city":"","address":"","zip":"","phone":"","email":"","website":"","hours":"","brand":"","services":["tires"],"shopType":"tire_shop"},{"id":"shop-ne-ashland-ashland-auto-service-repair","name":"Ashland Auto Service & Repair","slug":"ne-ashland-ashland-auto-service-repair","lat":41.0388019,"lng":-96.3674984,"state":"NE","city":"Ashland","address":"1309 Silver Street","zip":"68003","phone":"+1-402-944-6044","email":"","website":"","hours":"Mo-Fr 08:00-17:00","brand":"","services":["general_repair"],"shopType":"general_repair"},{"id":"shop-ne-salt-creek-mechanics-inc","name":"Mechanics Inc","slug":"ne-salt-creek-mechanics-inc","lat":41.0151443,"lng":-96.3882984,"state":"NE","city":"Salt Creek","address":"","zip":"68003","phone":"+1-402-944-7588","email":"","website":"https://mechanicsbank.com/","hours":"Mo-Sa 08:00-17:00","brand":"","services":["general_repair"],"shopType":"general_repair"},{"id":"shop-ne-omaha-heartland-tire-treads","name":"Heartland Tire & Treads","slug":"ne-omaha-heartland-tire-treads","lat":41.2247962,"lng":-96.008754,"state":"NE","city":"Omaha","address":"6223 Grover Street","zip":"68106","phone":"+1-402-393-8900","email":"","website":"https://heartland-tire.com/","hours":"Mo-Fr 07:00-17:00; Sa 07:00-12:00","brand":"","services":["tires"],"shopType":"tire_shop"},{"id":"shop-ne-omaha-grover-diesel","name":"Grover Diesel","slug":"ne-omaha-grover-diesel","lat":41.2286478,"lng":-96.0156325,"state":"NE","city":"Omaha","address":"3306 South 66th Avenue Circle","zip":"68106","phone":"+1-402-391-3070","email":"","website":"","hours":"Mo-Fr 08:00-17:00","brand":"","services":["truck_repair","diesel"],"shopType":"general_repair"},{"id":"shop-ne-omaha-champlin-tire","name":"Champlin Tire","slug":"ne-omaha-champlin-tire","lat":41.2292622,"lng":-96.0146787,"state":"NE","city":"Omaha","address":"3215 South 66th Avenue Circle","zip":"68106","phone":"+1-402-393-4991","email":"","website":"","hours":"Mo-Fr 08:30-17:30","brand":"","services":["tires"],"shopType":"tire_shop"},{"id":"shop-ne-omaha-omaha-car-care","name":"Omaha Car Care","slug":"ne-omaha-omaha-car-care","lat":41.23759,"lng":-96.0037179,"state":"NE","city":"Omaha","address":"5815 Center Street","zip":"68106","phone":"+1-402-556-6708","email":"","website":"https://www.omahacarcare.com/","hours":"Mo-Fr 07:00-18:00","brand":"","services":["repairs"],"shopType":"general_repair"},{"id":"shop-ne-omaha-insta-lube","name":"Insta-Lube","slug":"ne-omaha-insta-lube","lat":41.238084,"lng":-96.0030417,"state":"NE","city":"Omaha","address":"5802 Center Street","zip":"68106","phone":"+1-402-553-6851","email":"","website":"https://instalubeoil.com/","hours":"Tu-Fr 08:00-18:00; Sa 08:00-17:00; Su 10:00-16:00","brand":"","services":["oil_change"],"shopType":"quick_lube"},{"id":"shop-ne-omaha-inter-tech-collision-center-2","name":"Inter-Tech Collision Center","slug":"ne-omaha-inter-tech-collision-center-2","lat":41.2381551,"lng":-96.0013662,"state":"NE","city":"Omaha","address":"5638 Center Street","zip":"68106","phone":"+1-402-898-8900","email":"","website":"https://intertechcollision.com/","hours":"Mo-Fr 07:30-17:30","brand":"","services":["body_work"],"shopType":"body_shop"},{"id":"shop-ne-omaha-certified-transmission-2","name":"Certified Transmission","slug":"ne-omaha-certified-transmission-2","lat":41.2418564,"lng":-95.9961235,"state":"NE","city":"Omaha","address":"5202 Center Street","zip":"68106","phone":"+1-402-916-1806","email":"","website":"americanautomart.net","hours":"Mo-Fr 08:00-18:00; Sa 09:00-16:00","brand":"","services":["transmission"],"shopType":"transmission_shop"},{"id":"shop-ne-omaha-rpm-powersports","name":"RPM Powersports","slug":"ne-omaha-rpm-powersports","lat":41.2410479,"lng":-95.9931198,"state":"NE","city":"Omaha","address":"5105 Center Street","zip":"68106","phone":"+1-402-657-3653","email":"","website":"rpmpowersportsomaha.com","hours":"Tu-Fr 10:00-18:00; Sa 10:00-16:00","brand":"","services":["general_repair"],"shopType":"general_repair"},{"id":"shop-ne-unknown-express-truck-center","name":"Express Truck Center","slug":"ne-unknown-express-truck-center","lat":40.8153671,"lng":-97.5987512,"state":"NE","city":"","address":"","zip":"","phone":"","email":"","website":"","hours":"","brand":"","services":["general_repair"],"shopType":"general_repair"},{"id":"shop-ne-omaha-exclusive-repair","name":"Exclusive Repair","slug":"ne-omaha-exclusive-repair","lat":41.2527003,"lng":-95.9797258,"state":"NE","city":"Omaha","address":"4420 Leavenworth Street","zip":"68105","phone":"+1-402-551-3015","email":"","website":"","hours":"Mo-Fr 07:00-17:00","brand":"","services":["general_repair"],"shopType":"general_repair"},{"id":"shop-ne-omaha-koory-s-automotive","name":"Koory's Automotive","slug":"ne-omaha-koory-s-automotive","lat":41.2526663,"lng":-95.9917407,"state":"NE","city":"Omaha","address":"5052 Leavenworth Street","zip":"68106","phone":"+1-402-551-5414","email":"","website":"http://www.carrepairomaha.com/","hours":"","brand":"","services":["general_repair"],"shopType":"general_repair"},{"id":"shop-ne-kearney-platte-valley-auto","name":"Platte Valley Auto","slug":"ne-kearney-platte-valley-auto","lat":40.7166776,"lng":-99.085276,"state":"NE","city":"Kearney","address":"4210 2nd Avenue","zip":"68845","phone":"","email":"","website":"","hours":"","brand":"","services":["car_repair","oil_change","diagnostics","brakes","repairs"],"shopType":"general_repair"},{"id":"shop-ne-gering-nemnich-automotive","name":"Nemnich Automotive","slug":"ne-gering-nemnich-automotive","lat":41.8499396,"lng":-103.6618807,"state":"NE","city":"Gering","address":"4010 10th Street","zip":"69341","phone":"+1-308-631-5551","email":"","website":"http://www.nemnichautomotive.com/","hours":"Mo-Th 07:00-17:30; Fr 07:30-12:30","brand":"","services":["diagnostics","car_repair","motor"],"shopType":"general_repair"},{"id":"shop-ne-papillion-ron-s-auto","name":"Ron's Auto","slug":"ne-papillion-ron-s-auto","lat":41.1570556,"lng":-96.0419954,"state":"NE","city":"Papillion","address":"136 North Jefferson Street","zip":"68046","phone":"","email":"","website":"","hours":"","brand":"","services":["general_repair"],"shopType":"general_repair"},{"id":"shop-ne-broken-bow-trotter-s-tire-pros","name":"Trotter's Tire Pros","slug":"ne-broken-bow-trotter-s-tire-pros","lat":41.4013438,"lng":-99.6652426,"state":"NE","city":"Broken Bow","address":"2990 South E Street","zip":"68822","phone":"","email":"","website":"","hours":"","brand":"","services":["car_repair","oil_change","tires","tyres","car_service"],"shopType":"general_repair"},{"id":"shop-ne-lincoln-house-of-mufflers-and-brakes","name":"House of Mufflers and Brakes","slug":"ne-lincoln-house-of-mufflers-and-brakes","lat":40.8432098,"lng":-96.677433,"state":"NE","city":"Lincoln","address":"2920 Cornhusker Highway","zip":"68504","phone":"+1-402-467-4359","email":"houseofmufflers@gmail.com","website":"http://www.houseofmufflers.net","hours":"Mo-Fr 08:00-17:30","brand":"","services":["exhausts","exhaust","brakes"],"shopType":"general_repair"},{"id":"shop-ne-lincoln-brakes-plus","name":"Brakes Plus","slug":"ne-lincoln-brakes-plus","lat":40.7390531,"lng":-96.6999677,"state":"NE","city":"Lincoln","address":"1510 Pine Lake Road","zip":"68512","phone":"+1-402-782-5200","email":"","website":"","hours":"Mo-Fr 08:00-18:00; Sa 08:00-17:00","brand":"Brakes Plus","services":["brakes"],"shopType":"general_repair"},{"id":"shop-ne-unknown-safelite-autoglass","name":"Safelite AutoGlass","slug":"ne-unknown-safelite-autoglass","lat":40.7008261,"lng":-99.0838987,"state":"NE","city":"","address":"","zip":"","phone":"","email":"","website":"","hours":"","brand":"Safelite AutoGlass","services":["glass"],"shopType":"general_repair"},{"id":"shop-ne-unknown-gary-s-automotive","name":"Gary's Automotive","slug":"ne-unknown-gary-s-automotive","lat":40.9167226,"lng":-98.3883459,"state":"NE","city":"","address":"","zip":"","phone":"","email":"","website":"","hours":"","brand":"","services":["general_repair"],"shopType":"general_repair"},{"id":"shop-ne-unknown-beed-s-auto-parts-service","name":"Beed’s Auto Parts & Service","slug":"ne-unknown-beed-s-auto-parts-service","lat":41.4619898,"lng":-96.7809741,"state":"NE","city":"","address":"","zip":"","phone":"","email":"","website":"","hours":"","brand":"Road Pro","services":["car_parts","car_repair"],"shopType":"general_repair"},{"id":"shop-ne-unknown-napa-autocare-center","name":"NAPA AutoCare Center","slug":"ne-unknown-napa-autocare-center","lat":41.422199,"lng":-100.1939079,"state":"NE","city":"","address":"","zip":"","phone":"","email":"","website":"","hours":"","brand":"NAPA AutoCare Center","services":["general_repair"],"shopType":"general_repair"},{"id":"shop-ne-lincoln-graham-tire","name":"Graham Tire","slug":"ne-lincoln-graham-tire","lat":40.8137648,"lng":-96.6274154,"state":"NE","city":"Lincoln","address":"6800 O Street","zip":"68510","phone":"+1-402-467-2555","email":"gbailey@grahamtire.com","website":"","hours":"Mo-Su 07:00-17:30","brand":"","services":["tires"],"shopType":"tire_shop"},{"id":"shop-ne-lincoln-trop-artic-lube-center","name":"Trop Artic Lube Center","slug":"ne-lincoln-trop-artic-lube-center","lat":40.8208761,"lng":-96.624499,"state":"NE","city":"Lincoln","address":"7000 Vine Street","zip":"68505","phone":"","email":"","website":"","hours":"","brand":"","services":["oil_change"],"shopType":"quick_lube"},{"id":"shop-ne-lincoln-t-o-haas-tire-3","name":"T.O. Haas Tire","slug":"ne-lincoln-t-o-haas-tire-3","lat":40.8325101,"lng":-96.6070375,"state":"NE","city":"Lincoln","address":"8300 Dawson Creek Bay","zip":"68505","phone":"+1-402-523-2927","email":"","website":"https://tohaastire.com/locations/dawson-creek-bay/","hours":"Mo-Fr 07:30-17:30; Sa 07:30-17:00","brand":"","services":["car_repair","oil_change","air_conditioning","tires","brakes","batteries","tyres"],"shopType":"general_repair"},{"id":"shop-ne-papillon-firestone","name":"Firestone","slug":"ne-papillon-firestone","lat":41.1336304,"lng":-96.0244642,"state":"NE","city":"Papillon","address":"11751 South 73rd Street","zip":"68046","phone":"+1-402-913-3561","email":"","website":"","hours":"","brand":"Firestone","services":["general_repair"],"shopType":"general_repair"},{"id":"shop-ne-papillon-take-5-oil-change","name":"Take 5 Oil Change","slug":"ne-papillon-take-5-oil-change","lat":41.1381964,"lng":-96.0230237,"state":"NE","city":"Papillon","address":"1419 Papillion Drive","zip":"68046","phone":"","email":"","website":"","hours":"","brand":"Take 5","services":["oil_change"],"shopType":"quick_lube"},{"id":"shop-ne-unknown-all-star-customs","name":"All Star Customs","slug":"ne-unknown-all-star-customs","lat":41.8598587,"lng":-103.6444038,"state":"NE","city":"","address":"","zip":"","phone":"","email":"","website":"","hours":"","brand":"","services":["painting","body_work","body_repair"],"shopType":"general_repair"},{"id":"shop-ne-scottsbluff-scottsbluff-original-paintless-dent-removal","name":"Scottsbluff Original Paintless Dent Removal","slug":"ne-scottsbluff-scottsbluff-original-paintless-dent-removal","lat":41.8596523,"lng":-103.6506086,"state":"NE","city":"Scottsbluff","address":"901 East Overland Drive","zip":"69361","phone":"+1-308-641-7245","email":"","website":"","hours":"","brand":"","services":["body_work","body_repair"],"shopType":"general_repair"},{"id":"shop-ne-unknown-gary-s-auto-repair","name":"Gary's Auto Repair","slug":"ne-unknown-gary-s-auto-repair","lat":41.8596577,"lng":-103.6562603,"state":"NE","city":"","address":"","zip":"","phone":"","email":"","website":"","hours":"","brand":"","services":["general_repair"],"shopType":"general_repair"},{"id":"shop-ne-scottsbluff-safelite-autoglass","name":"Safelite AutoGlass","slug":"ne-scottsbluff-safelite-autoglass","lat":41.8585741,"lng":-103.6631464,"state":"NE","city":"Scottsbluff","address":"1204 Broadway","zip":"69361","phone":"","email":"","website":"","hours":"","brand":"Safelite AutoGlass","services":["glass"],"shopType":"general_repair"},{"id":"shop-ne-unknown-bumper-to-bumper-body-paint","name":"Bumper to Bumper Body & Paint","slug":"ne-unknown-bumper-to-bumper-body-paint","lat":41.8560459,"lng":-103.6664086,"state":"NE","city":"","address":"","zip":"","phone":"","email":"","website":"","hours":"","brand":"","services":["painting","body_work","body_repair"],"shopType":"general_repair"},{"id":"shop-ne-unknown-napa-autocare-center-2","name":"NAPA AutoCare Center","slug":"ne-unknown-napa-autocare-center-2","lat":41.8606382,"lng":-103.6297574,"state":"NE","city":"","address":"","zip":"","phone":"","email":"","website":"","hours":"","brand":"NAPA AutoCare Center","services":["general_repair"],"shopType":"general_repair"},{"id":"shop-ne-unknown-hiland-truck-parts-and-service","name":"Hiland Truck Parts and Service","slug":"ne-unknown-hiland-truck-parts-and-service","lat":41.8582393,"lng":-103.628127,"state":"NE","city":"","address":"","zip":"","phone":"","email":"","website":"","hours":"","brand":"","services":["general_repair"],"shopType":"general_repair"},{"id":"shop-ne-unknown-pete-s-quick-lube","name":"Pete's Quick Lube","slug":"ne-unknown-pete-s-quick-lube","lat":41.8442591,"lng":-103.6601653,"state":"NE","city":"","address":"","zip":"","phone":"+1-308-575-0289","email":"","website":"","hours":"","brand":"","services":["oil_change"],"shopType":"quick_lube"},{"id":"shop-ne-madrid-ross-s-autoparts-repais","name":"Ross's Autoparts & Repais","slug":"ne-madrid-ross-s-autoparts-repais","lat":40.8504588,"lng":-101.5448276,"state":"NE","city":"Madrid","address":"","zip":"","phone":"","email":"","website":"","hours":"","brand":"","services":["general_repair"],"shopType":"general_repair"},{"id":"shop-ne-lincoln-levander-auto-body-repair","name":"Levander Auto Body Repair","slug":"ne-lincoln-levander-auto-body-repair","lat":40.8149751,"lng":-96.6575989,"state":"NE","city":"Lincoln","address":"248 North 44th Street","zip":"68503","phone":"+1-531-324-3747","email":"","website":"","hours":"Mo-Fr 08:00-17:30","brand":"","services":["body_work","body_repair"],"shopType":"general_repair"},{"id":"shop-ne-lincoln-adams-auto-service","name":"Adams Auto Service","slug":"ne-lincoln-adams-auto-service","lat":40.8277197,"lng":-96.630126,"state":"NE","city":"Lincoln","address":"1440 North Cotner Boulevard","zip":"68505","phone":"+1-402-466-2691","email":"","website":"https://adamsautoserviceinc.com/","hours":"Mo-Fr 08:00-17:00","brand":"","services":["car_repair","electrical","air_conditioning","motor","oil_change","diagnostics","tires","car_parts","transmission","brakes","batteries","repairs","transmission_repair","tyres","alignment"],"shopType":"general_repair"},{"id":"shop-ne-north-platte-carrol-s-towing-repair","name":"Carrol's Towing & Repair","slug":"ne-north-platte-carrol-s-towing-repair","lat":41.1220279,"lng":-100.7598804,"state":"NE","city":"North Platte","address":"1321 South Chestnut Street","zip":"69101","phone":"","email":"","website":"","hours":"","brand":"","services":["general_repair"],"shopType":"general_repair"},{"id":"shop-ne-lincoln-safelite-autoglass","name":"Safelite AutoGlass","slug":"ne-lincoln-safelite-autoglass","lat":40.8442926,"lng":-96.6684001,"state":"NE","city":"Lincoln","address":"3630 Cornhusker Highway","zip":"68504","phone":"","email":"","website":"https://www.safelite.com/stores/lincoln","hours":"Mo-Sa 08:00-17:00","brand":"Safelite AutoGlass","services":["glass"],"shopType":"general_repair"},{"id":"shop-ne-lincoln-speedee","name":"SpeeDee","slug":"ne-lincoln-speedee","lat":40.8448628,"lng":-96.6672937,"state":"NE","city":"Lincoln","address":"3730 Cornhusker Highway","zip":"68504","phone":"+1-402-467-1233","email":"","website":"https://www.speedeeoil.com/locations/us/ne/lincoln/3730-cornhusker-hwy","hours":"Mo-Fr 08:00-19:00; Sa 08:00-18:00; Su 10:00-16:00","brand":"SpeeDee","services":["car_repair","oil_change","air_conditioning","diagnostics","tires","brakes","tyres","alignment"],"shopType":"general_repair"},{"id":"shop-ne-lincoln-ari-auto-repair","name":"Ari Auto Repair","slug":"ne-lincoln-ari-auto-repair","lat":40.829607,"lng":-96.6300575,"state":"NE","city":"Lincoln","address":"1640 North Cotner Boulevard","zip":"68505","phone":"+1-402-413-0303","email":"","website":"","hours":"Mo-Sa 08:00-18:00","brand":"","services":["car_repair","oil_change"],"shopType":"general_repair"},{"id":"shop-ne-unknown-penner-s-tire","name":"Penner's Tire","slug":"ne-unknown-penner-s-tire","lat":40.8700706,"lng":-97.5933826,"state":"NE","city":"","address":"","zip":"","phone":"","email":"","website":"","hours":"","brand":"","services":["tires"],"shopType":"tire_shop"},{"id":"shop-ne-shelby-rick-s-body-shop","name":"Rick's Body Shop","slug":"ne-shelby-rick-s-body-shop","lat":41.1930826,"lng":-97.4262156,"state":"NE","city":"Shelby","address":"165 North Walnut Street","zip":"68662","phone":"","email":"","website":"","hours":"","brand":"","services":["body_work"],"shopType":"body_shop"},{"id":"shop-ne-lincoln-brakes-plus-2","name":"Brakes Plus","slug":"ne-lincoln-brakes-plus-2","lat":40.8151494,"lng":-96.6529439,"state":"NE","city":"Lincoln","address":"222 North 48th Street","zip":"68504","phone":"+1-402-466-0104","email":"","website":"https://www.brakesplus.com/stores/lincoln/ne/0406/","hours":"Mo-Fr 08:00-18:00; Sa 08:00-17:00","brand":"Brakes Plus","services":["oil_change","air_conditioning","tyre_rotation","tires","wipers","brakes","batteries","alignment"],"shopType":"general_repair"},{"id":"shop-ne-lincoln-outlaw-european-performance","name":"Outlaw European Performance","slug":"ne-lincoln-outlaw-european-performance","lat":40.8417072,"lng":-96.6663976,"state":"NE","city":"Lincoln","address":"2920 North 38th Street","zip":"68504","phone":"+1-402-314-7670","email":"bmwoutlawz@gmail.com","website":"","hours":"","brand":"","services":["general_repair"],"shopType":"general_repair"},{"id":"shop-ne-lincoln-aamco-transmissions-and-total-car-care","name":"AAMCO Transmissions and Total Car Care","slug":"ne-lincoln-aamco-transmissions-and-total-car-care","lat":40.8422769,"lng":-96.6682598,"state":"NE","city":"Lincoln","address":"3645 Adams Street","zip":"68504","phone":"+1-402-281-1266","email":"","website":"https://www.aamcolincolnne.com/","hours":"Mo-Th 07:30-17:30; Fr 07:30-17:00","brand":"AAMCO","services":["transmission"],"shopType":"transmission_shop"},{"id":"shop-ne-lincoln-t-o-haas-tire-auto","name":"T.O. Haas Tire & Auto","slug":"ne-lincoln-t-o-haas-tire-auto","lat":40.8254094,"lng":-96.6532536,"state":"NE","city":"Lincoln","address":"1050 North 48th Street","zip":"68504","phone":"+1-402-922-8940","email":"","website":"https://www.tohaastire.com/locations/ne/lincoln/auto-repair-1150-north-48th","hours":"Mo-Fr 07:30-17:30; Sa 07:30-17:00","brand":"","services":["heater","oil_change","air_conditioning","tires","engine_repair","suspension","tire_repair","brakes","fluid_changes","preventive_maintenance","batteries","steering","tire_rotation","inspection","alignment"],"shopType":"general_repair"},{"id":"shop-ne-lincoln-discount-tire","name":"Discount Tire","slug":"ne-lincoln-discount-tire","lat":40.8129773,"lng":-96.6434851,"state":"NE","city":"Lincoln","address":"5610 N Street","zip":"68510","phone":"+1-402-417-1025","email":"","website":"https://www.discounttire.com/store/ne/lincoln/s/2356","hours":"Mo-Fr 08:00-18:00; Sa 08:00-17:00","brand":"Discount Tire","services":["tires"],"shopType":"tire_shop"}]