[{"id":"shop-nm-clayton-mtc-llc","name":"MTC, LLC","slug":"nm-clayton-mtc-llc","lat":36.4431646,"lng":-103.1794991,"state":"NM","city":"Clayton","address":"902 South 1st Street","zip":"","phone":"+1-575-374-3528","email":"mtcllc@plateautel.net","website":"https://de-de.facebook.com/pages/MTC-LLC/125422154190102","hours":"Mo-Fr 08:00-17:00","brand":"","services":["tires"],"shopType":"general_repair"},{"id":"shop-nm-raton-cunico-tire-company","name":"Cunico Tire Company","slug":"nm-raton-cunico-tire-company","lat":36.8880372,"lng":-104.4406462,"state":"NM","city":"Raton","address":"1042 South 2nd Street","zip":"87740","phone":"","email":"","website":"","hours":"","brand":"","services":["tires"],"shopType":"tire_shop"},{"id":"shop-nm-raton-d-t-auto-truck-repair","name":"D&T Auto & Truck Repair","slug":"nm-raton-d-t-auto-truck-repair","lat":36.8627153,"lng":-104.4526246,"state":"NM","city":"Raton","address":"429 York Canyon Road","zip":"87740","phone":"","email":"","website":"","hours":"","brand":"","services":["general_repair"],"shopType":"general_repair"},{"id":"shop-nm-albuquerque-discount-tire","name":"Discount Tire","slug":"nm-albuquerque-discount-tire","lat":35.1143926,"lng":-106.5152289,"state":"NM","city":"Albuquerque","address":"2700 Juan Tabo Boulevard Northeast","zip":"","phone":"","email":"","website":"https://www.discounttire.com/store/nm/albuquerque/s/1467","hours":"","brand":"Discount Tire","services":["tires"],"shopType":"tire_shop"},{"id":"shop-nm-albuquerque-ferrari-custom-auto-tint","name":"Ferrari Custom Auto Tint","slug":"nm-albuquerque-ferrari-custom-auto-tint","lat":35.0943588,"lng":-106.5867205,"state":"NM","city":"Albuquerque","address":"1717 San Mateo Boulevard Northeast","zip":"87110","phone":"","email":"","website":"","hours":"","brand":"","services":["general_repair"],"shopType":"general_repair"},{"id":"shop-nm-roswell-johnnie-s-car-care-center","name":"Johnnie's Car Care Center","slug":"nm-roswell-johnnie-s-car-care-center","lat":33.393912,"lng":-104.5051122,"state":"NM","city":"Roswell","address":"1302 East 2nd Street","zip":"88201","phone":"+1-575-622-6389","email":"","website":"","hours":"","brand":"","services":["general_repair"],"shopType":"general_repair"},{"id":"shop-nm-roswell-slanky-s-body-shop","name":"Slanky's Body Shop","slug":"nm-roswell-slanky-s-body-shop","lat":33.3944226,"lng":-104.5185099,"state":"NM","city":"Roswell","address":"401 East 2nd Street","zip":"88201","phone":"","email":"","website":"","hours":"","brand":"","services":["body_work"],"shopType":"body_shop"},{"id":"shop-nm-roswell-antonio-s-collision-custom-paint","name":"Antonio’s Collision & Custom Paint","slug":"nm-roswell-antonio-s-collision-custom-paint","lat":33.3943983,"lng":-104.5119697,"state":"NM","city":"Roswell","address":"629 East 2nd Street","zip":"88201","phone":"+1-575-840-6971","email":"","website":"","hours":"","brand":"","services":["body_work"],"shopType":"body_shop"},{"id":"shop-nm-roswell-dean-s-discount-tire-auto","name":"Dean's Discount Tire & Auto","slug":"nm-roswell-dean-s-discount-tire-auto","lat":33.3943961,"lng":-104.5136944,"state":"NM","city":"Roswell","address":"603 East 2nd Street","zip":"88201","phone":"+1-575-625-0656","email":"","website":"","hours":"","brand":"Discount Tire","services":["tires"],"shopType":"tire_shop"},{"id":"shop-nm-roswell-lykins-tire-auto-service","name":"Lykins Tire & Auto Service","slug":"nm-roswell-lykins-tire-auto-service","lat":33.393478,"lng":-104.5147807,"state":"NM","city":"Roswell","address":"120 North Garden Avenue","zip":"88203","phone":"+1-575-622-1900","email":"","website":"https://www.lykinstire.com/","hours":"Mo-Fr 07:00-17:30, Sa 07:00-16:00","brand":"","services":["tires"],"shopType":"tire_shop"},{"id":"shop-nm-springer-russell-s","name":"Russell's","slug":"nm-springer-russell-s","lat":36.4501444,"lng":-104.5927244,"state":"NM","city":"Springer","address":"1583 East Frontage Road","zip":"87747","phone":"+1-575-376-2262","email":"","website":"http://www.russellsttc.com/","hours":"","brand":"","services":["general_repair"],"shopType":"general_repair"},{"id":"shop-nm-gallup-j-j-truck-service","name":"J & J Truck Service","slug":"nm-gallup-j-j-truck-service","lat":35.5102442,"lng":-108.801657,"state":"NM","city":"Gallup","address":"2711 West Historic Highway 66","zip":"87301","phone":"","email":"","website":"","hours":"","brand":"Cummins","services":["general_repair"],"shopType":"general_repair"},{"id":"shop-nm-ruidoso-downs-downs-automotive","name":"Downs Automotive","slug":"nm-ruidoso-downs-downs-automotive","lat":33.3261041,"lng":-105.6126846,"state":"NM","city":"Ruidoso Downs","address":"26522 US-70","zip":"88346","phone":"+1 575 3781050","email":"","website":"http://downsautomotivenm.com","hours":"","brand":"","services":["general_repair"],"shopType":"general_repair"},{"id":"shop-nm-farmington-southwest-auto-towing","name":"Southwest Auto Towing","slug":"nm-farmington-southwest-auto-towing","lat":36.7154754,"lng":-108.1491204,"state":"NM","city":"Farmington","address":"5418 Bloomfield Highway","zip":"87401","phone":"+1-505-632-6635","email":"","website":"https://swatnm.com/","hours":"","brand":"","services":["general_repair"],"shopType":"general_repair"},{"id":"shop-nm-albuquerque-discount-tire-2","name":"Discount Tire","slug":"nm-albuquerque-discount-tire-2","lat":35.1322568,"lng":-106.607465,"state":"NM","city":"Albuquerque","address":"4600 Pan American East Freeway NE","zip":"87109-2201","phone":"","email":"","website":"","hours":"","brand":"Discount Tire","services":["tires"],"shopType":"tire_shop"},{"id":"shop-nm-santa-fe-european-autowerks","name":"European AutoWerks","slug":"nm-santa-fe-european-autowerks","lat":35.6661395,"lng":-105.9684747,"state":"NM","city":"Santa Fe","address":"1411 2nd Street","zip":"87505","phone":"+1-505-983-1442","email":"","website":"","hours":"","brand":"","services":["general_repair"],"shopType":"general_repair"},{"id":"shop-nm-albuquerque-compa-customs","name":"Compa Customs","slug":"nm-albuquerque-compa-customs","lat":35.1095231,"lng":-106.5649355,"state":"NM","city":"Albuquerque","address":"7115 Menaul Boulevard Northeast","zip":"87110","phone":"+1-505-203-9406","email":"","website":"http://compacustoms.weebly.com","hours":"","brand":"","services":["exhaust"],"shopType":"general_repair"},{"id":"shop-nm-albuquerque-a-above-beyond-auto-glass-tint","name":"A Above & Beyond Auto Glass & Tint","slug":"nm-albuquerque-a-above-beyond-auto-glass-tint","lat":35.0930222,"lng":-106.5147897,"state":"NM","city":"Albuquerque","address":"1900 Eubank Boulevard Northeast","zip":"87112","phone":"+1-505-323-1544","email":"","website":"http://www.autoglassrepairsalbuquerque.com","hours":"Mo-Fr 09:00-17:00; Sa 09:00-14:00","brand":"","services":["general_repair"],"shopType":"general_repair"},{"id":"shop-nm-gallup-auto-care-express","name":"Auto Care Express","slug":"nm-gallup-auto-care-express","lat":35.5303727,"lng":-108.7217301,"state":"NM","city":"Gallup","address":"1305 Historic US Highway 66","zip":"87301","phone":"+1-505-722-2288","email":"","website":"http://autocareexpressgallup.com","hours":"Mo-Th 09:00-17:00; Fr,Sa 09:00-18:00","brand":"","services":["general_repair"],"shopType":"general_repair"},{"id":"shop-nm-santa-fe-jiffy-lube","name":"Jiffy Lube","slug":"nm-santa-fe-jiffy-lube","lat":35.8817657,"lng":-106.014587,"state":"NM","city":"Santa Fe","address":"67 Ogo Wii Road","zip":"87506","phone":"","email":"","website":"","hours":"","brand":"Jiffy Lube","services":["oil_change"],"shopType":"quick_lube"},{"id":"shop-nm-albuquerque-christa-s-excellent-auto-llc","name":"Christa's Excellent Auto, LLC","slug":"nm-albuquerque-christa-s-excellent-auto-llc","lat":35.0880813,"lng":-106.652888,"state":"NM","city":"Albuquerque","address":"500 Marquette Ave. NW","zip":"87102","phone":"+1 505-738-0045","email":"","website":"https://christasexcellentautollc.com/","hours":"Mo-Fr 06:00-18:00; Sa,Su 09:00-17:00","brand":"","services":["general_repair"],"shopType":"general_repair"},{"id":"shop-nm-albuquerque-toyo-auto-services-inc","name":"Toyo Auto Services, Inc.","slug":"nm-albuquerque-toyo-auto-services-inc","lat":35.0730017,"lng":-106.5590605,"state":"NM","city":"Albuquerque","address":"7901 Zuni Road Southeast","zip":"87108","phone":"","email":"","website":"","hours":"","brand":"","services":["inspection"],"shopType":"general_repair"},{"id":"shop-nm-albuquerque-gene-s-service-center","name":"Gene's Service Center","slug":"nm-albuquerque-gene-s-service-center","lat":35.0953361,"lng":-106.6045964,"state":"NM","city":"Albuquerque","address":"1401 Carlisle Boulevard Northeast","zip":"87110","phone":"","email":"","website":"https://www.genesservicecenter.com","hours":"","brand":"","services":["general_repair"],"shopType":"general_repair"},{"id":"shop-nm-santa-fe-automotive-resources","name":"Automotive Resources","slug":"nm-santa-fe-automotive-resources","lat":35.6890805,"lng":-105.956786,"state":"NM","city":"Santa Fe","address":"991 West Alameda Street","zip":"87501","phone":"","email":"","website":"","hours":"","brand":"","services":["alignment","brakes"],"shopType":"general_repair"},{"id":"shop-nm-santa-fe-the-auto-angel","name":"The Auto Angel","slug":"nm-santa-fe-the-auto-angel","lat":35.6527997,"lng":-105.9949016,"state":"NM","city":"Santa Fe","address":"3140 Cerrillos Road","zip":"87507","phone":"","email":"","website":"","hours":"","brand":"","services":["inspection","alignment","tires","brakes","transmission"],"shopType":"general_repair"},{"id":"shop-nm-santa-fe-oldrich-garage","name":"Oldrich Garage","slug":"nm-santa-fe-oldrich-garage","lat":35.6612628,"lng":-105.992706,"state":"NM","city":"Santa Fe","address":"Trades West Road","zip":"87507","phone":"","email":"","website":"","hours":"","brand":"","services":["general_repair"],"shopType":"general_repair"},{"id":"shop-nm-santa-fe-jiffy-lube-2","name":"Jiffy Lube","slug":"nm-santa-fe-jiffy-lube-2","lat":35.6532824,"lng":-105.9958056,"state":"NM","city":"Santa Fe","address":"3143 Cerrillos Road","zip":"","phone":"","email":"","website":"","hours":"","brand":"Jiffy Lube","services":["oil_change"],"shopType":"quick_lube"},{"id":"shop-nm-albuquerque-rio-grande-automotive","name":"Rio Grande Automotive","slug":"nm-albuquerque-rio-grande-automotive","lat":35.1303255,"lng":-106.6415179,"state":"NM","city":"Albuquerque","address":"301 Griegos Road Northwest","zip":"87107","phone":"","email":"","website":"","hours":"","brand":"","services":["general_repair"],"shopType":"general_repair"},{"id":"shop-nm-albuquerque-duke-city-dent","name":"Duke City Dent","slug":"nm-albuquerque-duke-city-dent","lat":35.0919067,"lng":-106.5867543,"state":"NM","city":"Albuquerque","address":"1417 San Mateo Boulevard Northeast","zip":"87110-6429","phone":"+1-505-730-3368","email":"","website":"https://dukecitydent.com","hours":"","brand":"","services":["general_repair"],"shopType":"general_repair"},{"id":"shop-nm-albuquerque-alder-sons-automotive","name":"Alder Sons Automotive","slug":"nm-albuquerque-alder-sons-automotive","lat":35.0917751,"lng":-106.5864874,"state":"NM","city":"Albuquerque","address":"1413 San Mateo Boulevard Northeast","zip":"87110-6429","phone":"+1-505-265-5999","email":"","website":"https://www.facebook.com/AlderSonsAutomotive","hours":"","brand":"","services":["general_repair"],"shopType":"general_repair"},{"id":"shop-nm-albuquerque-jiffy-lube","name":"Jiffy Lube","slug":"nm-albuquerque-jiffy-lube","lat":35.0895644,"lng":-106.5865594,"state":"NM","city":"Albuquerque","address":"1201 San Mateo Boulevard Northeast","zip":"87110-6427","phone":"","email":"","website":"https://www.myjiffy.com","hours":"","brand":"Jiffy Lube","services":["oil_change"],"shopType":"quick_lube"},{"id":"shop-nm-albuquerque-billy-s-san-mateo-automotive","name":"Billy's San Mateo Automotive","slug":"nm-albuquerque-billy-s-san-mateo-automotive","lat":35.0885574,"lng":-106.5867069,"state":"NM","city":"Albuquerque","address":"1109 San Mateo Boulevard Northeast","zip":"87110-6425","phone":"","email":"","website":"","hours":"","brand":"","services":["general_repair"],"shopType":"general_repair"},{"id":"shop-nm-albuquerque-peerless-tires","name":"Peerless Tires","slug":"nm-albuquerque-peerless-tires","lat":35.0761215,"lng":-106.532838,"state":"NM","city":"Albuquerque","address":"241 Eubank Boulevard Northeast","zip":"87123","phone":"+1-505-265-6405","email":"","website":"https://www.peerlesstyreco.com/peerless-tires-store-locations-eubank-albuquerque-new-mexico.php","hours":"","brand":"","services":["tires"],"shopType":"tire_shop"},{"id":"shop-nm-albuquerque-abc-auto-center","name":"ABC Auto Center","slug":"nm-albuquerque-abc-auto-center","lat":35.0776317,"lng":-106.6180253,"state":"NM","city":"Albuquerque","address":"2501 Stanford Drive Southeast","zip":"87106","phone":"","email":"","website":"","hours":"","brand":"","services":["general_repair"],"shopType":"general_repair"},{"id":"shop-nm-albuquerque-l-s-automotive-repair","name":"L&S Automotive Repair","slug":"nm-albuquerque-l-s-automotive-repair","lat":35.0876772,"lng":-106.591119,"state":"NM","city":"Albuquerque","address":"4815 Lomas Boulevard Northeast","zip":"87110-6337","phone":"","email":"","website":"","hours":"Mo-Fr 08:00-17:30","brand":"","services":["general_repair"],"shopType":"general_repair"},{"id":"shop-nm-farmington-a-to-z-the-tire-lady-inc","name":"A to Z The Tire Lady, Inc.","slug":"nm-farmington-a-to-z-the-tire-lady-inc","lat":36.7373506,"lng":-108.1793662,"state":"NM","city":"Farmington","address":"2100 San Juan Blvd","zip":"87401","phone":"+1-505-327-4406","email":"","website":"https://atozthetirelady.com","hours":"Mo-Fr 07:00-17:00; Sa 08:00-12:00","brand":"","services":["tires"],"shopType":"tire_shop"},{"id":"shop-nm-truth-or-consequences-hasty-s-automotive","name":"Hasty's Automotive","slug":"nm-truth-or-consequences-hasty-s-automotive","lat":33.1220255,"lng":-107.2759402,"state":"NM","city":"Truth or Consequences","address":"2007 South Broadway Street","zip":"87901","phone":"+1-575-894-7387","email":"","website":"","hours":"","brand":"","services":["general_repair"],"shopType":"general_repair"},{"id":"shop-nm-questa-j-l-powersports","name":"J&L Powersports","slug":"nm-questa-j-l-powersports","lat":36.703013,"lng":-105.5959125,"state":"NM","city":"Questa","address":"2431 NM 522","zip":"","phone":"+1- 575-586-2417","email":"Jlpowersports21@gmail.com","website":"","hours":"Tu-Th 09:00-17:00; Fr,Sa 09:00-18:00","brand":"","services":["general_repair"],"shopType":"general_repair"},{"id":"shop-nm-albuquerque-a-c-pro-wheels-n-tires","name":"A&C Pro Wheels N Tires","slug":"nm-albuquerque-a-c-pro-wheels-n-tires","lat":35.0760553,"lng":-106.5716242,"state":"NM","city":"Albuquerque","address":"6818 Central Avenue Southeast","zip":"87108","phone":"+1-602-737-5946","email":"Alexlazos1996@gmail.com","website":"","hours":"Mo-Sa 09:00-18:00","brand":"","services":["tires"],"shopType":"tire_shop"},{"id":"shop-nm-albuquerque-tint-pros-platinum-auto-wraps","name":"Tint Pros / Platinum Auto Wraps","slug":"nm-albuquerque-tint-pros-platinum-auto-wraps","lat":35.0747744,"lng":-106.5612211,"state":"NM","city":"Albuquerque","address":"7703 Central Avenue Northeast","zip":"87108","phone":"+1-763-312-6137","email":"sotocrjpittman58@gmail.com","website":"","hours":"Mo-Fr 08:00-17:00; Sa 09:00-12:00","brand":"","services":["general_repair"],"shopType":"general_repair"},{"id":"shop-nm-south-valley-quality-lube-llc","name":"Quality Lube LLC","slug":"nm-south-valley-quality-lube-llc","lat":35.0172136,"lng":-106.6847755,"state":"NM","city":"South Valley","address":"4019 Isleta Boulevard Southwest","zip":"87105","phone":"+1 505-877-2454","email":"Qualitylubellc@gmail.com","website":"https://qualitylubellc.business.site/","hours":"Mo off; Tu-Fr 08:30-17:00; Sa 08:30-14:00; Su off","brand":"","services":["oil_change"],"shopType":"quick_lube"},{"id":"shop-nm-albuquerque-sparkling-mobile-detailing","name":"Sparkling Mobile Detailing","slug":"nm-albuquerque-sparkling-mobile-detailing","lat":35.1473802,"lng":-106.5290577,"state":"NM","city":"Albuquerque","address":"5801 Eubank Blvd NE","zip":"87111","phone":"+1-505-550-6435","email":"","website":"https://sparklingmobiledetailing.com","hours":"Mo 06:30-20:00,Tu-Sa 06:00-20:00,Su 08:00-19:00","brand":"","services":["general_repair"],"shopType":"general_repair"},{"id":"shop-nm-lordsburg-caballo-emergency-truck-repair-towing","name":"Caballo Emergency Truck Repair & Towing","slug":"nm-lordsburg-caballo-emergency-truck-repair-towing","lat":32.3348115,"lng":-108.718087,"state":"NM","city":"Lordsburg","address":"2316 Main Street","zip":"88045","phone":"+1-575-343-5401","email":"","website":"https://caballoemergencytruckrepairtowing.com","hours":"Mo-Fr 08:00-17:00; Sa 09:00-15:00","brand":"","services":["general_repair"],"shopType":"general_repair"},{"id":"shop-nm-roswell-honest-1-collision-center","name":"Honest 1 Collision Center","slug":"nm-roswell-honest-1-collision-center","lat":33.38467,"lng":-104.5053959,"state":"NM","city":"Roswell","address":"South Atkinson Avenue","zip":"88203","phone":"+1-575-623-9724","email":"","website":"https://honest1collisioncenter.com","hours":"Mo-Fr 08:00-17:00","brand":"","services":["body_work"],"shopType":"body_shop"},{"id":"shop-nm-espanola-garcia-s-lube-and-shine","name":"Garcia's Lube and Shine","slug":"nm-espanola-garcia-s-lube-and-shine","lat":36.0249416,"lng":-106.0644152,"state":"NM","city":"Espanola","address":"2208 North Riverside Drive","zip":"87532","phone":"","email":"","website":"","hours":"","brand":"","services":["oil_change"],"shopType":"quick_lube"},{"id":"shop-nm-las-cruces-jiffy-lube","name":"Jiffy Lube","slug":"nm-las-cruces-jiffy-lube","lat":32.301833,"lng":-106.777075,"state":"NM","city":"Las Cruces","address":"800 El Paseo Road","zip":"88001","phone":"+1 575-525-2808","email":"","website":"https://www.jiffylube.com/locations/nm/las-cruces/2943","hours":"Mo-Sa 08:00-18:00","brand":"Jiffy Lube","services":["oil_change"],"shopType":"quick_lube"},{"id":"shop-nm-las-cruces-splash-detailing","name":"Splash Detailing","slug":"nm-las-cruces-splash-detailing","lat":32.2847456,"lng":-106.7711551,"state":"NM","city":"Las Cruces","address":"2403 South Main Street","zip":"88005","phone":"+1-575-621-1380","email":"splashbyshawk@gmail.com","website":"https://splashdetail.com/","hours":"Tu-Sa 08:30-16:30","brand":"","services":["general_repair"],"shopType":"general_repair"},{"id":"shop-nm-sunland-park-interstate-towing-recovery","name":"Interstate Towing & Recovery","slug":"nm-sunland-park-interstate-towing-recovery","lat":31.7949707,"lng":-106.5573575,"state":"NM","city":"Sunland Park","address":"1155 McNutt Road","zip":"88063","phone":"+1-575-332-4043","email":"interstatetowingrecovery@gmail.com","website":"","hours":"Mo-Fr 09:00-17:00","brand":"","services":["general_repair"],"shopType":"general_repair"},{"id":"shop-nm-roswell-mta-mechanics-and-tires","name":"MTA Mechanics and Tires","slug":"nm-roswell-mta-mechanics-and-tires","lat":33.3874978,"lng":-104.5224923,"state":"NM","city":"Roswell","address":"601 South Main Street","zip":"88203-5758","phone":"+1-575-623-2090","email":"mtatirefactory@yahoo.com","website":"https://mta-roswell.com","hours":"Mo-Fr 07:00-17:00; Sa 08:00-12:00","brand":"","services":["alignment","transmission","brakes","tires"],"shopType":"general_repair"},{"id":"shop-nm-santa-fe-wicked-tints","name":"Wicked Tints","slug":"nm-santa-fe-wicked-tints","lat":35.5958144,"lng":-106.0821988,"state":"NM","city":"Santa Fe","address":"103 Los Pinos Road","zip":"87507","phone":"+1-505-913-9313","email":"wickedtints@icloud.com","website":"","hours":"Mo-Fr 09:00-17:00","brand":"","services":["general_repair"],"shopType":"general_repair"},{"id":"shop-nm-unknown-speedy-glass","name":"Speedy Glass","slug":"nm-unknown-speedy-glass","lat":32.2961552,"lng":-106.7712207,"state":"NM","city":"","address":"455 East Foster Road","zip":"88001","phone":"+1-575-526-9571","email":"","website":"https://www.speedyglass.com/","hours":"","brand":"","services":["general_repair"],"shopType":"general_repair"},{"id":"shop-nm-unknown-big-o-tires","name":"Big O Tires","slug":"nm-unknown-big-o-tires","lat":32.2962524,"lng":-106.7706878,"state":"NM","city":"","address":"1330 El Paseo Road","zip":"88001","phone":"+1-575-524-3548","email":"","website":"http://bigotireslascruces.com/","hours":"Mo-Fr 07:00-19:00; Sa 07:00-18:00; Su 10:00-15:00","brand":"Big O Tires","services":["tires"],"shopType":"tire_shop"},{"id":"shop-nm-las-cruces-pep-boys","name":"Pep Boys","slug":"nm-las-cruces-pep-boys","lat":32.3091271,"lng":-106.7657296,"state":"NM","city":"Las Cruces","address":"1203 East Lohman Avenue","zip":"88001","phone":"","email":"","website":"","hours":"","brand":"Pep Boys","services":["general_repair"],"shopType":"general_repair"},{"id":"shop-nm-unknown-martin-tire","name":"Martin Tire","slug":"nm-unknown-martin-tire","lat":32.3100364,"lng":-106.7662505,"state":"NM","city":"","address":"1271 East Amador Avenue","zip":"88001","phone":"+1-575-527-2360","email":"","website":"https://martintire.com/","hours":"","brand":"","services":["tires"],"shopType":"tire_shop"},{"id":"shop-nm-unknown-baird-s-auto","name":"Baird's Auto","slug":"nm-unknown-baird-s-auto","lat":32.3410695,"lng":-106.7739035,"state":"NM","city":"","address":"2685 North Triviz Drive","zip":"","phone":"","email":"","website":"","hours":"","brand":"","services":["general_repair"],"shopType":"general_repair"},{"id":"shop-nm-unknown-german-japanese-auto-specialists","name":"German Japanese Auto Specialists","slug":"nm-unknown-german-japanese-auto-specialists","lat":32.3096585,"lng":-106.7962484,"state":"NM","city":"","address":"505 North Valley Drive","zip":"88005","phone":"+1-575-525-2325","email":"","website":"http://www.germanjapaneseauto.com/","hours":"Mo-Fr 08:00-17:00","brand":"","services":["general_repair"],"shopType":"general_repair"},{"id":"shop-nm-unknown-h-b-body-shop","name":"H&B Body Shop","slug":"nm-unknown-h-b-body-shop","lat":32.3102662,"lng":-106.7954644,"state":"NM","city":"","address":"525 North Valley Drive","zip":"88005","phone":"+1-575-524-3071","email":"","website":"","hours":"Mo-Fr 08:00-17:30","brand":"","services":["body_work"],"shopType":"body_shop"},{"id":"shop-nm-unknown-d-d-automotive","name":"D&D Automotive","slug":"nm-unknown-d-d-automotive","lat":32.3100075,"lng":-106.7954402,"state":"NM","city":"","address":"521 North Valley Drive","zip":"88005","phone":"+1-575-524-4006","email":"","website":"","hours":"","brand":"","services":["general_repair"],"shopType":"general_repair"},{"id":"shop-nm-unknown-lozano-tire-muffler","name":"Lozano Tire & Muffler","slug":"nm-unknown-lozano-tire-muffler","lat":32.2714981,"lng":-106.7636796,"state":"NM","city":"","address":"3701 South Main Street","zip":"88047","phone":"+1-575-541-9360","email":"","website":"","hours":"","brand":"","services":["exhaust","tires"],"shopType":"general_repair"},{"id":"shop-nm-quemado-j-and-y-auto-service","name":"J and Y Auto Service","slug":"nm-quemado-j-and-y-auto-service","lat":34.3444858,"lng":-108.5000108,"state":"NM","city":"Quemado","address":"3427 W Highway 60","zip":"87829","phone":"","email":"","website":"https://www.jandyauto.com/","hours":"","brand":"","services":["diesel"],"shopType":"general_repair"},{"id":"shop-nm-unknown-las-cruces-expert-tire","name":"Las Cruces Expert Tire","slug":"nm-unknown-las-cruces-expert-tire","lat":32.3075603,"lng":-106.7776959,"state":"NM","city":"","address":"311 South Main Street","zip":"88001","phone":"+1-575-524-1994","email":"","website":"","hours":"","brand":"","services":["tires"],"shopType":"tire_shop"},{"id":"shop-nm-los-alamos-immaculate-auto-total-car-care","name":"Immaculate Auto Total Car Care","slug":"nm-los-alamos-immaculate-auto-total-car-care","lat":35.8795301,"lng":-106.2920039,"state":"NM","city":"Los Alamos","address":"99 DP Road","zip":"87544","phone":"","email":"","website":"","hours":"","brand":"","services":["general_repair"],"shopType":"general_repair"},{"id":"shop-nm-albuquerque-no-worries-complete-auto-ac-service","name":"No Worries Complete Auto & AC Service","slug":"nm-albuquerque-no-worries-complete-auto-ac-service","lat":35.0876904,"lng":-106.5948714,"state":"NM","city":"Albuquerque","address":"4505 Lomas Boulevard Northeast","zip":"87110-6229","phone":"","email":"","website":"https://www.facebook.com/NoWorriesAutoRepair/","hours":"","brand":"","services":["general_repair"],"shopType":"general_repair"},{"id":"shop-nm-santa-fe-discount-tire","name":"Discount Tire","slug":"nm-santa-fe-discount-tire","lat":35.6338212,"lng":-106.0195239,"state":"NM","city":"Santa Fe","address":"4316 Cerrillos Road","zip":"87507","phone":"+1-505-473-9216","email":"","website":"","hours":"","brand":"Discount Tire","services":["tires"],"shopType":"tire_shop"},{"id":"shop-nm-unknown-j-j-muffler-shop","name":"J&J Muffler Shop","slug":"nm-unknown-j-j-muffler-shop","lat":32.2869821,"lng":-106.779084,"state":"NM","city":"","address":"1865 South Valley Drive","zip":"88005","phone":"+1-575-526-4068","email":"","website":"","hours":"","brand":"","services":["exhaust"],"shopType":"general_repair"},{"id":"shop-nm-los-lunas-discount-tire","name":"Discount Tire","slug":"nm-los-lunas-discount-tire","lat":34.8139647,"lng":-106.7629259,"state":"NM","city":"Los Lunas","address":"2252 Sun Ranch Loop","zip":"87031","phone":"","email":"","website":"","hours":"","brand":"Discount Tire","services":["tires"],"shopType":"tire_shop"},{"id":"shop-nm-albuquerque-pep-boys","name":"Pep Boys","slug":"nm-albuquerque-pep-boys","lat":35.0769083,"lng":-106.5834496,"state":"NM","city":"Albuquerque","address":"5600 Central Avenue Southeast","zip":"87108-1604","phone":"","email":"","website":"","hours":"","brand":"Pep Boys","services":["general_repair"],"shopType":"general_repair"},{"id":"shop-nm-alamogordo-discount-tire","name":"Discount Tire","slug":"nm-alamogordo-discount-tire","lat":32.8897117,"lng":-105.9561035,"state":"NM","city":"Alamogordo","address":"506 1st Street","zip":"88310","phone":"+1-575-812-7000","email":"","website":"http://www.discounttire.com/","hours":"Mo-Fr 08:00-18:00; Sa 08:00-17:00","brand":"Discount Tire","services":["tires"],"shopType":"tire_shop"},{"id":"shop-nm-unknown-western-auto","name":"Western Auto","slug":"nm-unknown-western-auto","lat":32.898047,"lng":-105.9572097,"state":"NM","city":"","address":"412 East 9th Street","zip":"","phone":"","email":"","website":"","hours":"","brand":"","services":["general_repair"],"shopType":"general_repair"},{"id":"shop-nm-unknown-duke-city-auto-body","name":"Duke City Auto Body","slug":"nm-unknown-duke-city-auto-body","lat":35.0741826,"lng":-106.6216533,"state":"NM","city":"","address":"418 Yale Boulevard Southeast","zip":"","phone":"","email":"","website":"","hours":"","brand":"","services":["body_work"],"shopType":"body_shop"},{"id":"shop-nm-alamogordo-master-tune-and-lube","name":"Master Tune and Lube","slug":"nm-alamogordo-master-tune-and-lube","lat":32.9210935,"lng":-105.9601505,"state":"NM","city":"Alamogordo","address":"2508 North White Sands Boulevard","zip":"88310","phone":"","email":"","website":"","hours":"","brand":"","services":["oil_change"],"shopType":"quick_lube"},{"id":"shop-nm-albuquerque-hans-wittler-s-automotive","name":"Hans Wittler's Automotive","slug":"nm-albuquerque-hans-wittler-s-automotive","lat":35.0723763,"lng":-106.5251218,"state":"NM","city":"Albuquerque","address":"121 Elizabeth Street Northeast","zip":"87123","phone":"+1 505 2947684","email":"","website":"https://hanswittlerauto.com/","hours":"","brand":"Porsche;Audi;BMW;Mercedes-Benz;Volkswagen","services":["general_repair"],"shopType":"general_repair"},{"id":"shop-nm-albuquerque-gibson-s-auto-body-shop","name":"Gibson's Auto Body Shop","slug":"nm-albuquerque-gibson-s-auto-body-shop","lat":35.0705604,"lng":-106.5229474,"state":"NM","city":"Albuquerque","address":"11120 Central Avenue","zip":"87123","phone":"+1 505 2984200","email":"","website":"","hours":"","brand":"","services":["body_work"],"shopType":"body_shop"},{"id":"shop-nm-albuquerque-wyoming-service-center","name":"Wyoming Service Center","slug":"nm-albuquerque-wyoming-service-center","lat":35.1167391,"lng":-106.5513802,"state":"NM","city":"Albuquerque","address":"2701 Wyoming Boulevard Northeast","zip":"","phone":"+1 505 2946723","email":"","website":"","hours":"","brand":"","services":["general_repair"],"shopType":"general_repair"},{"id":"shop-nm-santa-rosa-big-rig-truck-service-inc","name":"Big Rig Truck Service, Inc.","slug":"nm-santa-rosa-big-rig-truck-service-inc","lat":34.9431536,"lng":-104.6388138,"state":"NM","city":"Santa Rosa","address":"2660 South US Highway 84","zip":"88435","phone":"","email":"","website":"","hours":"","brand":"","services":["general_repair"],"shopType":"general_repair"},{"id":"shop-nm-albuquerque-danlar-collision","name":"Danlar Collision","slug":"nm-albuquerque-danlar-collision","lat":35.0669346,"lng":-106.5038563,"state":"NM","city":"Albuquerque","address":"221 Dorado Place Southeast","zip":"87123","phone":"+1 505 2370181","email":"","website":"http://www.danlar.com/Collision.aspx","hours":"","brand":"","services":["body_work"],"shopType":"body_shop"},{"id":"shop-nm-roswell-powell-tire","name":"Powell Tire","slug":"nm-roswell-powell-tire","lat":33.366254,"lng":-104.5131316,"state":"NM","city":"Roswell","address":"2007 Southeast Main Street","zip":"88203","phone":"","email":"","website":"","hours":"","brand":"","services":["tires"],"shopType":"tire_shop"},{"id":"shop-nm-unknown-leonard-tire-and-automotive-repair","name":"Leonard Tire and Automotive Repair","slug":"nm-unknown-leonard-tire-and-automotive-repair","lat":35.0912928,"lng":-106.6482385,"state":"NM","city":"","address":"201 Lomas Boulevard Northwest","zip":"","phone":"","email":"","website":"","hours":"","brand":"","services":["tires"],"shopType":"tire_shop"},{"id":"shop-nm-albuquerque-baker-s-automotive-transmission","name":"Baker's Automotive & Transmission","slug":"nm-albuquerque-baker-s-automotive-transmission","lat":35.1159599,"lng":-106.5241426,"state":"NM","city":"Albuquerque","address":"10400 Candelaria Road Northeast","zip":"87112","phone":"+1-505-296-4117","email":"","website":"http://bakersautotruck.com","hours":"Mo-Fr 07:30-18:00, Sa 09:00-15:00; Su off","brand":"","services":["transmission"],"shopType":"transmission_shop"},{"id":"shop-nm-santa-fe-valdes-paint-glass","name":"Valdes Paint & Glass","slug":"nm-santa-fe-valdes-paint-glass","lat":35.6755685,"lng":-105.9516631,"state":"NM","city":"Santa Fe","address":"1006 Marquez Place","zip":"87505","phone":"","email":"","website":"","hours":"","brand":"","services":["body_work"],"shopType":"body_shop"},{"id":"shop-nm-santa-fe-the-new-old-trail-garage-auto-service","name":"The New Old Trail Garage Auto Service","slug":"nm-santa-fe-the-new-old-trail-garage-auto-service","lat":35.6798659,"lng":-105.9379497,"state":"NM","city":"Santa Fe","address":"600 Old Santa Fe Trail","zip":"87505","phone":"","email":"","website":"","hours":"","brand":"","services":["general_repair"],"shopType":"general_repair"},{"id":"shop-nm-cimarron-george-s-auto-diesel-welding","name":"George's Auto Diesel & Welding","slug":"nm-cimarron-george-s-auto-diesel-welding","lat":36.5097989,"lng":-104.908514,"state":"NM","city":"Cimarron","address":"1 State Road 58","zip":"87714","phone":"","email":"","website":"","hours":"","brand":"","services":["diesel"],"shopType":"general_repair"},{"id":"shop-nm-unknown-precision-transmissions","name":"Precision Transmissions","slug":"nm-unknown-precision-transmissions","lat":35.6590489,"lng":-105.9642027,"state":"NM","city":"","address":"854 Saint Michaels Drive","zip":"","phone":"","email":"","website":"","hours":"","brand":"","services":["transmission"],"shopType":"transmission_shop"},{"id":"shop-nm-santa-fe-early-iron-hot-rods","name":"Early Iron Hot Rods","slug":"nm-santa-fe-early-iron-hot-rods","lat":35.6662921,"lng":-105.9594707,"state":"NM","city":"Santa Fe","address":"837 Camino de Monte Rey","zip":"87505","phone":"+1-505-310-3224","email":"","website":"","hours":"Mo-Fr 08:00-17:00","brand":"","services":["general_repair"],"shopType":"general_repair"},{"id":"shop-nm-santa-fe-cutting-edge-automotive","name":"Cutting Edge Automotive","slug":"nm-santa-fe-cutting-edge-automotive","lat":35.6662696,"lng":-105.9584718,"state":"NM","city":"Santa Fe","address":"827 Camino de Monte Rey","zip":"87505","phone":"+1-505-983-7636","email":"","website":"https://cuttingedge505.com/","hours":"Mo-Th 07:00-18:00","brand":"Audi;BMW;Mercedes-Benz;Porsche;Volvo","services":["general_repair"],"shopType":"general_repair"},{"id":"shop-nm-santa-fe-crash-champions","name":"Crash Champions","slug":"nm-santa-fe-crash-champions","lat":35.5998222,"lng":-106.0412883,"state":"NM","city":"Santa Fe","address":"14 Finish Line Drive","zip":"87508","phone":"","email":"","website":"","hours":"","brand":"Crash Champions","services":["body_work"],"shopType":"body_shop"},{"id":"shop-nm-santa-fe-jiffy-lube-3","name":"Jiffy Lube","slug":"nm-santa-fe-jiffy-lube-3","lat":35.6629707,"lng":-105.9770438,"state":"NM","city":"Santa Fe","address":"1975 Cerrillos Road","zip":"87505-3382","phone":"+1-505-982-5814","email":"","website":"https://www.jiffylube.com/locations/nm/santa-fe/1285","hours":"","brand":"Jiffy Lube","services":["oil_change","inspection"],"shopType":"quick_lube"},{"id":"shop-nm-unknown-amigo-tire-and-auto","name":"Amigo Tire and Auto","slug":"nm-unknown-amigo-tire-and-auto","lat":35.6642825,"lng":-105.9746294,"state":"NM","city":"","address":"1901 Cerrillos Road","zip":"","phone":"","email":"","website":"","hours":"","brand":"","services":["tires"],"shopType":"tire_shop"},{"id":"shop-nm-santa-fe-automotive-professionals","name":"Automotive Professionals","slug":"nm-santa-fe-automotive-professionals","lat":35.6386343,"lng":-106.0207501,"state":"NM","city":"Santa Fe","address":"4230 Airport Road","zip":"87507","phone":"","email":"","website":"","hours":"","brand":"","services":["general_repair"],"shopType":"general_repair"},{"id":"shop-nm-albuquerque-brake-masters-108","name":"Brake Masters #108","slug":"nm-albuquerque-brake-masters-108","lat":35.0922531,"lng":-106.5147823,"state":"NM","city":"Albuquerque","address":"1200 Juan Tabo Boulevard Northeast","zip":"87112","phone":"","email":"","website":"","hours":"","brand":"","services":["brakes"],"shopType":"general_repair"},{"id":"shop-nm-albuquerque-firestone","name":"Firestone","slug":"nm-albuquerque-firestone","lat":35.1749502,"lng":-106.5628919,"state":"NM","city":"Albuquerque","address":"7401 Paseo del Norte Boulevard Northeast","zip":"87113","phone":"+1 505-274-7343","email":"","website":"https://local.firestonecompleteautocare.com/new-mexico/albuquerque/7401-paseo-del-norte-ne","hours":"Mo-Sa 07:00-18:00, Su 09:00-17:00","brand":"Firestone","services":["tires"],"shopType":"general_repair"},{"id":"shop-nm-farmington-d-l-repair","name":"D&L Repair","slug":"nm-farmington-d-l-repair","lat":36.7183091,"lng":-108.1473681,"state":"NM","city":"Farmington","address":"5426 Bloomfield Highway","zip":"87401","phone":"+1-505-325-7124","email":"","website":"","hours":"","brand":"","services":["general_repair"],"shopType":"general_repair"},{"id":"shop-nm-truth-or-consequences-jet-son","name":"Jet Son","slug":"nm-truth-or-consequences-jet-son","lat":33.1377891,"lng":-107.2508895,"state":"NM","city":"Truth or Consequences","address":"712 North Date Street","zip":"87901","phone":"+1-575-894-4041","email":"","website":"","hours":"","brand":"","services":["general_repair"],"shopType":"general_repair"},{"id":"shop-nm-farmington-discount-tire","name":"Discount Tire","slug":"nm-farmington-discount-tire","lat":36.7491894,"lng":-108.1611837,"state":"NM","city":"Farmington","address":"3340 East Main Street","zip":"87402","phone":"+1-505-326-5216","email":"","website":"https://www.discounttire.com/store/nm/farmington/s/1650","hours":"Mo-Fr 08:00-18:00; Sa 08:00-17:00; Su Closed","brand":"Discount Tire","services":["tires"],"shopType":"tire_shop"},{"id":"shop-nm-los-lunas-my-lub-center","name":"My Lub Center","slug":"nm-los-lunas-my-lub-center","lat":34.8139858,"lng":-106.7517602,"state":"NM","city":"Los Lunas","address":"1505 Main Street Northwest","zip":"87031","phone":"","email":"","website":"","hours":"","brand":"","services":["general_repair"],"shopType":"general_repair"},{"id":"shop-nm-los-lunas-daves-motorcycle","name":"Daves Motorcycle","slug":"nm-los-lunas-daves-motorcycle","lat":34.7714091,"lng":-106.714005,"state":"NM","city":"Los Lunas","address":"3161 Highway 47","zip":"87031","phone":"","email":"","website":"","hours":"","brand":"","services":["general_repair"],"shopType":"general_repair"},{"id":"shop-nm-los-lunas-roger-s","name":"Roger's","slug":"nm-los-lunas-roger-s","lat":34.770834,"lng":-106.7149149,"state":"NM","city":"Los Lunas","address":"3147 Highway 47","zip":"87031","phone":"","email":"","website":"","hours":"","brand":"","services":["general_repair"],"shopType":"general_repair"},{"id":"shop-nm-albuquerque-brake-masters","name":"Brake Masters","slug":"nm-albuquerque-brake-masters","lat":35.1088615,"lng":-106.5512207,"state":"NM","city":"Albuquerque","address":"2247 Wyoming Boulevard Northeast","zip":"87112","phone":"","email":"","website":"","hours":"Mo-Sa 07:30-17:30; Su off","brand":"","services":["brakes"],"shopType":"general_repair"},{"id":"shop-nm-farmington-delta-tire","name":"Delta Tire","slug":"nm-farmington-delta-tire","lat":36.7661811,"lng":-108.1508247,"state":"NM","city":"Farmington","address":"4650 East Main Street","zip":"87402","phone":"","email":"","website":"","hours":"","brand":"","services":["tires"],"shopType":"tire_shop"},{"id":"shop-nm-farmington-treadworks","name":"Treadworks","slug":"nm-farmington-treadworks","lat":36.7599205,"lng":-108.1551533,"state":"NM","city":"Farmington","address":"4227 East Main Street","zip":"87402","phone":"+1-505-327-0286","email":"","website":"https://www.treadworks.com","hours":"Mo-Fr 08:00-18:00, sa 08:00-17:00","brand":"","services":["tires"],"shopType":"general_repair"},{"id":"shop-nm-santa-fe-brake-masters","name":"Brake Masters","slug":"nm-santa-fe-brake-masters","lat":35.680926,"lng":-105.9474004,"state":"NM","city":"Santa Fe","address":"634 Cerrillos Road","zip":"87505","phone":"+1 505 988 7500","email":"","website":"https://brakemasters.com/stores/store-125","hours":"","brand":"Brake Masters","services":["brakes"],"shopType":"general_repair"},{"id":"shop-nm-albuquerque-jiffy-lube-2","name":"Jiffy Lube","slug":"nm-albuquerque-jiffy-lube-2","lat":35.1749597,"lng":-106.5678839,"state":"NM","city":"Albuquerque","address":"8120 Louisiana Boulevard Northeast","zip":"87113","phone":"+1-505-856-5350","email":"","website":"https://www.myjiffy.com/","hours":"Mo-Sa 08:00-18:00; Su off","brand":"Jiffy Lube","services":["oil_change"],"shopType":"quick_lube"},{"id":"shop-nm-farmington-al-s-service","name":"Al's Service","slug":"nm-farmington-al-s-service","lat":36.7485661,"lng":-108.182462,"state":"NM","city":"Farmington","address":"1820 East 20th Street","zip":"87401","phone":"","email":"","website":"","hours":"","brand":"","services":["general_repair"],"shopType":"general_repair"},{"id":"shop-nm-farmington-off-again-4x4-service-repair","name":"OFF AGAIN 4X4 SERVICE & REPAIR","slug":"nm-farmington-off-again-4x4-service-repair","lat":36.7197275,"lng":-108.2000015,"state":"NM","city":"Farmington","address":"","zip":"87401","phone":"","email":"","website":"","hours":"","brand":"","services":["general_repair"],"shopType":"general_repair"},{"id":"shop-nm-mountainair-t-c-auto-repair","name":"T & C Auto Repair","slug":"nm-mountainair-t-c-auto-repair","lat":34.5206875,"lng":-106.2435701,"state":"NM","city":"Mountainair","address":"201 West Broadway","zip":"87036","phone":"","email":"","website":"","hours":"","brand":"","services":["general_repair"],"shopType":"general_repair"},{"id":"shop-nm-farmington-safelite-autoglass","name":"Safelite AutoGlass","slug":"nm-farmington-safelite-autoglass","lat":36.7478351,"lng":-108.1847164,"state":"NM","city":"Farmington","address":"1795 East 20th Street","zip":"87401","phone":"","email":"","website":"","hours":"","brand":"Safelite","services":["general_repair"],"shopType":"general_repair"},{"id":"shop-nm-truth-or-consequences-the-windshield-doctor","name":"The Windshield Doctor","slug":"nm-truth-or-consequences-the-windshield-doctor","lat":33.1347504,"lng":-107.2508836,"state":"NM","city":"Truth or Consequences","address":"412 North Date Street","zip":"87901","phone":"","email":"","website":"","hours":"","brand":"","services":["general_repair"],"shopType":"general_repair"},{"id":"shop-nm-truth-or-consequences-schaaf-automotive","name":"Schaaf Automotive","slug":"nm-truth-or-consequences-schaaf-automotive","lat":33.1299939,"lng":-107.2509027,"state":"NM","city":"Truth or Consequences","address":"100 North Date Street","zip":"87901","phone":"","email":"","website":"","hours":"","brand":"","services":["body_work"],"shopType":"body_shop"},{"id":"shop-nm-aztec-big-o-tires","name":"Big O Tires","slug":"nm-aztec-big-o-tires","lat":36.8273103,"lng":-108.013764,"state":"NM","city":"Aztec","address":"1549 West Aztec Boulevard","zip":"87410","phone":"+1 505-386-1255","email":"store031078@bigostores.com","website":"https://www.bigotires.com/location/nm/aztec/1549-w-aztec-blvd-87410/031078","hours":"Mo-Sa 7:30-18:00;Su Closed","brand":"Big O Tires","services":["tires"],"shopType":"tire_shop"},{"id":"shop-nm-unknown-jiffy-lube","name":"Jiffy Lube","slug":"nm-unknown-jiffy-lube","lat":35.1094877,"lng":-106.5511769,"state":"NM","city":"","address":"2301 Menaul Boulevard Northeast","zip":"","phone":"","email":"","website":"","hours":"","brand":"Jiffy Lube","services":["oil_change"],"shopType":"quick_lube"},{"id":"shop-nm-roswell-triple-d-automotive","name":"Triple D Automotive","slug":"nm-roswell-triple-d-automotive","lat":33.3785856,"lng":-104.520991,"state":"NM","city":"Roswell","address":"116 East Forest Street","zip":"88203","phone":"","email":"","website":"","hours":"","brand":"","services":["general_repair"],"shopType":"general_repair"},{"id":"shop-nm-unknown-8-to-8-auto-care","name":"8 to 8 Auto Care","slug":"nm-unknown-8-to-8-auto-care","lat":35.0051801,"lng":-106.0481279,"state":"NM","city":"","address":"401 Central Avenue","zip":"","phone":"","email":"","website":"","hours":"","brand":"","services":["general_repair"],"shopType":"general_repair"},{"id":"shop-nm-farmington-devil-dog-auto-diesel-equipment-repair","name":"Devil Dog Auto & Diesel Equipment Repair","slug":"nm-farmington-devil-dog-auto-diesel-equipment-repair","lat":36.790289,"lng":-108.1022467,"state":"NM","city":"Farmington","address":"7975 E Main St","zip":"87402","phone":"+1-505-325-9277","email":"","website":"https://www.devildogauto.com/","hours":"Tu-Fr 07:00-18:00; Sa 07:00-15:00","brand":"","services":["diesel"],"shopType":"general_repair"},{"id":"shop-nm-unknown-auto-hobby-shop","name":"Auto Hobby Shop","slug":"nm-unknown-auto-hobby-shop","lat":35.0497867,"lng":-106.5571938,"state":"NM","city":"","address":"1680 Texas Street Southeast","zip":"","phone":"+1-505-846-1104","email":"","website":"","hours":"","brand":"","services":["general_repair"],"shopType":"general_repair"},{"id":"shop-nm-albuquerque-route-66-car-truck-auto-repair","name":"Route 66 Car & Truck Auto Repair","slug":"nm-albuquerque-route-66-car-truck-auto-repair","lat":35.0946997,"lng":-106.6779457,"state":"NM","city":"Albuquerque","address":"2501 New York Avenue Northwest","zip":"87104","phone":"","email":"","website":"","hours":"","brand":"","services":["brakes"],"shopType":"general_repair"},{"id":"shop-nm-albuquerque-car-crafters","name":"Car Crafters","slug":"nm-albuquerque-car-crafters","lat":35.1049521,"lng":-106.5472147,"state":"NM","city":"Albuquerque","address":"8591 Northeastern Boulevard Northeast","zip":"87112","phone":"","email":"","website":"","hours":"","brand":"","services":["general_repair"],"shopType":"general_repair"},{"id":"shop-nm-springer-lee-s-garage","name":"Lee's Garage","slug":"nm-springer-lee-s-garage","lat":36.3612745,"lng":-104.5964482,"state":"NM","city":"Springer","address":"810 4th Street","zip":"87747","phone":"","email":"","website":"","hours":"","brand":"","services":["general_repair"],"shopType":"general_repair"},{"id":"shop-nm-santa-fe-caliber-collision","name":"Caliber Collision","slug":"nm-santa-fe-caliber-collision","lat":35.6035587,"lng":-106.0402112,"state":"NM","city":"Santa Fe","address":"27726 West Frontage Road","zip":"87507","phone":"","email":"","website":"","hours":"","brand":"Caliber Collision","services":["body_work"],"shopType":"body_shop"},{"id":"shop-nm-white-rock-herman-s-auto-body","name":"Herman's Auto Body","slug":"nm-white-rock-herman-s-auto-body","lat":35.8270115,"lng":-106.206016,"state":"NM","city":"White Rock","address":"51 Rover Boulevard","zip":"87547","phone":"","email":"","website":"","hours":"","brand":"","services":["body_work"],"shopType":"body_shop"},{"id":"shop-nm-albuquerque-love-s-truck-care","name":"Love's Truck Care","slug":"nm-albuquerque-love-s-truck-care","lat":35.0648397,"lng":-106.7845843,"state":"NM","city":"Albuquerque","address":"12605 Central Avenue Northwest","zip":"87121","phone":"","email":"","website":"","hours":"","brand":"","services":["general_repair"],"shopType":"general_repair"},{"id":"shop-nm-albuquerque-car-er","name":"Car-ER","slug":"nm-albuquerque-car-er","lat":35.1890296,"lng":-106.6633995,"state":"NM","city":"Albuquerque","address":"9620 Eagle Ranch Road Northwest","zip":"87114","phone":"+1-505-792-1242","email":"","website":"https://car-er.net/","hours":"Mo-Fr 07:30-17:00","brand":"","services":["general_repair"],"shopType":"general_repair"},{"id":"shop-nm-rio-rancho-firestone","name":"Firestone","slug":"nm-rio-rancho-firestone","lat":35.2420712,"lng":-106.6942217,"state":"NM","city":"Rio Rancho","address":"2005 Southern Boulevard Southeast","zip":"87124","phone":"+1 505 903 6145","email":"","website":"https://local.firestonecompleteautocare.com/new-mexico/rio-rancho/2005-southern-blvd-se/","hours":"Mo-Sa 07:00-19:00; Su 09:00-17:00","brand":"Firestone","services":["general_repair"],"shopType":"general_repair"},{"id":"shop-nm-santa-fe-discount-tire-2","name":"Discount Tire","slug":"nm-santa-fe-discount-tire-2","lat":35.6706744,"lng":-105.9633767,"state":"NM","city":"Santa Fe","address":"1372 Cerrillos Road","zip":"","phone":"","email":"","website":"","hours":"","brand":"Discount Tire","services":["tires"],"shopType":"tire_shop"},{"id":"shop-nm-las-cruces-safelite-autoglass","name":"Safelite AutoGlass","slug":"nm-las-cruces-safelite-autoglass","lat":32.275452,"lng":-106.7659971,"state":"NM","city":"Las Cruces","address":"3311-3305 South Main Street","zip":"88005","phone":"","email":"","website":"https://www.safelite.com/stores/las-cruces?utm_source=google&utm_medium=list&utm_campaign=local","hours":"","brand":"Safelite","services":["general_repair"],"shopType":"general_repair"},{"id":"shop-nm-las-cruces-black-white","name":"Black & White","slug":"nm-las-cruces-black-white","lat":32.2740971,"lng":-106.7645014,"state":"NM","city":"Las Cruces","address":"172 Hollyhock","zip":"88005","phone":"+1-575-805-4563","email":"","website":"","hours":"","brand":"","services":["general_repair"],"shopType":"general_repair"},{"id":"shop-nm-las-cruces-affordable-auto-glass","name":"Affordable Auto Glass","slug":"nm-las-cruces-affordable-auto-glass","lat":32.2788012,"lng":-106.7694297,"state":"NM","city":"Las Cruces","address":"3001 Harrelson Street","zip":"88005","phone":"+15755278483","email":"","website":"","hours":"","brand":"","services":["general_repair"],"shopType":"general_repair"},{"id":"shop-nm-las-cruces-quality-window-tinting","name":"Quality Window Tinting","slug":"nm-las-cruces-quality-window-tinting","lat":32.27886,"lng":-106.7694673,"state":"NM","city":"Las Cruces","address":"3001 Harrelson Street","zip":"88005","phone":"","email":"","website":"","hours":"","brand":"","services":["general_repair"],"shopType":"general_repair"},{"id":"shop-nm-las-cruces-budget-auto-mecanic","name":"Budget Auto Mecanic","slug":"nm-las-cruces-budget-auto-mecanic","lat":32.2787129,"lng":-106.7693738,"state":"NM","city":"Las Cruces","address":"3001 Harrelson Street","zip":"88005","phone":"+1-575-649-1805","email":"","website":"","hours":"","brand":"","services":["general_repair"],"shopType":"general_repair"},{"id":"shop-nm-unknown-auto-hobby-shop-2","name":"Auto Hobby Shop","slug":"nm-unknown-auto-hobby-shop-2","lat":32.8427175,"lng":-106.082705,"state":"NM","city":"","address":"642 West Connecticut Avenue","zip":"","phone":"+1-575-572-7463","email":"","website":"","hours":"","brand":"","services":["general_repair"],"shopType":"general_repair"},{"id":"shop-nm-las-cruces-k-s-automotive-electric","name":"K & S Automotive Electric","slug":"nm-las-cruces-k-s-automotive-electric","lat":32.2593226,"lng":-106.7612956,"state":"NM","city":"Las Cruces","address":"301 Carver Road","zip":"88005","phone":"+15755246951","email":"","website":"","hours":"Mo-Fr 08:00-17:00","brand":"","services":["general_repair"],"shopType":"general_repair"},{"id":"shop-nm-edgewood-east-mountain-auto-rv-repair","name":"East Mountain Auto & RV Repair","slug":"nm-edgewood-east-mountain-auto-rv-repair","lat":35.0625014,"lng":-106.1959955,"state":"NM","city":"Edgewood","address":"1902 Old Route 66","zip":"87015-6745","phone":"+1-505-281-5953","email":"service@eastmountainauto.com","website":"https://eastmountainauto.com/","hours":"Mo-Fr 08:00-17:00","brand":"","services":["general_repair"],"shopType":"general_repair"},{"id":"shop-nm-edgewood-tony-s-service-center","name":"Tony's Service Center","slug":"nm-edgewood-tony-s-service-center","lat":35.0651749,"lng":-106.1918833,"state":"NM","city":"Edgewood","address":"25 NM-344","zip":"87015","phone":"","email":"","website":"","hours":"","brand":"","services":["general_repair"],"shopType":"general_repair"},{"id":"shop-nm-unknown-collision-pros","name":"Collision Pros","slug":"nm-unknown-collision-pros","lat":32.9202091,"lng":-105.954151,"state":"NM","city":"","address":"2409 North Florida Avenue","zip":"","phone":"","email":"","website":"","hours":"","brand":"","services":["body_work"],"shopType":"body_shop"},{"id":"shop-nm-hatch-cooper-tires","name":"Cooper Tires","slug":"nm-hatch-cooper-tires","lat":32.6657795,"lng":-107.151102,"state":"NM","city":"Hatch","address":"302 Hall Street","zip":"87937","phone":"","email":"","website":"","hours":"","brand":"","services":["tires"],"shopType":"tire_shop"},{"id":"shop-nm-hatch-cnc-tire-shop-24-hr-road-service","name":"CNC Tire Shop & 24 hr road service","slug":"nm-hatch-cnc-tire-shop-24-hr-road-service","lat":32.6653691,"lng":-107.1508338,"state":"NM","city":"Hatch","address":"320 Hall Street","zip":"87937","phone":"+15758054960","email":"","website":"","hours":"","brand":"","services":["tires"],"shopType":"tire_shop"},{"id":"shop-nm-hatch-mesilla-valley-tyre-hatch","name":"Mesilla Valley Tyre Hatch","slug":"nm-hatch-mesilla-valley-tyre-hatch","lat":32.665695,"lng":-107.1607934,"state":"NM","city":"Hatch","address":"700 New Mexico State Road 26","zip":"87937","phone":"+15752671000","email":"","website":"https://mesillavalleytire.com/","hours":"","brand":"","services":["tires"],"shopType":"tire_shop"},{"id":"shop-nm-hatch-hatch-tire-auto-service-24-hrs","name":"Hatch Tire & Auto Service. 24 hrs","slug":"nm-hatch-hatch-tire-auto-service-24-hrs","lat":32.6657102,"lng":-107.1559807,"state":"NM","city":"Hatch","address":"119 Jefferson Street","zip":"87937","phone":"+15756441221","email":"","website":"","hours":"","brand":"","services":["tires"],"shopType":"tire_shop"},{"id":"shop-nm-thoreau-herman-s-garage","name":"Herman's Garage","slug":"nm-thoreau-herman-s-garage","lat":35.3977564,"lng":-108.2262249,"state":"NM","city":"Thoreau","address":"519 State Highway 122","zip":"87323","phone":"","email":"","website":"","hours":"","brand":"","services":["general_repair"],"shopType":"general_repair"},{"id":"shop-nm-albuquerque-pj-s-express-emissions-testing","name":"PJ's Express Emissions Testing","slug":"nm-albuquerque-pj-s-express-emissions-testing","lat":35.1089274,"lng":-106.6046189,"state":"NM","city":"Albuquerque","address":"901 Eubank Blvd NE","zip":"87112","phone":"+1-505-292-9722","email":"","website":"https://pjsexpressemissionstesting.com","hours":"Mo-Fr 09:00-17:30; Sa 10:00-16:00","brand":"","services":["general_repair"],"shopType":"general_repair"},{"id":"shop-nm-bloomfield-bloomfield-super-lube","name":"Bloomfield Super Lube","slug":"nm-bloomfield-bloomfield-super-lube","lat":36.7116744,"lng":-107.9859134,"state":"NM","city":"Bloomfield","address":"524 West Broadway Avenue","zip":"87413","phone":"","email":"","website":"","hours":"","brand":"","services":["oil_change"],"shopType":"quick_lube"},{"id":"shop-nm-bloomfield-quality-auto","name":"Quality Auto","slug":"nm-bloomfield-quality-auto","lat":36.7107214,"lng":-108.0003031,"state":"NM","city":"Bloomfield","address":"1945 West Broadway Avenue","zip":"87413","phone":"","email":"","website":"","hours":"","brand":"","services":["general_repair"],"shopType":"general_repair"},{"id":"shop-nm-rio-rancho-discount-tire","name":"Discount Tire","slug":"nm-rio-rancho-discount-tire","lat":35.3317859,"lng":-106.5746713,"state":"NM","city":"Rio Rancho","address":"4450 Jager Drive Northeast","zip":"87144","phone":"","email":"","website":"","hours":"","brand":"Discount Tire","services":["tires"],"shopType":"tire_shop"},{"id":"shop-nm-deming-interstate-transmission","name":"Interstate Transmission","slug":"nm-deming-interstate-transmission","lat":32.2659888,"lng":-107.7704106,"state":"NM","city":"Deming","address":"1002 West Spruce Street","zip":"88030","phone":"","email":"","website":"","hours":"","brand":"","services":["transmission"],"shopType":"transmission_shop"},{"id":"shop-nm-deming-jimmy-s-rv-repair","name":"Jimmy's RV Repair","slug":"nm-deming-jimmy-s-rv-repair","lat":32.2757967,"lng":-107.7603403,"state":"NM","city":"Deming","address":"700 North Gold Avenue (Silver City Highway NW)","zip":"88030","phone":"","email":"","website":"","hours":"","brand":"","services":["general_repair"],"shopType":"general_repair"},{"id":"shop-nm-santa-fe-sanchez-vw-and-cycle","name":"Sanchez VW and Cycle","slug":"nm-santa-fe-sanchez-vw-and-cycle","lat":35.6631991,"lng":-105.9894944,"state":"NM","city":"Santa Fe","address":"2808 Industrial Road","zip":"87507","phone":"+1 505 471 8851","email":"","website":"","hours":"","brand":"Volkswagen","services":["general_repair"],"shopType":"general_repair"},{"id":"shop-nm-rio-rancho-mbs-automotive","name":"MBS Automotive","slug":"nm-rio-rancho-mbs-automotive","lat":35.2117511,"lng":-106.6585853,"state":"NM","city":"Rio Rancho","address":"2621 The American Road Northwest","zip":"87124","phone":"","email":"","website":"","hours":"","brand":"","services":["general_repair"],"shopType":"general_repair"},{"id":"shop-nm-hobbs-grant-s-auto-diesel","name":"Grant's Auto & Diesel","slug":"nm-hobbs-grant-s-auto-diesel","lat":32.7261992,"lng":-103.1767659,"state":"NM","city":"Hobbs","address":"3206 West Bender Boulevard","zip":"88240","phone":"+1-575-441-5842","email":"","website":"http://grantsautodiesel.com","hours":"Mo-Fr 07:00-18:00","brand":"","services":["diesel"],"shopType":"general_repair"},{"id":"shop-nm-hobbs-discount-tire","name":"Discount Tire","slug":"nm-hobbs-discount-tire","lat":32.742437,"lng":-103.1574636,"state":"NM","city":"Hobbs","address":"1720 Joe Harvey Boulevard","zip":"","phone":"","email":"","website":"","hours":"","brand":"Discount Tire","services":["tires"],"shopType":"tire_shop"},{"id":"shop-nm-hobbs-permian-collision-center","name":"Permian Collision Center","slug":"nm-hobbs-permian-collision-center","lat":32.7395386,"lng":-103.1424488,"state":"NM","city":"Hobbs","address":"601 West Navajo Drive","zip":"88240","phone":"","email":"","website":"","hours":"","brand":"","services":["body_work"],"shopType":"body_shop"},{"id":"shop-nm-hobbs-brothers-auto-glass","name":"Brothers Auto Glass","slug":"nm-hobbs-brothers-auto-glass","lat":32.7409269,"lng":-103.1317772,"state":"NM","city":"Hobbs","address":"500 East Navajo Drive","zip":"88240","phone":"","email":"","website":"","hours":"","brand":"","services":["general_repair"],"shopType":"general_repair"},{"id":"shop-nm-hobbs-western-motor-co","name":"Western Motor Co.","slug":"nm-hobbs-western-motor-co","lat":32.7512714,"lng":-103.1709193,"state":"NM","city":"Hobbs","address":"4502 North Lovington Highway","zip":"88240","phone":"","email":"","website":"","hours":"","brand":"","services":["general_repair"],"shopType":"general_repair"},{"id":"shop-nm-hobbs-paul-s-precision-paint-body","name":"Paul's Precision Paint & Body","slug":"nm-hobbs-paul-s-precision-paint-body","lat":32.7269268,"lng":-103.1299698,"state":"NM","city":"Hobbs","address":"615 East Saint Anne Place","zip":"88240","phone":"","email":"","website":"","hours":"","brand":"","services":["body_work"],"shopType":"body_shop"},{"id":"shop-nm-texico-big-wheels-trucking","name":"Big Wheels Trucking","slug":"nm-texico-big-wheels-trucking","lat":34.3891007,"lng":-103.0558928,"state":"NM","city":"Texico","address":"1120 Wheeler Avenue","zip":"88135","phone":"","email":"","website":"","hours":"","brand":"","services":["tires"],"shopType":"general_repair"},{"id":"shop-nm-hobbs-precision-tune-up","name":"Precision Tune Up","slug":"nm-hobbs-precision-tune-up","lat":32.7227663,"lng":-103.1272448,"state":"NM","city":"Hobbs","address":"2012 North Dal Paso Street","zip":"88240","phone":"","email":"","website":"","hours":"","brand":"","services":["general_repair"],"shopType":"general_repair"},{"id":"shop-nm-logan-terry-s-truck-services","name":"Terry's Truck Services","slug":"nm-logan-terry-s-truck-services","lat":35.3729753,"lng":-103.4117821,"state":"NM","city":"Logan","address":"430 NM 39","zip":"88426","phone":"","email":"","website":"","hours":"","brand":"","services":["general_repair"],"shopType":"general_repair"},{"id":"shop-nm-lovington-lea-county-collision-center","name":"Lea County Collision Center","slug":"nm-lovington-lea-county-collision-center","lat":32.9448165,"lng":-103.3501493,"state":"NM","city":"Lovington","address":"402 South 1st Street","zip":"88260","phone":"+1-575-396-1315","email":"","website":"https://www.leacountycollisioncenter.com","hours":"","brand":"","services":["body_work"],"shopType":"body_shop"},{"id":"shop-nm-unknown-cannon-auto-hobby-shop","name":"Cannon Auto Hobby Shop","slug":"nm-unknown-cannon-auto-hobby-shop","lat":34.395016,"lng":-103.3209715,"state":"NM","city":"","address":"317 Chindit Boulevard","zip":"","phone":"+1-575-784-2170","email":"","website":"","hours":"","brand":"","services":["general_repair"],"shopType":"general_repair"},{"id":"shop-nm-carlsbad-southern-tire-mart","name":"Southern Tire Mart","slug":"nm-carlsbad-southern-tire-mart","lat":32.3642249,"lng":-104.2384379,"state":"NM","city":"Carlsbad","address":"4515 Boyd Drive","zip":"","phone":"+1-575-236-4805","email":"","website":"https://stmtires.com/locations/store-520/","hours":"Mo-Fr 08:00-17:00, Sa 09:00-12:00","brand":"","services":["tires"],"shopType":"tire_shop"},{"id":"shop-nm-carlsbad-big-o-tires","name":"Big O Tires","slug":"nm-carlsbad-big-o-tires","lat":32.368321,"lng":-104.2331242,"state":"NM","city":"Carlsbad","address":"4212 National Parks Highway","zip":"88220","phone":"+1-575-222-1391","email":"","website":"https://www.bigotires.com/location/nm/carlsbad/4212-national-parks-hwy-88220/031079","hours":"Mo-Fr 07:30-18:00; Sa 07:30-16:00","brand":"Big O Tires","services":["tires"],"shopType":"tire_shop"},{"id":"shop-nm-portales-portales-radiator","name":"Portales Radiator","slug":"nm-portales-portales-radiator","lat":34.1813214,"lng":-103.343436,"state":"NM","city":"Portales","address":"115 South Avenue I","zip":"88130","phone":"","email":"","website":"","hours":"","brand":"","services":["general_repair"],"shopType":"general_repair"},{"id":"shop-nm-portales-g-s-service","name":"G&S Service","slug":"nm-portales-g-s-service","lat":34.1819972,"lng":-103.3414715,"state":"NM","city":"Portales","address":"619 West 2nd Street","zip":"88130","phone":"","email":"","website":"","hours":"","brand":"","services":["general_repair"],"shopType":"general_repair"},{"id":"shop-nm-lovington-forrest-tire","name":"Forrest Tire","slug":"nm-lovington-forrest-tire","lat":32.9330728,"lng":-103.3482148,"state":"NM","city":"Lovington","address":"1501 South Main Avenue","zip":"","phone":"+1-575-396-6675","email":"","website":"https://www.forresttire.com","hours":"","brand":"","services":["tires"],"shopType":"tire_shop"},{"id":"shop-nm-clovis-clovis-safety-lane","name":"Clovis Safety Lane","slug":"nm-clovis-clovis-safety-lane","lat":34.4048955,"lng":-103.2114119,"state":"NM","city":"Clovis","address":"516 West 7th Street","zip":"88101","phone":"+15757637777","email":"","website":"","hours":"","brand":"","services":["tires"],"shopType":"general_repair"},{"id":"shop-nm-hobbs-forrest-tire","name":"Forrest Tire","slug":"nm-hobbs-forrest-tire","lat":32.7172854,"lng":-103.1406024,"state":"NM","city":"Hobbs","address":"1703 North Turner Street","zip":"88240","phone":"+1-575-393-2186","email":"","website":"https://www.forresttire.com/Locations/Mode/6/1703-North-Turner-Hobbs-NM-88240/details","hours":"Mo-Fr 07:00-17:00; Sa 07:00-12:00; Su off","brand":"","services":["tires"],"shopType":"tire_shop"},{"id":"shop-nm-hobbs-auto-2000-tire-wheel-center","name":"Auto 2000 Tire & Wheel center","slug":"nm-hobbs-auto-2000-tire-wheel-center","lat":32.7282424,"lng":-103.1484158,"state":"NM","city":"Hobbs","address":"2506 North Lovington Highway","zip":"88240","phone":"+1-575-392-0063","email":"","website":"","hours":"","brand":"","services":["tires"],"shopType":"tire_shop"},{"id":"shop-nm-tatum-the-blessing-tire-shop","name":"The Blessing Tire Shop","slug":"nm-tatum-the-blessing-tire-shop","lat":33.2566826,"lng":-103.3161386,"state":"NM","city":"Tatum","address":"207 East Broadway Street","zip":"88267","phone":"","email":"","website":"","hours":"","brand":"","services":["tires"],"shopType":"tire_shop"},{"id":"shop-nm-artesia-edgars-tire-shop","name":"Edgars Tire Shop","slug":"nm-artesia-edgars-tire-shop","lat":32.7811393,"lng":-104.3961266,"state":"NM","city":"Artesia","address":"6437 Seven Rivers Highway","zip":"88210","phone":"+1-575-703-3803","email":"","website":"","hours":"","brand":"","services":["tires"],"shopType":"tire_shop"}]