[{"id":"shop-ny-east-aurora-dan-s-auto-repair","name":"Dan's Auto Repair","slug":"ny-east-aurora-dan-s-auto-repair","lat":42.7675682,"lng":-78.6118118,"state":"NY","city":"East Aurora","address":"","zip":"","phone":"","email":"","website":"","hours":"","brand":"","services":["general_repair"],"shopType":"general_repair"},{"id":"shop-ny-new-york-steinway-auto-repairs","name":"Steinway Auto Repairs","slug":"ny-new-york-steinway-auto-repairs","lat":40.7707762,"lng":-73.9083348,"state":"NY","city":"New York","address":"23-05 Steinway Street","zip":"","phone":"+1-718-545-6129","email":"","website":"","hours":"","brand":"","services":["general_repair"],"shopType":"general_repair"},{"id":"shop-ny-east-york-a-a-auto-clinic","name":"A&A Auto Clinic","slug":"ny-east-york-a-a-auto-clinic","lat":43.6920697,"lng":-79.3159261,"state":"NY","city":"East York","address":"1202 Woodbine Avenue","zip":"","phone":"+1-416-696-1334","email":"","website":"","hours":"","brand":"","services":["general_repair"],"shopType":"general_repair"},{"id":"shop-ny-toronto-lewis-auto-service","name":"Lewis' Auto Service","slug":"ny-toronto-lewis-auto-service","lat":43.679245,"lng":-79.2955121,"state":"NY","city":"Toronto","address":"715 Kingston Road","zip":"","phone":"","email":"","website":"","hours":"","brand":"","services":["general_repair"],"shopType":"general_repair"},{"id":"shop-ny-east-york-woodbine-auto-sales-repair","name":"Woodbine Auto Sales & Repair","slug":"ny-east-york-woodbine-auto-sales-repair","lat":43.6911871,"lng":-79.315534,"state":"NY","city":"East York","address":"1174 Woodbine Avenue","zip":"","phone":"+1-416-429-2562","email":"","website":"","hours":"","brand":"","services":["general_repair"],"shopType":"general_repair"},{"id":"shop-ny-village-of-canton-monroe-muffler","name":"Monroe Muffler","slug":"ny-village-of-canton-monroe-muffler","lat":44.5974497,"lng":-75.148796,"state":"NY","city":"Village of Canton","address":"","zip":"","phone":"","email":"","website":"","hours":"","brand":"Monro","services":["exhaust"],"shopType":"general_repair"},{"id":"shop-ny-village-of-gouverneur-northern-collision","name":"Northern Collision","slug":"ny-village-of-gouverneur-northern-collision","lat":44.3394064,"lng":-75.4566832,"state":"NY","city":"Village of Gouverneur","address":"","zip":"","phone":"","email":"","website":"","hours":"","brand":"","services":["body_work"],"shopType":"body_shop"},{"id":"shop-ny-north-york-mr-lube","name":"Mr. Lube","slug":"ny-north-york-mr-lube","lat":43.7934217,"lng":-79.3543554,"state":"NY","city":"North York","address":"1500 Finch Avenue East","zip":"","phone":"","email":"","website":"","hours":"","brand":"Mr. Lube","services":["oil_change"],"shopType":"quick_lube"},{"id":"shop-ny-east-york-sure-choice-auto-service-centre","name":"Sure Choice Auto Service Centre","slug":"ny-east-york-sure-choice-auto-service-centre","lat":43.6944899,"lng":-79.316263,"state":"NY","city":"East York","address":"1285 Woodbine Avenue","zip":"","phone":"+1-416-696-8116;+1-416-423-9161","email":"","website":"","hours":"","brand":"","services":["general_repair"],"shopType":"general_repair"},{"id":"shop-ny-pickering-mr-lube","name":"Mr. Lube","slug":"ny-pickering-mr-lube","lat":43.831005,"lng":-79.0955205,"state":"NY","city":"Pickering","address":"1195 Kingston Road","zip":"","phone":"","email":"","website":"","hours":"","brand":"Mr. Lube","services":["oil_change"],"shopType":"quick_lube"},{"id":"shop-ny-toronto-fix-auto-collision","name":"Fix Auto Collision","slug":"ny-toronto-fix-auto-collision","lat":43.6544629,"lng":-79.3682205,"state":"NY","city":"Toronto","address":"257 Queen Street East","zip":"","phone":"","email":"","website":"","hours":"","brand":"","services":["body_work"],"shopType":"body_shop"},{"id":"shop-ny-town-of-le-ray-auto-skills-center","name":"Auto Skills Center","slug":"ny-town-of-le-ray-auto-skills-center","lat":44.0590904,"lng":-75.8033603,"state":"NY","city":"Town of Le Ray","address":"","zip":"","phone":"","email":"","website":"","hours":"","brand":"","services":["general_repair"],"shopType":"general_repair"},{"id":"shop-ny-mississauga-halton-transmission","name":"Halton Transmission","slug":"ny-mississauga-halton-transmission","lat":43.5650882,"lng":-79.6347146,"state":"NY","city":"Mississauga","address":"735 Dundas Street West","zip":"L5C 3B6","phone":"","email":"","website":"","hours":"","brand":"","services":["transmission"],"shopType":"transmission_shop"},{"id":"shop-ny-north-york-3-valleys","name":"3 Valleys","slug":"ny-north-york-3-valleys","lat":43.7519998,"lng":-79.3363827,"state":"NY","city":"North York","address":"58 Three Valleys Drive","zip":"","phone":"","email":"","website":"","hours":"Mo-Fr 07:30-17:00","brand":"","services":["general_repair"],"shopType":"general_repair"},{"id":"shop-ny-north-york-mr-lube-2","name":"Mr. Lube","slug":"ny-north-york-mr-lube-2","lat":43.7475525,"lng":-79.3123922,"state":"NY","city":"North York","address":"1964 Victoria Park Avenue","zip":"","phone":"","email":"","website":"","hours":"","brand":"Mr. Lube","services":["oil_change"],"shopType":"quick_lube"},{"id":"shop-ny-mississauga-techmax","name":"TechMax","slug":"ny-mississauga-techmax","lat":43.6515622,"lng":-79.6651997,"state":"NY","city":"Mississauga","address":"1011 Meyerside Drive","zip":"L5T 1K8","phone":"+1-905-795-0419","email":"","website":"","hours":"","brand":"","services":["general_repair"],"shopType":"general_repair"},{"id":"shop-ny-toronto-eagle-transmission","name":"Eagle Transmission","slug":"ny-toronto-eagle-transmission","lat":43.696332,"lng":-79.2748396,"state":"NY","city":"Toronto","address":"63 Danforth Avenue","zip":"M1L 3W5","phone":"+1-416-691-7111","email":"","website":"","hours":"","brand":"","services":["transmission"],"shopType":"transmission_shop"},{"id":"shop-ny-kingston-ok-tire","name":"OK Tire","slug":"ny-kingston-ok-tire","lat":44.2404421,"lng":-76.5104118,"state":"NY","city":"Kingston","address":"900 Princess Street","zip":"K7L 1H1","phone":"+1-613-546-3181","email":"","website":"https://www.oktire.com/stores/ok-tire-kingston","hours":"","brand":"OK Tire","services":["tires"],"shopType":"tire_shop"},{"id":"shop-ny-scarborough-kavin-10-min-oil-change","name":"Kavin 10 Min Oil Change","slug":"ny-scarborough-kavin-10-min-oil-change","lat":43.7311002,"lng":-79.2263792,"state":"NY","city":"Scarborough","address":"3220 Kingston Road","zip":"","phone":"","email":"","website":"","hours":"","brand":"","services":["oil_change"],"shopType":"quick_lube"},{"id":"shop-ny-toronto-kal-tire","name":"Kal Tire","slug":"ny-toronto-kal-tire","lat":43.6553488,"lng":-79.4515907,"state":"NY","city":"Toronto","address":"2288 Dundas Street West","zip":"M6R 1X3","phone":"+1 416 536 4423","email":"","website":"https://www.kaltire.com/en/locations/?store=867-toronto-store","hours":"","brand":"Kal Tire","services":["tires"],"shopType":"tire_shop","rating":2.9,"reviewCount":50,"yelpMatched":true,"yelpMatchScore":1},{"id":"shop-ny-scarborough-john-s-service","name":"John's Service","slug":"ny-scarborough-john-s-service","lat":43.6880918,"lng":-79.2835883,"state":"NY","city":"Scarborough","address":"2520 Gerrard Street East","zip":"","phone":"","email":"","website":"","hours":"","brand":"","services":["general_repair"],"shopType":"general_repair"},{"id":"shop-ny-town-of-east-greenbush-danco-auto-repair","name":"Danco Auto Repair","slug":"ny-town-of-east-greenbush-danco-auto-repair","lat":42.6192485,"lng":-73.705445,"state":"NY","city":"Town of East Greenbush","address":"","zip":"","phone":"","email":"","website":"","hours":"","brand":"","services":["general_repair"],"shopType":"general_repair"},{"id":"shop-ny-village-of-ravena-barry-s-auto-repair","name":"Barry's Auto Repair","slug":"ny-village-of-ravena-barry-s-auto-repair","lat":42.4881591,"lng":-73.8195294,"state":"NY","city":"Village of Ravena","address":"","zip":"","phone":"","email":"","website":"","hours":"","brand":"","services":["general_repair"],"shopType":"general_repair"},{"id":"shop-ny-town-of-east-greenbush-quik-lube","name":"Quik Lube","slug":"ny-town-of-east-greenbush-quik-lube","lat":42.6184685,"lng":-73.7025619,"state":"NY","city":"Town of East Greenbush","address":"","zip":"","phone":"","email":"","website":"","hours":"","brand":"","services":["oil_change"],"shopType":"quick_lube"},{"id":"shop-ny-toronto-canadian-tire-auto-service","name":"Canadian Tire Auto Service","slug":"ny-toronto-canadian-tire-auto-service","lat":43.6739732,"lng":-79.387386,"state":"NY","city":"Toronto","address":"839 Yonge Street","zip":"","phone":"+1-416-925-5927","email":"","website":"https://www.canadiantire.ca/en/store-details/on/toronto-yonge-church-on-150.html","hours":"","brand":"Canadian Tire","services":["tires"],"shopType":"tire_shop"},{"id":"shop-ny-toronto-yorkdale-certified-auto-service","name":"Yorkdale Certified Auto Service","slug":"ny-toronto-yorkdale-certified-auto-service","lat":43.7064433,"lng":-79.4526856,"state":"NY","city":"Toronto","address":"2835 Dufferin Street","zip":"","phone":"","email":"","website":"","hours":"","brand":"","services":["general_repair"],"shopType":"general_repair"},{"id":"shop-ny-toronto-alpha-tire","name":"Alpha Tire","slug":"ny-toronto-alpha-tire","lat":43.7217154,"lng":-79.4688047,"state":"NY","city":"Toronto","address":"1277 Caledonia Road","zip":"","phone":"","email":"","website":"","hours":"","brand":"","services":["tires"],"shopType":"tire_shop"},{"id":"shop-ny-toronto-mario-s-auto-centre","name":"Mario's Auto Centre","slug":"ny-toronto-mario-s-auto-centre","lat":43.7054412,"lng":-79.504945,"state":"NY","city":"Toronto","address":"1772 Jane Street","zip":"","phone":"","email":"","website":"","hours":"","brand":"","services":["general_repair"],"shopType":"general_repair"},{"id":"shop-ny-toronto-alex-auto-repair","name":"Alex Auto Repair","slug":"ny-toronto-alex-auto-repair","lat":43.7060026,"lng":-79.5048762,"state":"NY","city":"Toronto","address":"1778 Jane Street","zip":"","phone":"","email":"","website":"","hours":"","brand":"","services":["general_repair"],"shopType":"general_repair"},{"id":"shop-ny-agincourt-mr-lube","name":"Mr. Lube","slug":"ny-agincourt-mr-lube","lat":43.7790248,"lng":-79.3087966,"state":"NY","city":"Agincourt","address":"3306 Sheppard Avenue East","zip":"","phone":"+1-416-491-1828","email":"","website":"","hours":"","brand":"Mr. Lube","services":["oil_change"],"shopType":"quick_lube"},{"id":"shop-ny-city-of-albany-albany-spring-service","name":"Albany Spring Service","slug":"ny-city-of-albany-albany-spring-service","lat":42.6637662,"lng":-73.7443626,"state":"NY","city":"City of Albany","address":"","zip":"","phone":"","email":"","website":"","hours":"","brand":"","services":["general_repair"],"shopType":"general_repair"},{"id":"shop-ny-markham-igarage-auto-service","name":"igarage auto service","slug":"ny-markham-igarage-auto-service","lat":43.8761681,"lng":-79.2739271,"state":"NY","city":"Markham","address":"156-unit 29 Bullock Drive","zip":"","phone":"","email":"","website":"","hours":"","brand":"","services":["general_repair"],"shopType":"general_repair"},{"id":"shop-ny-valatie-kinderhook-transmission","name":"Kinderhook Transmission","slug":"ny-valatie-kinderhook-transmission","lat":42.4606174,"lng":-73.6939517,"state":"NY","city":"Valatie","address":"3465 United States Highway 9","zip":"","phone":"+1 518-784-5050","email":"","website":"","hours":"","brand":"","services":["transmission"],"shopType":"transmission_shop"},{"id":"shop-ny-west-sand-lake-leckonby-s-autoworks-inc","name":"Leckonby's Autoworks Inc","slug":"ny-west-sand-lake-leckonby-s-autoworks-inc","lat":42.645943,"lng":-73.60451,"state":"NY","city":"West Sand Lake","address":"3642 State Highway 43","zip":"12196","phone":"+1 518-674-3864","email":"","website":"","hours":"","brand":"","services":["general_repair"],"shopType":"general_repair"},{"id":"shop-ny-peterborough-bob-nurse-motors","name":"Bob Nurse Motors","slug":"ny-peterborough-bob-nurse-motors","lat":44.2923205,"lng":-78.3243891,"state":"NY","city":"Peterborough","address":"20 Park Street South","zip":"K9J 3R5","phone":"","email":"","website":"https://bobnursemotors.ca/","hours":"Mo-Fr 08:00-17:00","brand":"","services":["general_repair"],"shopType":"general_repair"},{"id":"shop-ny-peterborough-krown","name":"Krown","slug":"ny-peterborough-krown","lat":44.2965323,"lng":-78.3232282,"state":"NY","city":"Peterborough","address":"107 Aylmer Street North","zip":"","phone":"","email":"","website":"","hours":"","brand":"","services":["general_repair"],"shopType":"general_repair"},{"id":"shop-ny-peterborough-douglas-automotive-repair","name":"Douglas Automotive Repair","slug":"ny-peterborough-douglas-automotive-repair","lat":44.2924323,"lng":-78.3330238,"state":"NY","city":"Peterborough","address":"1051 Monaghan Road","zip":"","phone":"","email":"","website":"","hours":"","brand":"","services":["general_repair"],"shopType":"general_repair"},{"id":"shop-ny-peterborough-bryant-s-auto","name":"Bryant's Auto","slug":"ny-peterborough-bryant-s-auto","lat":44.3072251,"lng":-78.3238178,"state":"NY","city":"Peterborough","address":"240 Brock Street","zip":"","phone":"","email":"","website":"","hours":"","brand":"","services":["general_repair"],"shopType":"general_repair"},{"id":"shop-ny-town-of-niskayuna-valvoline","name":"Valvoline","slug":"ny-town-of-niskayuna-valvoline","lat":42.7686754,"lng":-73.891333,"state":"NY","city":"Town of Niskayuna","address":"","zip":"","phone":"","email":"","website":"","hours":"","brand":"Valvoline","services":["oil_change"],"shopType":"quick_lube"},{"id":"shop-ny-town-of-henrietta-austin-spencer-collision","name":"Austin Spencer Collision","slug":"ny-town-of-henrietta-austin-spencer-collision","lat":43.0943975,"lng":-77.6126048,"state":"NY","city":"Town of Henrietta","address":"","zip":"","phone":"","email":"","website":"","hours":"","brand":"","services":["body_work"],"shopType":"body_shop"},{"id":"shop-ny-town-of-brighton-brighton-garage","name":"Brighton Garage","slug":"ny-town-of-brighton-brighton-garage","lat":43.1279605,"lng":-77.5657557,"state":"NY","city":"Town of Brighton","address":"","zip":"","phone":"","email":"","website":"","hours":"Mo-Fr 07:00-18:00","brand":"","services":["general_repair"],"shopType":"general_repair"},{"id":"shop-ny-mississauga-rankin-automobile","name":"Rankin Automobile","slug":"ny-mississauga-rankin-automobile","lat":43.5312865,"lng":-79.6124917,"state":"NY","city":"Mississauga","address":"1098 Lorne Park Road","zip":"","phone":"","email":"","website":"","hours":"","brand":"","services":["general_repair"],"shopType":"general_repair"},{"id":"shop-ny-mississauga-auto-mila","name":"Auto Mila","slug":"ny-mississauga-auto-mila","lat":43.55925,"lng":-79.58277,"state":"NY","city":"Mississauga","address":"129B Queen Street East","zip":"","phone":"","email":"","website":"","hours":"","brand":"","services":["general_repair"],"shopType":"general_repair"},{"id":"shop-ny-mississauga-seneca-auto-body-seneca-towing","name":"Seneca Auto Body/Seneca Towing","slug":"ny-mississauga-seneca-auto-body-seneca-towing","lat":43.563999,"lng":-79.5778488,"state":"NY","city":"Mississauga","address":"1109 Seneca Avenue","zip":"","phone":"+1-905-271-7000","email":"","website":"","hours":"","brand":"","services":["body_work"],"shopType":"body_shop"},{"id":"shop-ny-city-of-schenectady-munro-muffler-brake","name":"Munro Muffler Brake","slug":"ny-city-of-schenectady-munro-muffler-brake","lat":42.789327,"lng":-73.9376083,"state":"NY","city":"City of Schenectady","address":"","zip":"","phone":"","email":"","website":"","hours":"","brand":"","services":["exhaust","brakes"],"shopType":"general_repair"},{"id":"shop-ny-city-of-schenectady-dream-autos-service-center","name":"Dream Autos Service Center","slug":"ny-city-of-schenectady-dream-autos-service-center","lat":42.7897134,"lng":-73.9382155,"state":"NY","city":"City of Schenectady","address":"","zip":"","phone":"","email":"","website":"","hours":"","brand":"","services":["general_repair"],"shopType":"general_repair"},{"id":"shop-ny-town-of-rotterdam-carman-service-center","name":"Carman Service Center","slug":"ny-town-of-rotterdam-carman-service-center","lat":42.7848386,"lng":-73.9308175,"state":"NY","city":"Town of Rotterdam","address":"","zip":"","phone":"","email":"","website":"","hours":"","brand":"","services":["general_repair"],"shopType":"general_repair"},{"id":"shop-ny-town-of-rotterdam-jay-s-certified-auto-repair","name":"Jay's Certified Auto Repair","slug":"ny-town-of-rotterdam-jay-s-certified-auto-repair","lat":42.7859207,"lng":-73.9322545,"state":"NY","city":"Town of Rotterdam","address":"","zip":"","phone":"","email":"","website":"","hours":"","brand":"","services":["general_repair"],"shopType":"general_repair"},{"id":"shop-ny-fairport-firestone","name":"Firestone","slug":"ny-fairport-firestone","lat":43.0649426,"lng":-77.4109811,"state":"NY","city":"Fairport","address":"7374 Palmyra Road","zip":"14450","phone":"","email":"","website":"","hours":"","brand":"Firestone","services":["general_repair"],"shopType":"general_repair"},{"id":"shop-ny-scarborough-inter-auto-centre","name":"Inter Auto Centre","slug":"ny-scarborough-inter-auto-centre","lat":43.7842842,"lng":-79.2863739,"state":"NY","city":"Scarborough","address":"4040 Sheppard Avenue East","zip":"","phone":"+1-416-321-8800","email":"","website":"","hours":"","brand":"","services":["general_repair"],"shopType":"general_repair"},{"id":"shop-ny-pickering-midas","name":"Midas","slug":"ny-pickering-midas","lat":43.8464827,"lng":-79.076992,"state":"NY","city":"Pickering","address":"1650 Kingston Road","zip":"","phone":"","email":"","website":"https://www.midas.com/","hours":"","brand":"Midas","services":["general_repair"],"shopType":"general_repair"},{"id":"shop-ny-toronto-spadina-auto-service","name":"Spadina Auto Service","slug":"ny-toronto-spadina-auto-service","lat":43.6428737,"lng":-79.4120181,"state":"NY","city":"Toronto","address":"111 Strachan Avenue","zip":"","phone":"+1-416-925-4251","email":"","website":"https://www.yelp.com/biz/spadina-auto-toronto","hours":"","brand":"","services":["general_repair"],"shopType":"general_repair","rating":4,"reviewCount":90,"yelpMatched":true,"yelpMatchScore":1},{"id":"shop-ny-brampton-mr-lube","name":"Mr. Lube","slug":"ny-brampton-mr-lube","lat":43.7410087,"lng":-79.6934488,"state":"NY","city":"Brampton","address":"30 Coventry Road","zip":"","phone":"+1-905-792-9250","email":"","website":"","hours":"","brand":"Mr. Lube","services":["oil_change"],"shopType":"quick_lube"},{"id":"shop-ny-brampton-mr-lube-2","name":"Mr. Lube","slug":"ny-brampton-mr-lube-2","lat":43.7090703,"lng":-79.7336446,"state":"NY","city":"Brampton","address":"149 West Drive","zip":"","phone":"","email":"","website":"","hours":"","brand":"Mr. Lube","services":["oil_change"],"shopType":"quick_lube"},{"id":"shop-ny-scarborough-birchmount-collision","name":"Birchmount Collision","slug":"ny-scarborough-birchmount-collision","lat":43.80269,"lng":-79.295037,"state":"NY","city":"Scarborough","address":"4032 Finch Avenue East","zip":"","phone":"","email":"","website":"","hours":"","brand":"","services":["body_work"],"shopType":"body_shop"},{"id":"shop-ny-albany-paul-s-garage","name":"Paul's Garage","slug":"ny-albany-paul-s-garage","lat":42.6629557,"lng":-73.7794058,"state":"NY","city":"Albany","address":"230 Ontario Street","zip":"12203","phone":"","email":"","website":"","hours":"","brand":"","services":["general_repair"],"shopType":"general_repair"},{"id":"shop-ny-town-of-halfmoon-midas","name":"Midas","slug":"ny-town-of-halfmoon-midas","lat":42.8615438,"lng":-73.7667064,"state":"NY","city":"Town of Halfmoon","address":"","zip":"","phone":"","email":"","website":"","hours":"","brand":"Midas","services":["general_repair"],"shopType":"general_repair"},{"id":"shop-ny-town-of-clifton-park-trev-s-automotive","name":"Trev's Automotive","slug":"ny-town-of-clifton-park-trev-s-automotive","lat":42.9037962,"lng":-73.7828643,"state":"NY","city":"Town of Clifton Park","address":"","zip":"","phone":"","email":"","website":"","hours":"","brand":"","services":["general_repair"],"shopType":"general_repair"},{"id":"shop-ny-selden-sts-tire-auto-center","name":"STS Tire & Auto Center","slug":"ny-selden-sts-tire-auto-center","lat":40.8672003,"lng":-73.0333005,"state":"NY","city":"Selden","address":"525 Middle Country Road","zip":"11784","phone":"","email":"","website":"","hours":"","brand":"","services":["tires"],"shopType":"tire_shop"},{"id":"shop-ny-town-of-hunter-rory-s","name":"Rory's","slug":"ny-town-of-hunter-rory-s","lat":42.1950459,"lng":-74.0946714,"state":"NY","city":"Town of Hunter","address":"","zip":"","phone":"","email":"","website":"","hours":"","brand":"","services":["general_repair"],"shopType":"general_repair"},{"id":"shop-ny-town-of-greenburgh-s-j-service-center","name":"S & J Service Center","slug":"ny-town-of-greenburgh-s-j-service-center","lat":41.0128087,"lng":-73.8061349,"state":"NY","city":"Town of Greenburgh","address":"245","zip":"","phone":"","email":"","website":"","hours":"","brand":"","services":["general_repair"],"shopType":"general_repair"},{"id":"shop-ny-village-of-potsdam-parts-america","name":"Parts America","slug":"ny-village-of-potsdam-parts-america","lat":44.6862047,"lng":-74.9895204,"state":"NY","city":"Village of Potsdam","address":"","zip":"","phone":"","email":"","website":"","hours":"","brand":"","services":["general_repair"],"shopType":"general_repair"},{"id":"shop-ny-new-york-bullocks-auto-repair","name":"Bullocks Auto Repair","slug":"ny-new-york-bullocks-auto-repair","lat":40.5789712,"lng":-73.8499771,"state":"NY","city":"New York","address":"","zip":"","phone":"","email":"","website":"","hours":"","brand":"","services":["general_repair"],"shopType":"general_repair"},{"id":"shop-ny-oshawa-taunton-tires","name":"Taunton Tires","slug":"ny-oshawa-taunton-tires","lat":43.9448635,"lng":-78.8297247,"state":"NY","city":"Oshawa","address":"Townline Road North","zip":"L1H 7K5","phone":"","email":"","website":"","hours":"","brand":"","services":["tires"],"shopType":"tire_shop"},{"id":"shop-ny-city-of-syracuse-big-mike-s-auto-service","name":"Big Mike's Auto Service","slug":"ny-city-of-syracuse-big-mike-s-auto-service","lat":43.059371,"lng":-76.1996,"state":"NY","city":"City of Syracuse","address":"","zip":"","phone":"","email":"","website":"","hours":"","brand":"","services":["general_repair"],"shopType":"general_repair"},{"id":"shop-ny-marcellus-warner-s-auto-body","name":"Warner's Auto Body","slug":"ny-marcellus-warner-s-auto-body","lat":42.9791493,"lng":-76.3257777,"state":"NY","city":"Marcellus","address":"2650 Pleasant Valley Road","zip":"13108","phone":"","email":"","website":"","hours":"","brand":"","services":["body_work"],"shopType":"body_shop"},{"id":"shop-ny-town-of-bethlehem-jiffy-lube","name":"Jiffy Lube","slug":"ny-town-of-bethlehem-jiffy-lube","lat":42.6315761,"lng":-73.8051008,"state":"NY","city":"Town of Bethlehem","address":"","zip":"","phone":"","email":"","website":"","hours":"","brand":"Jiffy Lube","services":["oil_change"],"shopType":"quick_lube"},{"id":"shop-ny-etobicoke-southside-auto-centre","name":"Southside Auto Centre","slug":"ny-etobicoke-southside-auto-centre","lat":43.5998132,"lng":-79.5083553,"state":"NY","city":"Etobicoke","address":"3021 Lake Shore Boulevard West","zip":"","phone":"+1-416-255-8885","email":"","website":"","hours":"","brand":"","services":["general_repair"],"shopType":"general_repair"},{"id":"shop-ny-town-of-clifton-park-firestone","name":"Firestone","slug":"ny-town-of-clifton-park-firestone","lat":42.8597465,"lng":-73.7758566,"state":"NY","city":"Town of Clifton Park","address":"","zip":"","phone":"","email":"","website":"","hours":"","brand":"Firestone","services":["general_repair"],"shopType":"general_repair"},{"id":"shop-ny-town-of-halfmoon-aaa","name":"AAA","slug":"ny-town-of-halfmoon-aaa","lat":42.8579229,"lng":-73.7604932,"state":"NY","city":"Town of Halfmoon","address":"","zip":"","phone":"","email":"","website":"","hours":"","brand":"","services":["general_repair"],"shopType":"general_repair"},{"id":"shop-ny-east-aurora-bruce-s-automotive","name":"Bruce's Automotive","slug":"ny-east-aurora-bruce-s-automotive","lat":42.7682478,"lng":-78.6154605,"state":"NY","city":"East Aurora","address":"","zip":"","phone":"","email":"","website":"","hours":"","brand":"","services":["general_repair"],"shopType":"general_repair"},{"id":"shop-ny-corning-goodyear-auto-service","name":"Goodyear Auto Service","slug":"ny-corning-goodyear-auto-service","lat":42.1422499,"lng":-77.0539226,"state":"NY","city":"Corning","address":"20 Denison Parkway East","zip":"14830","phone":"+1-607-936-8021","email":"","website":"http://www.goodyear.com/en-US/tires/tire-shop/all/000900438/Corning%20NY%2014830-2606%20US/retailer-details","hours":"Mo-Fr 07:00-18:00; Sa 07:30-17:00","brand":"Goodyear","services":["tires"],"shopType":"general_repair"},{"id":"shop-ny-city-of-corning-tire-world-of-corning","name":"Tire World of Corning","slug":"ny-city-of-corning-tire-world-of-corning","lat":42.1437734,"lng":-77.058878,"state":"NY","city":"City of Corning","address":"","zip":"14830","phone":"+1-607-936-9916","email":"corningtire@yahoo.com","website":"http://tireworldofcorning.com","hours":"Mo-Fr 07:00-17:00","brand":"","services":["tires"],"shopType":"tire_shop"},{"id":"shop-ny-town-of-bethlehem-g-and-r-auto","name":"G and R Auto","slug":"ny-town-of-bethlehem-g-and-r-auto","lat":42.6238729,"lng":-73.8352303,"state":"NY","city":"Town of Bethlehem","address":"","zip":"","phone":"","email":"","website":"","hours":"","brand":"","services":["general_repair"],"shopType":"general_repair"},{"id":"shop-ny-nassau-county-s-s-automotive-center","name":"S&S Automotive Center","slug":"ny-nassau-county-s-s-automotive-center","lat":40.7870763,"lng":-73.5030628,"state":"NY","city":"Nassau County","address":"325 South Oyster Bay Road","zip":"11803","phone":"","email":"","website":"","hours":"","brand":"","services":["general_repair"],"shopType":"general_repair"},{"id":"shop-ny-lansing-phoenix-auto-of-ithaca","name":"Phoenix Auto of Ithaca","slug":"ny-lansing-phoenix-auto-of-ithaca","lat":42.5385255,"lng":-76.4946119,"state":"NY","city":"Lansing","address":"119 Auburn Road","zip":"14882","phone":"","email":"","website":"","hours":"","brand":"","services":["general_repair"],"shopType":"general_repair"},{"id":"shop-ny-new-york-alfa-motors","name":"Alfa Motors","slug":"ny-new-york-alfa-motors","lat":40.6843919,"lng":-74.0009284,"state":"NY","city":"New York","address":"","zip":"","phone":"+1-718-596-3977","email":"","website":"http://alfamotorsbrooklyn.com","hours":"","brand":"","services":["general_repair"],"shopType":"general_repair","rating":4.2,"reviewCount":38,"yelpMatched":true,"yelpMatchScore":1},{"id":"shop-ny-new-york-luna-s-tire-shop","name":"Luna's Tire Shop","slug":"ny-new-york-luna-s-tire-shop","lat":40.6801173,"lng":-73.9814768,"state":"NY","city":"New York","address":"","zip":"","phone":"+1-718-403-9769","email":"","website":"","hours":"unknown","brand":"","services":["tires"],"shopType":"tire_shop"},{"id":"shop-ny-new-york-r-ferraro-collision","name":"R. Ferraro Collision","slug":"ny-new-york-r-ferraro-collision","lat":40.6723081,"lng":-73.990505,"state":"NY","city":"New York","address":"","zip":"","phone":"+1-718-788-6288","email":"","website":"http://www.ferrarocollision.com","hours":"","brand":"","services":["body_work"],"shopType":"body_shop"},{"id":"shop-ny-new-york-carlos-repair-ridge","name":"Carlos Repair @ Ridge","slug":"ny-new-york-carlos-repair-ridge","lat":40.6780428,"lng":-73.9857985,"state":"NY","city":"New York","address":"264 3rd Avenue","zip":"11215","phone":"+1-718-832-1413","email":"","website":"","hours":"Mo-Fr 07:30-17:00","brand":"","services":["general_repair"],"shopType":"general_repair"},{"id":"shop-ny-new-york-new-xcell-auto-repair","name":"New Xcell Auto Repair","slug":"ny-new-york-new-xcell-auto-repair","lat":40.702026,"lng":-73.9929402,"state":"NY","city":"New York","address":"","zip":"","phone":"+1-718-625-4110","email":"","website":"https://www.yelp.com/biz/new-xcell-auto-repair-brooklyn-2","hours":"","brand":"","services":["general_repair"],"shopType":"general_repair","rating":4.7,"reviewCount":78,"yelpMatched":true,"yelpMatchScore":1},{"id":"shop-ny-toronto-canadian-tire","name":"Canadian Tire","slug":"ny-toronto-canadian-tire","lat":43.6711608,"lng":-79.4720674,"state":"NY","city":"Toronto","address":"2129 St. Clair Avenue West","zip":"","phone":"","email":"","website":"https://www.canadiantire.ca/en/store-details/on/west-toronto-(stockyards)-on-182.html","hours":"","brand":"Canadian Tire","services":["tires"],"shopType":"tire_shop"},{"id":"shop-ny-new-york-pep-boys","name":"Pep Boys","slug":"ny-new-york-pep-boys","lat":40.6259703,"lng":-74.1538513,"state":"NY","city":"New York","address":"1941 Forest Avenue","zip":"10303","phone":"","email":"","website":"","hours":"","brand":"Pep Boys","services":["general_repair"],"shopType":"general_repair"},{"id":"shop-ny-new-york-bp-jamaica-auto-service","name":"BP Jamaica Auto Service","slug":"ny-new-york-bp-jamaica-auto-service","lat":40.6852621,"lng":-73.8817353,"state":"NY","city":"New York","address":"","zip":"","phone":"+1-718-647-2580","email":"","website":"","hours":"","brand":"","services":["general_repair"],"shopType":"general_repair"},{"id":"shop-ny-new-york-rush-auto-tire-shop","name":"Rush Auto Tire Shop","slug":"ny-new-york-rush-auto-tire-shop","lat":40.6785833,"lng":-73.9487276,"state":"NY","city":"New York","address":"1263 Atlantic Avenue","zip":"11216","phone":"+1-347-533-8054","email":"","website":"","hours":"","brand":"","services":["tires"],"shopType":"tire_shop"},{"id":"shop-ny-brooklyn-meineke","name":"Meineke","slug":"ny-brooklyn-meineke","lat":40.6148266,"lng":-73.9630897,"state":"NY","city":"Brooklyn","address":"1741 Coney Island Avenue","zip":"11230","phone":"+1-718-804-5287","email":"","website":"https://www.meineke.com/locations/ny/brooklyn-303/","hours":"Mo-Fr 07:30-18:00; Sa 07:30-16:00; Su off","brand":"Meineke","services":["car_repair","oil_change","air_conditioning","tyres","tires","brakes","batteries","exhaust"],"shopType":"general_repair"},{"id":"shop-ny-brooklyn-chang-s-auto-repair","name":"Chang's Auto Repair","slug":"ny-brooklyn-chang-s-auto-repair","lat":40.6802844,"lng":-73.9892079,"state":"NY","city":"Brooklyn","address":"293 Bond Street","zip":"11231","phone":"+1-718-858-5845","email":"","website":"","hours":"Mo-Fr 08:30-17:30; Sa 10:00-15:00","brand":"","services":["general_repair"],"shopType":"general_repair"},{"id":"shop-ny-new-york-viva-mexico-tire-shop","name":"Viva Mexico Tire Shop","slug":"ny-new-york-viva-mexico-tire-shop","lat":40.674223,"lng":-73.9996533,"state":"NY","city":"New York","address":"","zip":"","phone":"+1-718-246-7349","email":"","website":"","hours":"Mo-Su 07:00-20:00","brand":"","services":["tires"],"shopType":"tire_shop"},{"id":"shop-ny-new-york-mario-s-auto-repair","name":"Mario's Auto Repair","slug":"ny-new-york-mario-s-auto-repair","lat":40.6800062,"lng":-73.960458,"state":"NY","city":"New York","address":"","zip":"","phone":"+1-718-638-6465","email":"","website":"https://www.yelp.com/biz/marios-auto-repair-corp-brooklyn","hours":"","brand":"","services":["general_repair"],"shopType":"general_repair","rating":4.7,"reviewCount":89,"yelpMatched":true,"yelpMatchScore":1},{"id":"shop-ny-new-york-friendly-auto-repair","name":"Friendly Auto Repair","slug":"ny-new-york-friendly-auto-repair","lat":40.6630833,"lng":-73.9990347,"state":"NY","city":"New York","address":"","zip":"","phone":"+1-929-250-2461","email":"","website":"","hours":"","brand":"","services":["general_repair"],"shopType":"general_repair"},{"id":"shop-ny-new-york-quality-repair-center","name":"Quality Repair Center","slug":"ny-new-york-quality-repair-center","lat":40.6185849,"lng":-74.0295345,"state":"NY","city":"New York","address":"","zip":"","phone":"+1-718-491-6161","email":"","website":"","hours":"","brand":"","services":["general_repair"],"shopType":"general_repair"},{"id":"shop-ny-brooklyn-neptune-auto-parts","name":"Neptune Auto Parts","slug":"ny-brooklyn-neptune-auto-parts","lat":40.5814104,"lng":-73.9631175,"state":"NY","city":"Brooklyn","address":"255 Neptune Avenue","zip":"11235","phone":"+1 718-646-1133","email":"","website":"","hours":"","brand":"","services":["car_repair","oil_change","diagnostics","tires","car_parts","tyres"],"shopType":"general_repair"},{"id":"shop-ny-new-york-67th-st-tire-shop","name":"67th St. Tire Shop","slug":"ny-new-york-67th-st-tire-shop","lat":40.6355271,"lng":-74.0203544,"state":"NY","city":"New York","address":"6702 5th Avenue","zip":"11220","phone":"+1-718-833-6482","email":"","website":"","hours":"","brand":"","services":["tires"],"shopType":"tire_shop"},{"id":"shop-ny-toronto-aml-auto-service","name":"AML Auto Service","slug":"ny-toronto-aml-auto-service","lat":43.7071331,"lng":-79.3623774,"state":"NY","city":"Toronto","address":"126 Laird Drive","zip":"","phone":"+1 416-423-6209","email":"","website":"https://www.yelp.com/biz/aml-auto-service-east-york-6","hours":"","brand":"","services":["general_repair"],"shopType":"general_repair","rating":4.2,"reviewCount":12,"yelpMatched":true,"yelpMatchScore":1},{"id":"shop-ny-toronto-laird-auto-body","name":"Laird Auto Body","slug":"ny-toronto-laird-auto-body","lat":43.7071836,"lng":-79.3619818,"state":"NY","city":"Toronto","address":"123 Laird Drive","zip":"","phone":"","email":"","website":"","hours":"","brand":"","services":["body_work"],"shopType":"body_shop"},{"id":"shop-ny-toronto-direct-repair-collision-centres","name":"Direct Repair Collision Centres","slug":"ny-toronto-direct-repair-collision-centres","lat":43.7069543,"lng":-79.361929,"state":"NY","city":"Toronto","address":"117 Laird Drive","zip":"","phone":"","email":"","website":"","hours":"","brand":"","services":["body_work"],"shopType":"body_shop"},{"id":"shop-ny-new-york-tmb-services","name":"TMB Services","slug":"ny-new-york-tmb-services","lat":40.6260904,"lng":-73.9974514,"state":"NY","city":"New York","address":"1414 62nd Street","zip":"11219","phone":"+1-718-232-1724","email":"","website":"","hours":"","brand":"","services":["general_repair"],"shopType":"general_repair"},{"id":"shop-ny-new-york-los-primos-tire-shop","name":"Los Primos Tire Shop","slug":"ny-new-york-los-primos-tire-shop","lat":40.6391737,"lng":-74.0204703,"state":"NY","city":"New York","address":"6302 4th Avenue","zip":"11220","phone":"+1-718-792-7541","email":"","website":"","hours":"","brand":"","services":["tires"],"shopType":"tire_shop"},{"id":"shop-ny-new-york-automotriz","name":"Automotriz","slug":"ny-new-york-automotriz","lat":40.6454446,"lng":-74.0201517,"state":"NY","city":"New York","address":"212 56th Street","zip":"11220","phone":"+1-646-474-7787","email":"","website":"","hours":"Mo-Fr 08:00-18:00; Sa 08:00-15:00","brand":"","services":["general_repair"],"shopType":"general_repair"},{"id":"shop-ny-brooklyn-genesis-of-brooklyn-service-parts","name":"Genesis of Brooklyn Service & Parts","slug":"ny-brooklyn-genesis-of-brooklyn-service-parts","lat":40.649323,"lng":-74.0190972,"state":"NY","city":"Brooklyn","address":"126 51st Street","zip":"11232","phone":"","email":"","website":"","hours":"","brand":"Genesis","services":["general_repair"],"shopType":"general_repair"},{"id":"shop-ny-new-york-alex-collision-auto-repair","name":"Alex Collision & Auto Repair","slug":"ny-new-york-alex-collision-auto-repair","lat":40.6525702,"lng":-74.0108284,"state":"NY","city":"New York","address":"260 42nd Street","zip":"11232","phone":"+1-718-832-0332","email":"","website":"","hours":"","brand":"","services":["body_work"],"shopType":"body_shop"},{"id":"shop-ny-new-york-a-1st-stop-auto-repair","name":"A 1st Stop Auto Repair","slug":"ny-new-york-a-1st-stop-auto-repair","lat":40.6519663,"lng":-74.0105913,"state":"NY","city":"New York","address":"","zip":"","phone":"+1-929-298-0098","email":"","website":"","hours":"","brand":"","services":["general_repair"],"shopType":"general_repair"},{"id":"shop-ny-new-york-friends-tire-shop","name":"Friends Tire Shop","slug":"ny-new-york-friends-tire-shop","lat":40.6560205,"lng":-74.0029503,"state":"NY","city":"New York","address":"900 4th Avenue","zip":"11232","phone":"","email":"","website":"","hours":"","brand":"","services":["tires"],"shopType":"tire_shop"},{"id":"shop-ny-new-york-chino-s-tire-shop","name":"Chino's Tire Shop","slug":"ny-new-york-chino-s-tire-shop","lat":40.6529918,"lng":-74.0060902,"state":"NY","city":"New York","address":"","zip":"","phone":"+1-646-379-8943","email":"","website":"","hours":"Mo-Su 07:00-23:00","brand":"","services":["tires"],"shopType":"tire_shop"},{"id":"shop-ny-new-york-prospect-auto-glass","name":"Prospect Auto Glass","slug":"ny-new-york-prospect-auto-glass","lat":40.660728,"lng":-74.0005507,"state":"NY","city":"New York","address":"773 3rd Avenue","zip":"11232","phone":"+1-718-499-9080","email":"","website":"https://www.prospectautoglass.com","hours":"","brand":"","services":["general_repair"],"shopType":"general_repair"},{"id":"shop-ny-new-york-kings-fort-hamilton-tires-rims","name":"Kings Fort Hamilton Tires & Rims","slug":"ny-new-york-kings-fort-hamilton-tires-rims","lat":40.6440858,"lng":-73.9887679,"state":"NY","city":"New York","address":"3623 Fort Hamilton Parkway","zip":"11218","phone":"","email":"","website":"","hours":"","brand":"","services":["tires"],"shopType":"tire_shop"},{"id":"shop-ny-new-york-punctual-auto-center","name":"Punctual Auto Center","slug":"ny-new-york-punctual-auto-center","lat":40.6413703,"lng":-73.9824517,"state":"NY","city":"New York","address":"18 Church Avenue","zip":"11218","phone":"+1-718-438-2700","email":"","website":"","hours":"","brand":"","services":["general_repair"],"shopType":"general_repair"},{"id":"shop-ny-new-york-brooklyn-auto-sound-glass","name":"Brooklyn Auto Sound & Glass","slug":"ny-new-york-brooklyn-auto-sound-glass","lat":40.6646794,"lng":-73.9939574,"state":"NY","city":"New York","address":"626 4th Avenue","zip":"11215","phone":"+1-718-369-3030","email":"","website":"","hours":"","brand":"","services":["general_repair"],"shopType":"general_repair"},{"id":"shop-ny-new-york-prospect-auto-repair","name":"Prospect Auto Repair","slug":"ny-new-york-prospect-auto-repair","lat":40.6646011,"lng":-73.9940362,"state":"NY","city":"New York","address":"628 4th Avenue","zip":"11215","phone":"+1-718-788-7683","email":"","website":"","hours":"","brand":"","services":["general_repair"],"shopType":"general_repair"},{"id":"shop-ny-new-york-ultra-service-center","name":"Ultra Service Center","slug":"ny-new-york-ultra-service-center","lat":40.6274635,"lng":-73.9660589,"state":"NY","city":"New York","address":"","zip":"","phone":"","email":"","website":"","hours":"","brand":"","services":["general_repair"],"shopType":"general_repair"},{"id":"shop-ny-toronto-apple-auto-glass","name":"Apple Auto Glass","slug":"ny-toronto-apple-auto-glass","lat":43.7068725,"lng":-79.3613942,"state":"NY","city":"Toronto","address":"121 Laird Drive","zip":"M4G 3T7","phone":"","email":"","website":"https://www.appleautoglass.com/locations/ontario/leaside/121-laird-drive","hours":"","brand":"","services":["general_repair"],"shopType":"general_repair"},{"id":"shop-ny-new-york-kings-plaze-auto-repair","name":"Kings Plaze Auto Repair","slug":"ny-new-york-kings-plaze-auto-repair","lat":40.6148688,"lng":-73.9277694,"state":"NY","city":"New York","address":"","zip":"","phone":"","email":"","website":"","hours":"","brand":"","services":["general_repair"],"shopType":"general_repair"},{"id":"shop-ny-new-york-dub-citi","name":"Dub Citi","slug":"ny-new-york-dub-citi","lat":40.6618632,"lng":-73.9316871,"state":"NY","city":"New York","address":"504 Utica Avenue","zip":"11203","phone":"+1-718-975-8011","email":"","website":"https://dubciticar.com","hours":"","brand":"","services":["general_repair"],"shopType":"general_repair"},{"id":"shop-ny-new-york-10-minute-oil-change","name":"10 Minute Oil Change","slug":"ny-new-york-10-minute-oil-change","lat":40.6617589,"lng":-73.9317345,"state":"NY","city":"New York","address":"504 Utica Avenue","zip":"11203","phone":"","email":"","website":"","hours":"","brand":"","services":["oil_change"],"shopType":"quick_lube"},{"id":"shop-ny-new-york-fts-fama-tire-shop","name":"FTS Fama Tire Shop","slug":"ny-new-york-fts-fama-tire-shop","lat":40.6761275,"lng":-73.891996,"state":"NY","city":"New York","address":"2770 Atlantic Avenue","zip":"11207","phone":"+1-929-368-1563","email":"","website":"","hours":"","brand":"","services":["tires"],"shopType":"tire_shop"},{"id":"shop-ny-new-york-jimmy-s-auto-repair-shop","name":"Jimmy's Auto Repair Shop","slug":"ny-new-york-jimmy-s-auto-repair-shop","lat":40.6761722,"lng":-73.8917308,"state":"NY","city":"New York","address":"","zip":"","phone":"+1-718-647-7150","email":"","website":"","hours":"","brand":"","services":["general_repair"],"shopType":"general_repair"},{"id":"shop-ny-new-york-mufflers-discount-center","name":"Mufflers Discount Center","slug":"ny-new-york-mufflers-discount-center","lat":40.677325,"lng":-73.8970521,"state":"NY","city":"New York","address":"","zip":"","phone":"+1-718-346-0466","email":"","website":"","hours":"","brand":"","services":["exhaust"],"shopType":"general_repair"},{"id":"shop-ny-new-york-k-w-chung","name":"K&W Chung","slug":"ny-new-york-k-w-chung","lat":40.6728398,"lng":-73.91111,"state":"NY","city":"New York","address":"301 Rockaway Avenue","zip":"11233","phone":"+1-718-342-0720","email":"","website":"","hours":"","brand":"","services":["general_repair"],"shopType":"general_repair"},{"id":"shop-ny-new-york-marino-tire-shop","name":"Marino Tire Shop","slug":"ny-new-york-marino-tire-shop","lat":40.6940964,"lng":-73.9432948,"state":"NY","city":"New York","address":"304 Throop Avenue","zip":"11206","phone":"+1-718-404-6004","email":"","website":"","hours":"","brand":"","services":["tires"],"shopType":"tire_shop"},{"id":"shop-ny-new-york-unique-truck-auto","name":"Unique Truck & Auto","slug":"ny-new-york-unique-truck-auto","lat":40.6974528,"lng":-73.9694858,"state":"NY","city":"New York","address":"","zip":"","phone":"+1-718-855-1488","email":"","website":"","hours":"","brand":"","services":["general_repair"],"shopType":"general_repair"},{"id":"shop-ny-brooklyn-tvandnav2go","name":"TVandNav2Go","slug":"ny-brooklyn-tvandnav2go","lat":40.6341767,"lng":-73.9147499,"state":"NY","city":"Brooklyn","address":"7718 Flatlands Avenue","zip":"11236","phone":"+1 718 763 7367","email":"","website":"http://tvandnav2go.com/","hours":"","brand":"","services":["electrical"],"shopType":"general_repair"},{"id":"shop-ny-monroe-county-howard-road-garage","name":"Howard Road Garage","slug":"ny-monroe-county-howard-road-garage","lat":43.1635884,"lng":-77.6915059,"state":"NY","city":"Monroe County","address":"","zip":"","phone":"","email":"","website":"","hours":"","brand":"","services":["general_repair"],"shopType":"general_repair"},{"id":"shop-ny-monroe-county-monro-muffler-brake","name":"Monro Muffler Brake","slug":"ny-monroe-county-monro-muffler-brake","lat":43.1639563,"lng":-77.6915226,"state":"NY","city":"Monroe County","address":"","zip":"","phone":"","email":"","website":"","hours":"","brand":"Monro","services":["exhaust","brakes"],"shopType":"general_repair"},{"id":"shop-ny-mississauga-midas","name":"Midas","slug":"ny-mississauga-midas","lat":43.5081459,"lng":-79.6340155,"state":"NY","city":"Mississauga","address":"2176 Royal Windsor Drive","zip":"","phone":"","email":"","website":"https://www.midas.com/","hours":"","brand":"Midas","services":["general_repair"],"shopType":"general_repair"},{"id":"shop-ny-oakville-tryman-s-transmissions-inc","name":"Tryman's Transmissions Inc","slug":"ny-oakville-tryman-s-transmissions-inc","lat":43.4970146,"lng":-79.6469907,"state":"NY","city":"Oakville","address":"1032 Winston Churchill Boulevard","zip":"","phone":"+1-905-849-3990","email":"","website":"","hours":"Mo-Fr 08:00-17:30; Sa 07:00-12:00","brand":"","services":["transmission"],"shopType":"transmission_shop"},{"id":"shop-ny-oakville-sheridan-auto-service","name":"Sheridan Auto Service","slug":"ny-oakville-sheridan-auto-service","lat":43.4969447,"lng":-79.6468693,"state":"NY","city":"Oakville","address":"1032 Winston Churchill Boulevard","zip":"","phone":"+1-905-845-0585","email":"","website":"","hours":"","brand":"","services":["general_repair"],"shopType":"general_repair"},{"id":"shop-ny-oakville-sil-s-complete-auto-care-centre","name":"Sil's Complete Auto Care Centre","slug":"ny-oakville-sil-s-complete-auto-care-centre","lat":43.4973305,"lng":-79.6475444,"state":"NY","city":"Oakville","address":"1040 Winston Churchill Boulevard","zip":"","phone":"+1-905-823-2626","email":"","website":"http://www.SilsAuto.com","hours":"Mo-Fr 07:30-18:00","brand":"","services":["general_repair"],"shopType":"general_repair"},{"id":"shop-ny-long-island-city-tire-town-express","name":"Tire Town Express","slug":"ny-long-island-city-tire-town-express","lat":40.7389118,"lng":-73.9341475,"state":"NY","city":"Long Island City","address":"32-49 Gale Avenue","zip":"11101","phone":"+1-718-784-0404","email":"mztiretown@gmail.com","website":"https://www.tiretownexpress.com/","hours":"","brand":"","services":["tires"],"shopType":"tire_shop"},{"id":"shop-ny-aurora-central-york-automotive","name":"Central York Automotive","slug":"ny-aurora-central-york-automotive","lat":43.998104,"lng":-79.4586393,"state":"NY","city":"Aurora","address":"70 Industrial Parkway South","zip":"","phone":"","email":"","website":"","hours":"","brand":"","services":["general_repair"],"shopType":"general_repair"},{"id":"shop-ny-toronto-bento-s-auto-tire-centre-limited","name":"Bento's Auto & Tire Centre Limited","slug":"ny-toronto-bento-s-auto-tire-centre-limited","lat":43.6515769,"lng":-79.4458671,"state":"NY","city":"Toronto","address":"2000 Dundas Street West","zip":"","phone":"+1-416-533-2500","email":"","website":"https://www.bentosautotirecentrelimited.com/","hours":"","brand":"","services":["tires"],"shopType":"tire_shop"},{"id":"shop-ny-toronto-decent-auto-repair","name":"Decent Auto Repair","slug":"ny-toronto-decent-auto-repair","lat":43.6569811,"lng":-79.4075026,"state":"NY","city":"Toronto","address":"499 Bathurst Street","zip":"","phone":"","email":"","website":"","hours":"","brand":"","services":["general_repair"],"shopType":"general_repair"},{"id":"shop-ny-toronto-four-seasons-auto-glass","name":"Four Seasons Auto Glass","slug":"ny-toronto-four-seasons-auto-glass","lat":43.7106949,"lng":-79.3632984,"state":"NY","city":"Toronto","address":"199 Laird Drive","zip":"M4G 3W3","phone":"+1-416-421-7664","email":"","website":"","hours":"","brand":"","services":["general_repair"],"shopType":"general_repair"},{"id":"shop-ny-new-york-prela-enterprises-inc","name":"Prela Enterprises Inc","slug":"ny-new-york-prela-enterprises-inc","lat":40.758632,"lng":-73.7844572,"state":"NY","city":"New York","address":"42-42 Francis Lewis Boulevard","zip":"11361","phone":"","email":"","website":"","hours":"","brand":"","services":["general_repair"],"shopType":"general_repair"},{"id":"shop-ny-maspeth-gotham-city-collision-east","name":"Gotham City Collision East","slug":"ny-maspeth-gotham-city-collision-east","lat":40.7322964,"lng":-73.902037,"state":"NY","city":"Maspeth","address":"64-10 Maurice Avenue","zip":"11378","phone":"+13479476542","email":"","website":"https://www.gothamcitycollision.com","hours":"Mo-Sa 08:00-17:00","brand":"","services":["body_work","body_repair"],"shopType":"body_shop"},{"id":"shop-ny-queens-five-five-auto-repair","name":"Five Five Auto Repair","slug":"ny-queens-five-five-auto-repair","lat":40.7368175,"lng":-73.8954977,"state":"NY","city":"Queens","address":"50-01 69th Street","zip":"11377","phone":"+1-718-478-6588","email":"","website":"","hours":"","brand":"","services":["general_repair"],"shopType":"general_repair"},{"id":"shop-ny-astoria-the-scooter-shop","name":"The Scooter shop","slug":"ny-astoria-the-scooter-shop","lat":40.7704749,"lng":-73.9181191,"state":"NY","city":"Astoria","address":"2922 Hoyt Avenue South","zip":"11102","phone":"","email":"","website":"","hours":"","brand":"","services":["general_repair"],"shopType":"general_repair"},{"id":"shop-ny-new-york-a-rich-auto-works","name":"A Rich Auto Works","slug":"ny-new-york-a-rich-auto-works","lat":40.686954,"lng":-73.8428199,"state":"NY","city":"New York","address":"97-02 100th Street","zip":"11416","phone":"+1-718-843-0203","email":"","website":"","hours":"","brand":"","services":["general_repair"],"shopType":"general_repair"},{"id":"shop-ny-jamaica-pro-body-shop","name":"Pro Body Shop","slug":"ny-jamaica-pro-body-shop","lat":40.7052361,"lng":-73.8109472,"state":"NY","city":"Jamaica","address":"144-24 Hillside Avenue","zip":"11435","phone":"+1-718-297-2121","email":"","website":"","hours":"","brand":"","services":["body_work"],"shopType":"body_shop"},{"id":"shop-ny-hastings-on-hudson-straub-auto-repairs","name":"Straub Auto Repairs","slug":"ny-hastings-on-hudson-straub-auto-repairs","lat":40.9925474,"lng":-73.883254,"state":"NY","city":"Hastings on Hudson","address":"477 Warburton Avenue","zip":"10706","phone":"+1-914-478-1177","email":"","website":"","hours":"","brand":"","services":["general_repair"],"shopType":"general_repair"},{"id":"shop-ny-town-of-moriah-port-henry-village-public-works","name":"Port Henry Village Public Works","slug":"ny-town-of-moriah-port-henry-village-public-works","lat":44.0473715,"lng":-73.4603354,"state":"NY","city":"Town of Moriah","address":"","zip":"","phone":"","email":"","website":"","hours":"","brand":"","services":["general_repair"],"shopType":"general_repair"},{"id":"shop-ny-town-of-moriah-champ2000-com-inc","name":"Champ2000.com Inc.","slug":"ny-town-of-moriah-champ2000-com-inc","lat":44.045257,"lng":-73.4600769,"state":"NY","city":"Town of Moriah","address":"","zip":"","phone":"","email":"","website":"","hours":"","brand":"","services":["general_repair"],"shopType":"general_repair"},{"id":"shop-ny-town-of-moriah-sleeper-s-automotive","name":"Sleeper's Automotive","slug":"ny-town-of-moriah-sleeper-s-automotive","lat":44.043063,"lng":-73.459401,"state":"NY","city":"Town of Moriah","address":"","zip":"","phone":"","email":"","website":"","hours":"","brand":"","services":["general_repair"],"shopType":"general_repair"},{"id":"shop-ny-town-of-moriah-moriah-buildings-and-grounds","name":"Moriah Buildings and Grounds","slug":"ny-town-of-moriah-moriah-buildings-and-grounds","lat":44.0380538,"lng":-73.45924,"state":"NY","city":"Town of Moriah","address":"","zip":"","phone":"","email":"","website":"","hours":"","brand":"","services":["general_repair"],"shopType":"general_repair"},{"id":"shop-ny-town-of-moriah-port-henry-service-center","name":"Port Henry Service Center","slug":"ny-town-of-moriah-port-henry-service-center","lat":44.0334876,"lng":-73.4622334,"state":"NY","city":"Town of Moriah","address":"","zip":"","phone":"","email":"","website":"","hours":"","brand":"","services":["general_repair"],"shopType":"general_repair"},{"id":"shop-ny-town-of-moriah-jim-s-body-shop","name":"Jim's Body Shop","slug":"ny-town-of-moriah-jim-s-body-shop","lat":44.0493133,"lng":-73.4659241,"state":"NY","city":"Town of Moriah","address":"","zip":"","phone":"","email":"","website":"","hours":"","brand":"","services":["body_work"],"shopType":"body_shop"},{"id":"shop-ny-town-of-moriah-sleeper-s","name":"Sleeper's","slug":"ny-town-of-moriah-sleeper-s","lat":44.0610564,"lng":-73.5090594,"state":"NY","city":"Town of Moriah","address":"","zip":"","phone":"","email":"","website":"","hours":"","brand":"","services":["general_repair"],"shopType":"general_repair"},{"id":"shop-ny-town-of-moriah-leroy-s","name":"Leroy's","slug":"ny-town-of-moriah-leroy-s","lat":44.0472081,"lng":-73.4747003,"state":"NY","city":"Town of Moriah","address":"","zip":"","phone":"","email":"","website":"","hours":"","brand":"","services":["general_repair"],"shopType":"general_repair"},{"id":"shop-ny-city-of-plattsburgh-yipes-stripes","name":"Yipes Stripes","slug":"ny-city-of-plattsburgh-yipes-stripes","lat":44.6811406,"lng":-73.4519444,"state":"NY","city":"City of Plattsburgh","address":"","zip":"","phone":"","email":"","website":"","hours":"","brand":"","services":["general_repair"],"shopType":"general_repair"},{"id":"shop-ny-city-of-plattsburgh-windshield-world","name":"Windshield World","slug":"ny-city-of-plattsburgh-windshield-world","lat":44.6977569,"lng":-73.4796892,"state":"NY","city":"City of Plattsburgh","address":"","zip":"","phone":"","email":"","website":"","hours":"","brand":"","services":["general_repair"],"shopType":"general_repair"},{"id":"shop-ny-city-of-plattsburgh-bailey-ford-of-plattsburgh-parts","name":"Bailey Ford of Plattsburgh Parts","slug":"ny-city-of-plattsburgh-bailey-ford-of-plattsburgh-parts","lat":44.6976921,"lng":-73.479201,"state":"NY","city":"City of Plattsburgh","address":"","zip":"","phone":"","email":"","website":"","hours":"","brand":"Ford","services":["general_repair"],"shopType":"general_repair"},{"id":"shop-ny-town-of-moriah-h-b-repair","name":"H & B Repair","slug":"ny-town-of-moriah-h-b-repair","lat":44.1070285,"lng":-73.5175762,"state":"NY","city":"Town of Moriah","address":"","zip":"","phone":"","email":"","website":"","hours":"","brand":"","services":["general_repair"],"shopType":"general_repair"},{"id":"shop-ny-oakville-carstar-collision-and-glass-service","name":"Carstar Collision and Glass Service","slug":"ny-oakville-carstar-collision-and-glass-service","lat":43.4950387,"lng":-79.6444283,"state":"NY","city":"Oakville","address":"916 Winston Churchill Boulevard","zip":"","phone":"","email":"","website":"","hours":"","brand":"Carstar","services":["body_work","body_repair"],"shopType":"body_shop"},{"id":"shop-ny-toronto-algrave-auto-clinic","name":"Algrave Auto Clinic","slug":"ny-toronto-algrave-auto-clinic","lat":43.6652748,"lng":-79.4810279,"state":"NY","city":"Toronto","address":"3327 Dundas Street West","zip":"","phone":"","email":"","website":"","hours":"","brand":"","services":["general_repair"],"shopType":"general_repair"},{"id":"shop-ny-city-of-saratoga-springs-h-v-collision-center","name":"H&V Collision Center","slug":"ny-city-of-saratoga-springs-h-v-collision-center","lat":43.0372922,"lng":-73.8250927,"state":"NY","city":"City of Saratoga Springs","address":"2202 New York 50","zip":"12866","phone":"","email":"","website":"handvcollision.com","hours":"","brand":"","services":["body_work"],"shopType":"body_shop"},{"id":"shop-ny-endicott-auto-smart-llc","name":"Auto Smart, LLC","slug":"ny-endicott-auto-smart-llc","lat":42.0694341,"lng":-76.1225306,"state":"NY","city":"Endicott","address":"8767 State Route 17C","zip":"13760","phone":"","email":"","website":"","hours":"Mo-Fr 09:00-18:00; Sa-Su \"on appointment\"","brand":"","services":["used_car_sales"],"shopType":"general_repair"},{"id":"shop-ny-queensbury-midas","name":"Midas","slug":"ny-queensbury-midas","lat":43.3323564,"lng":-73.6433125,"state":"NY","city":"Queensbury","address":"333 Quaker Road","zip":"12804","phone":"","email":"","website":"https://www.midas.com/albany-ny/store.aspx?shopnum=6842&dmanum=20001","hours":"","brand":"Midas","services":["general_repair"],"shopType":"general_repair"},{"id":"shop-ny-town-of-east-fishkill-clove-branch-muffler-brake","name":"Clove Branch Muffler & Brake","slug":"ny-town-of-east-fishkill-clove-branch-muffler-brake","lat":41.5961941,"lng":-73.7941348,"state":"NY","city":"Town of East Fishkill","address":"","zip":"","phone":"","email":"","website":"","hours":"","brand":"","services":["exhaust","brakes"],"shopType":"general_repair"},{"id":"shop-ny-gormley-unique-auto-service","name":"Unique Auto Service","slug":"ny-gormley-unique-auto-service","lat":44.0048943,"lng":-79.3932901,"state":"NY","city":"Gormley","address":"14806 Woodbine Avenue","zip":"L0H 1G0","phone":"","email":"","website":"","hours":"","brand":"","services":["general_repair"],"shopType":"general_repair"},{"id":"shop-ny-ithaca-trombley-tire-auto-service","name":"Trombley Tire & Auto Service","slug":"ny-ithaca-trombley-tire-auto-service","lat":42.4394667,"lng":-76.5127799,"state":"NY","city":"Ithaca","address":"917 West State Street","zip":"14850","phone":"+1-607-273-2236","email":"","website":"https://www.trombleytireandauto.com/locations/mode/d/locationid/4.aspx","hours":"Mo-Fr 07:30-17:30; Sa 07:30-13:00","brand":"","services":["tires"],"shopType":"tire_shop"},{"id":"shop-ny-town-of-moriah-mike-s-auto-detailing","name":"Mike's Auto Detailing","slug":"ny-town-of-moriah-mike-s-auto-detailing","lat":44.0351049,"lng":-73.4621167,"state":"NY","city":"Town of Moriah","address":"","zip":"","phone":"","email":"","website":"","hours":"","brand":"","services":["general_repair"],"shopType":"general_repair"},{"id":"shop-ny-oshawa-apex-auto-centre","name":"Apex Auto Centre","slug":"ny-oshawa-apex-auto-centre","lat":43.8995538,"lng":-78.8570426,"state":"NY","city":"Oshawa","address":"190 King Street East","zip":"","phone":"+1-905-436-3000","email":"","website":"","hours":"Mo-Fr 08:00-18:00; Sa 08:00-14:00; Su closed","brand":"","services":["general_repair"],"shopType":"general_repair"},{"id":"shop-ny-bowmanville-cct-auto-trans-inc","name":"CCT Auto-Trans Inc","slug":"ny-bowmanville-cct-auto-trans-inc","lat":43.8863249,"lng":-78.7445947,"state":"NY","city":"Bowmanville","address":"1960 Baseline Road West","zip":"","phone":"+1-905-433-4799","email":"","website":"https://www.cctautotrans.ca/","hours":"","brand":"","services":["general_repair"],"shopType":"general_repair"},{"id":"shop-ny-ajax-brotech-automotive-service","name":"Brotech Automotive Service","slug":"ny-ajax-brotech-automotive-service","lat":43.8338745,"lng":-79.0321929,"state":"NY","city":"Ajax","address":"200 Fuller Road","zip":"L1S 7G9","phone":"+1-905-683-8773","email":"","website":"","hours":"","brand":"","services":["general_repair"],"shopType":"general_repair"},{"id":"shop-ny-ajax-hajson-limited","name":"Hajson Limited","slug":"ny-ajax-hajson-limited","lat":43.8469095,"lng":-79.0255559,"state":"NY","city":"Ajax","address":"158 Hunt Street","zip":"L1S 1P5","phone":"+1-905-683-8121","email":"","website":"","hours":"","brand":"","services":["general_repair"],"shopType":"general_repair"},{"id":"shop-ny-livonia-commercial-automotive-inc","name":"Commercial Automotive, Inc.","slug":"ny-livonia-commercial-automotive-inc","lat":42.8205455,"lng":-77.6691668,"state":"NY","city":"Livonia","address":"28 Commercial Street","zip":"14487","phone":"+1-585-346-9010","email":"","website":"http://www.commercialautomotivelivonia.com","hours":"","brand":"","services":["general_repair"],"shopType":"general_repair"},{"id":"shop-ny-red-hook-vin-s-auto-service","name":"Vin's Auto Service","slug":"ny-red-hook-vin-s-auto-service","lat":41.9942349,"lng":-73.8703188,"state":"NY","city":"Red Hook","address":"East Market Street","zip":"12571","phone":"","email":"","website":"","hours":"","brand":"","services":["general_repair"],"shopType":"general_repair"},{"id":"shop-ny-corning-monro","name":"Monro","slug":"ny-corning-monro","lat":42.1527587,"lng":-77.0784106,"state":"NY","city":"Corning","address":"368 Pulteney Street","zip":"14830","phone":"","email":"","website":"","hours":"","brand":"Monro","services":["exhaust","brakes"],"shopType":"general_repair"},{"id":"shop-ny-ajax-mr-c-a-r-b","name":"Mr C.A.R.B","slug":"ny-ajax-mr-c-a-r-b","lat":43.8461429,"lng":-79.0268542,"state":"NY","city":"Ajax","address":"","zip":"","phone":"","email":"","website":"","hours":"","brand":"","services":["general_repair"],"shopType":"general_repair"},{"id":"shop-ny-north-york-mister-transmission","name":"Mister Transmission","slug":"ny-north-york-mister-transmission","lat":43.7551436,"lng":-79.4871269,"state":"NY","city":"North York","address":"30 St Regis Crescent","zip":"M3J 1Y5","phone":"","email":"","website":"","hours":"Mo-Fr 08:00-18:00; Sa 08:00-12:00; Su off","brand":"Mister Transmission","services":["transmission"],"shopType":"transmission_shop"},{"id":"shop-ny-town-of-camillus-midas","name":"Midas","slug":"ny-town-of-camillus-midas","lat":43.0469413,"lng":-76.2403938,"state":"NY","city":"Town of Camillus","address":"West Genesee Street","zip":"","phone":"","email":"","website":"","hours":"","brand":"Midas","services":["general_repair"],"shopType":"general_repair"},{"id":"shop-ny-jamesville-cooke-s-car-care","name":"Cooke's Car Care","slug":"ny-jamesville-cooke-s-car-care","lat":42.9950083,"lng":-76.0706464,"state":"NY","city":"Jamesville","address":"4614 North Street","zip":"13078","phone":"+1-315-492-0966","email":"","website":"http://www.napaautocare.com/store.aspx?id=227958","hours":"Mo-Fr 08:00-17:00","brand":"NAPA","services":["general_repair"],"shopType":"general_repair"},{"id":"shop-ny-york-guytech-auto-service-inc","name":"Guytech Auto Service Inc.","slug":"ny-york-guytech-auto-service-inc","lat":43.6819686,"lng":-79.4751133,"state":"NY","city":"York","address":"642 Rogers Road","zip":"","phone":"","email":"","website":"","hours":"","brand":"","services":["general_repair"],"shopType":"general_repair"},{"id":"shop-ny-mississauga-active-green-ross","name":"Active Green + Ross","slug":"ny-mississauga-active-green-ross","lat":43.5649849,"lng":-79.6349201,"state":"NY","city":"Mississauga","address":"735 Dundas Street West","zip":"L5C 3B6","phone":"","email":"","website":"","hours":"","brand":"Active Green + Ross","services":["general_repair"],"shopType":"general_repair"},{"id":"shop-ny-aurora-mr-lube","name":"Mr. Lube","slug":"ny-aurora-mr-lube","lat":44.0116049,"lng":-79.4174958,"state":"NY","city":"Aurora","address":"1540 Wellington Street East","zip":"L4G 7B7","phone":"+1-905-727-1313","email":"","website":"","hours":"Mo-Fr 08:00-20:00; Sa 08:00-18:00; Su 09:00-17:00","brand":"Mr. Lube","services":["oil_change"],"shopType":"quick_lube"},{"id":"shop-ny-toronto-gb-autos-trucks","name":"GB Autos & Trucks","slug":"ny-toronto-gb-autos-trucks","lat":43.6185503,"lng":-79.5365623,"state":"NY","city":"Toronto","address":"1509 The Queensway","zip":"M8Z 1T3","phone":"+1 416-251-2500;+1 416-622-9111","email":"","website":"https://gbautos.ca/","hours":"Mo-Fr 08:00-18:00, Sa 09:00-14:00","brand":"","services":["general_repair"],"shopType":"general_repair"},{"id":"shop-ny-east-york-assured-collision-centre","name":"Assured Collision Centre","slug":"ny-east-york-assured-collision-centre","lat":43.7115196,"lng":-79.3590516,"state":"NY","city":"East York","address":"90 Wicksteed Avenue","zip":"","phone":"","email":"","website":"","hours":"","brand":"","services":["body_work"],"shopType":"body_shop"},{"id":"shop-ny-markham-pronto-auto","name":"Pronto Auto","slug":"ny-markham-pronto-auto","lat":43.8718331,"lng":-79.2639945,"state":"NY","city":"Markham","address":"5833 Highway 7","zip":"","phone":"","email":"","website":"","hours":"","brand":"","services":["general_repair"],"shopType":"general_repair"},{"id":"shop-ny-holbrook-superior-auto-collision","name":"Superior Auto Collision","slug":"ny-holbrook-superior-auto-collision","lat":40.7787656,"lng":-73.0843879,"state":"NY","city":"Holbrook","address":"1150-3 Lincoln Avenue","zip":"11741","phone":"","email":"","website":"","hours":"","brand":"","services":["body_work"],"shopType":"body_shop"},{"id":"shop-ny-midhurst-oil-tech-tire-auto","name":"Oil Tech Tire & Auto","slug":"ny-midhurst-oil-tech-tire-auto","lat":44.4365378,"lng":-79.7329471,"state":"NY","city":"Midhurst","address":"1152 Bayfield Street North","zip":"L0L 1X0","phone":"","email":"","website":"https://www.midhurstautorepair.ca/","hours":"","brand":"","services":["tires"],"shopType":"tire_shop"},{"id":"shop-ny-oshawa-monroe-auto","name":"Monroe Auto","slug":"ny-oshawa-monroe-auto","lat":43.8817588,"lng":-78.8483409,"state":"NY","city":"Oshawa","address":"Bloor Street East","zip":"","phone":"","email":"","website":"","hours":"","brand":"Monro","services":["general_repair"],"shopType":"general_repair"},{"id":"shop-ny-city-of-syracuse-b-t-auto-service","name":"B&T Auto Service","slug":"ny-city-of-syracuse-b-t-auto-service","lat":43.0583752,"lng":-76.1499871,"state":"NY","city":"City of Syracuse","address":"","zip":"","phone":"","email":"","website":"","hours":"","brand":"","services":["general_repair"],"shopType":"general_repair"},{"id":"shop-ny-toronto-m-s-auto-experts","name":"M&S Auto Experts","slug":"ny-toronto-m-s-auto-experts","lat":43.6648189,"lng":-79.4589972,"state":"NY","city":"Toronto","address":"2692 Dundas Street West","zip":"","phone":"+1-416-766-9693","email":"","website":"","hours":"","brand":"","services":["general_repair"],"shopType":"general_repair"},{"id":"shop-ny-cicero-ziebart","name":"Ziebart","slug":"ny-cicero-ziebart","lat":43.1631248,"lng":-76.0943885,"state":"NY","city":"Cicero","address":"6174 South Bay Road","zip":"13039","phone":"+1-315-699-4944","email":"","website":"http://www.ziebart.com/find-my-local-ziebart/location/ny18-6174-s-bay-rd-cicero-ny-13039","hours":"","brand":"","services":["general_repair"],"shopType":"general_repair"},{"id":"shop-ny-camillus-mavis-discount-tire","name":"Mavis Discount Tire","slug":"ny-camillus-mavis-discount-tire","lat":43.0414851,"lng":-76.2728835,"state":"NY","city":"Camillus","address":"5332 West Genesee Street","zip":"13031","phone":"","email":"","website":"","hours":"","brand":"Discount Tire","services":["tires"],"shopType":"tire_shop"},{"id":"shop-ny-whitby-active-green-ross","name":"Active Green + Ross","slug":"ny-whitby-active-green-ross","lat":43.8843298,"lng":-78.9238914,"state":"NY","city":"Whitby","address":"1110 Dundas Street East","zip":"","phone":"","email":"","website":"","hours":"","brand":"Active Green + Ross","services":["general_repair"],"shopType":"general_repair"},{"id":"shop-ny-pickering-dac-s-automotive","name":"Dac's Automotive","slug":"ny-pickering-dac-s-automotive","lat":43.81782,"lng":-79.0559823,"state":"NY","city":"Pickering","address":"McKay Road","zip":"","phone":"","email":"","website":"","hours":"","brand":"","services":["general_repair"],"shopType":"general_repair"},{"id":"shop-ny-syracuse-moores-tire-sales","name":"Moores Tire Sales","slug":"ny-syracuse-moores-tire-sales","lat":43.0532385,"lng":-76.1264753,"state":"NY","city":"Syracuse","address":"931 Burnet Avenue","zip":"13203","phone":"+1 315 474 0610","email":"","website":"http://www.moorestiresales.com","hours":"","brand":"","services":["tires"],"shopType":"tire_shop"},{"id":"shop-ny-city-of-ithaca-wink-s-auto-repair","name":"Wink's Auto Repair","slug":"ny-city-of-ithaca-wink-s-auto-repair","lat":42.4424679,"lng":-76.5100908,"state":"NY","city":"City of Ithaca","address":"","zip":"","phone":"","email":"","website":"","hours":"","brand":"","services":["general_repair"],"shopType":"general_repair"},{"id":"shop-ny-village-of-lansing-bj-s","name":"BJ's","slug":"ny-village-of-lansing-bj-s","lat":42.486898,"lng":-76.4922255,"state":"NY","city":"Village of Lansing","address":"","zip":"","phone":"","email":"","website":"","hours":"","brand":"","services":["tires"],"shopType":"general_repair"},{"id":"shop-ny-camillus-dunn-tire","name":"Dunn Tire","slug":"ny-camillus-dunn-tire","lat":43.053119,"lng":-76.2605772,"state":"NY","city":"Camillus","address":"3690 Milton Avenue","zip":"13031","phone":"+1 315 410 8600","email":"","website":"http://www.dunntire.com/","hours":"Mo-Fr 07:00-18:00; Sa 08:00-16:00","brand":"Dunn Tire","services":["tires"],"shopType":"tire_shop"},{"id":"shop-ny-town-of-greenwich-warren-tire-service-center","name":"Warren Tire Service Center","slug":"ny-town-of-greenwich-warren-tire-service-center","lat":43.095252,"lng":-73.5082389,"state":"NY","city":"Town of Greenwich","address":"","zip":"","phone":"","email":"","website":"","hours":"","brand":"","services":["tires"],"shopType":"tire_shop"},{"id":"shop-ny-new-paltz-absolutely-automotive","name":"Absolutely Automotive","slug":"ny-new-paltz-absolutely-automotive","lat":41.7399209,"lng":-74.0567601,"state":"NY","city":"New Paltz","address":"","zip":"","phone":"","email":"","website":"","hours":"","brand":"","services":["general_repair"],"shopType":"general_repair"},{"id":"shop-ny-maple-above-toronto-collision","name":"Above Toronto Collision","slug":"ny-maple-above-toronto-collision","lat":43.8723292,"lng":-79.5133906,"state":"NY","city":"Maple","address":"85 Malmo Court","zip":"","phone":"","email":"","website":"","hours":"","brand":"","services":["body_work"],"shopType":"body_shop"},{"id":"shop-ny-whitby-crispin-automotive","name":"Crispin Automotive","slug":"ny-whitby-crispin-automotive","lat":43.8778604,"lng":-78.919442,"state":"NY","city":"Whitby","address":"401 Hopkins Street","zip":"","phone":"","email":"","website":"","hours":"","brand":"","services":["general_repair"],"shopType":"general_repair"},{"id":"shop-ny-town-of-cicero-burdick-toyota-scion-service-and-parts","name":"Burdick Toyota - Scion Service and Parts","slug":"ny-town-of-cicero-burdick-toyota-scion-service-and-parts","lat":43.1526701,"lng":-76.112311,"state":"NY","city":"Town of Cicero","address":"","zip":"","phone":"+1-315-459-6070","email":"","website":"https://www.burdicktoyota.com/service/index.htm","hours":"Mo-Th 07:00-19:00; Fr 07:00-18:00; Sa 07:30-16:00","brand":"","services":["general_repair"],"shopType":"general_repair"},{"id":"shop-ny-oshawa-ck-collision","name":"CK Collision","slug":"ny-oshawa-ck-collision","lat":43.877665,"lng":-78.8442213,"state":"NY","city":"Oshawa","address":"838 Ritson Road South","zip":"","phone":"","email":"","website":"","hours":"","brand":"","services":["body_work"],"shopType":"body_shop"},{"id":"shop-ny-port-perry-mark-willes-automotive","name":"Mark Willes Automotive","slug":"ny-port-perry-mark-willes-automotive","lat":44.1086886,"lng":-78.9717775,"state":"NY","city":"Port Perry","address":"2-1511 Reach Street","zip":"L9L 1B2","phone":"+1-905-985-9292","email":"","website":"","hours":"08:00-17:00","brand":"","services":["general_repair"],"shopType":"general_repair"},{"id":"shop-ny-port-perry-superior-tire-auto","name":"Superior Tire & Auto","slug":"ny-port-perry-superior-tire-auto","lat":44.1085451,"lng":-78.9714345,"state":"NY","city":"Port Perry","address":"1511 Reach Street","zip":"L9L 1B2","phone":"","email":"","website":"","hours":"08:00-18:00","brand":"","services":["tires"],"shopType":"tire_shop"},{"id":"shop-ny-town-of-west-seneca-tnt-express-lube","name":"TNT Express Lube","slug":"ny-town-of-west-seneca-tnt-express-lube","lat":42.8391815,"lng":-78.753719,"state":"NY","city":"Town of West Seneca","address":"","zip":"","phone":"","email":"","website":"http://www.tntexpresslube.com/","hours":"","brand":"","services":["oil_change"],"shopType":"quick_lube"},{"id":"shop-ny-barrie-napa-autocare-centre","name":"NAPA Autocare Centre","slug":"ny-barrie-napa-autocare-centre","lat":44.3804761,"lng":-79.6941125,"state":"NY","city":"Barrie","address":"126 Bradford Street","zip":"L4N 3B3","phone":"+1 705-719-0773","email":"","website":"https://napaautocare.ca/find-a-location/","hours":"","brand":"NAPA AutoCare Center","services":["general_repair"],"shopType":"general_repair"},{"id":"shop-ny-city-of-syracuse-car-magic-by-curtis","name":"Car Magic by Curtis","slug":"ny-city-of-syracuse-car-magic-by-curtis","lat":43.0121997,"lng":-76.134161,"state":"NY","city":"City of Syracuse","address":"","zip":"","phone":"","email":"","website":"","hours":"","brand":"","services":["general_repair"],"shopType":"general_repair"},{"id":"shop-ny-village-of-new-paltz-new-paltz-auto-works","name":"New Paltz Auto Works","slug":"ny-village-of-new-paltz-new-paltz-auto-works","lat":41.7468009,"lng":-74.0807893,"state":"NY","city":"Village of New Paltz","address":"","zip":"","phone":"","email":"","website":"","hours":"","brand":"","services":["general_repair"],"shopType":"general_repair"},{"id":"shop-ny-lindenhurst-bullet-proof-transmission","name":"Bullet Proof Transmission","slug":"ny-lindenhurst-bullet-proof-transmission","lat":40.6847485,"lng":-73.3828119,"state":"NY","city":"Lindenhurst","address":"300 West Hoffman Avenue","zip":"11757","phone":"","email":"","website":"","hours":"Mo-Fr 08:00-17:00","brand":"","services":["transmission"],"shopType":"transmission_shop"},{"id":"shop-ny-toronto-loi-s-wheelchair-van-solutions","name":"Loi's Wheelchair Van Solutions","slug":"ny-toronto-loi-s-wheelchair-van-solutions","lat":43.7586069,"lng":-79.4764418,"state":"NY","city":"Toronto","address":"4061 Chesswood Drive","zip":"","phone":"+1-416-636-0612","email":"","website":"https://www.loiwvs.com/","hours":"\"call\"","brand":"","services":["general_repair"],"shopType":"general_repair"},{"id":"shop-ny-town-of-islip-atlantic-chevrolet-cadillac","name":"Atlantic Chevrolet Cadillac","slug":"ny-town-of-islip-atlantic-chevrolet-cadillac","lat":40.7326806,"lng":-73.2579453,"state":"NY","city":"Town of Islip","address":"","zip":"","phone":"","email":"","website":"","hours":"","brand":"","services":["ac"],"shopType":"general_repair"},{"id":"shop-ny-town-of-maryland-the-tire-lubricant-warehouse","name":"The Tire & Lubricant Warehouse","slug":"ny-town-of-maryland-the-tire-lubricant-warehouse","lat":42.536068,"lng":-74.8912373,"state":"NY","city":"Town of Maryland","address":"","zip":"","phone":"","email":"","website":"","hours":"","brand":"","services":["tires"],"shopType":"tire_shop"},{"id":"shop-ny-mississauga-abv-auto-care","name":"ABV Auto Care","slug":"ny-mississauga-abv-auto-care","lat":43.5645909,"lng":-79.5723773,"state":"NY","city":"Mississauga","address":"411 Lakeshore Road East","zip":"","phone":"+1-905-891-6776","email":"","website":"","hours":"","brand":"","services":["general_repair"],"shopType":"general_repair"},{"id":"shop-ny-town-of-canton-star-route-auto","name":"Star Route Auto","slug":"ny-town-of-canton-star-route-auto","lat":44.5689019,"lng":-75.1425047,"state":"NY","city":"Town of Canton","address":"","zip":"","phone":"","email":"","website":"","hours":"","brand":"","services":["general_repair"],"shopType":"general_repair"},{"id":"shop-ny-town-of-ballston-gil-s-garage","name":"Gil's Garage","slug":"ny-town-of-ballston-gil-s-garage","lat":42.9124047,"lng":-73.8971788,"state":"NY","city":"Town of Ballston","address":"","zip":"","phone":"+1 518 3061651","email":"","website":"https://www.gilsgarage.com/","hours":"","brand":"","services":["general_repair"],"shopType":"general_repair"},{"id":"shop-ny-town-of-onondaga-greeley-s-auto-tire-service","name":"Greeley's Auto & Tire Service","slug":"ny-town-of-onondaga-greeley-s-auto-tire-service","lat":42.982322,"lng":-76.1431696,"state":"NY","city":"Town of Onondaga","address":"","zip":"","phone":"","email":"","website":"http://www.greeleysautoandtires.com/","hours":"","brand":"ACDelco","services":["tires"],"shopType":"tire_shop"},{"id":"shop-ny-town-of-salina-goodyear","name":"Goodyear","slug":"ny-town-of-salina-goodyear","lat":43.1063779,"lng":-76.1464493,"state":"NY","city":"Town of Salina","address":"","zip":"","phone":"","email":"","website":"http://www.goodyearautoservice.com/home.jsp","hours":"","brand":"Goodyear","services":["general_repair"],"shopType":"general_repair"},{"id":"shop-ny-syracuse-ziebart","name":"Ziebart","slug":"ny-syracuse-ziebart","lat":43.0569505,"lng":-76.1837599,"state":"NY","city":"Syracuse","address":"980 Hiawatha Boulevard West","zip":"13204","phone":"+1-315-471-3003","email":"","website":"http://ziebart.com/","hours":"Mo-Fr 08:00-17:00","brand":"","services":["general_repair"],"shopType":"general_repair"},{"id":"shop-ny-lindenhurst-monster-s-recycling","name":"Monster's Recycling","slug":"ny-lindenhurst-monster-s-recycling","lat":40.6953192,"lng":-73.3551996,"state":"NY","city":"Lindenhurst","address":"200 Reid St","zip":"11757","phone":"+1 631 6611500","email":"","website":"http://monsters-recycling.com","hours":"Mo-Fr 08:00-17:00; Sa 08:00-13:00; Su off","brand":"","services":["engine_repair","transmission"],"shopType":"general_repair"},{"id":"shop-ny-city-of-schenectady-ronnie-son-s-auto-repair","name":"Ronnie & Son's Auto Repair","slug":"ny-city-of-schenectady-ronnie-son-s-auto-repair","lat":42.7774806,"lng":-73.9004786,"state":"NY","city":"City of Schenectady","address":"","zip":"","phone":"","email":"","website":"","hours":"","brand":"","services":["general_repair"],"shopType":"general_repair"},{"id":"shop-ny-city-of-schenectady-state-transmission","name":"State Transmission","slug":"ny-city-of-schenectady-state-transmission","lat":42.7777582,"lng":-73.9007294,"state":"NY","city":"City of Schenectady","address":"","zip":"","phone":"","email":"","website":"","hours":"","brand":"","services":["transmission"],"shopType":"transmission_shop"},{"id":"shop-ny-city-of-syracuse-c-b-auto","name":"C&B Auto","slug":"ny-city-of-syracuse-c-b-auto","lat":43.0524922,"lng":-76.1845228,"state":"NY","city":"City of Syracuse","address":"","zip":"","phone":"","email":"","website":"","hours":"","brand":"","services":["general_repair"],"shopType":"general_repair"},{"id":"shop-ny-jamesville-jamesville-car-care","name":"Jamesville Car Care","slug":"ny-jamesville-jamesville-car-care","lat":42.996713,"lng":-76.1128396,"state":"NY","city":"Jamesville","address":"5894 East Seneca Turnpike","zip":"13078","phone":"+1 315 469 5008","email":"","website":"","hours":"","brand":"","services":["general_repair"],"shopType":"general_repair"},{"id":"shop-ny-town-of-skaneateles-wirth-s-automotive-inc","name":"Wirth's Automotive INC.","slug":"ny-town-of-skaneateles-wirth-s-automotive-inc","lat":42.9446584,"lng":-76.4125106,"state":"NY","city":"Town of Skaneateles","address":"","zip":"","phone":"","email":"","website":"","hours":"","brand":"ACDelco","services":["general_repair"],"shopType":"general_repair"},{"id":"shop-ny-amsterdam-mid-city-auto-repair","name":"Mid City Auto Repair","slug":"ny-amsterdam-mid-city-auto-repair","lat":42.9265642,"lng":-74.1704916,"state":"NY","city":"Amsterdam","address":"325 Chapman Drive","zip":"12010","phone":"","email":"","website":"","hours":"","brand":"","services":["general_repair"],"shopType":"general_repair"},{"id":"shop-ny-brooklyn-guaranteed-alarm-glass-inc","name":"Guaranteed Alarm & Glass Inc.","slug":"ny-brooklyn-guaranteed-alarm-glass-inc","lat":40.5826284,"lng":-73.9596625,"state":"NY","city":"Brooklyn","address":"3029 Coney Island Avenue","zip":"11235","phone":"+1 718 6464110","email":"","website":"http://guaranteedalarmandglassinc.com","hours":"Mo-Fr 09:00-18:00; Sa 09:00-17:00","brand":"","services":["general_repair"],"shopType":"general_repair"},{"id":"shop-ny-locust-valley-hans-auto-services","name":"Hans Auto Services","slug":"ny-locust-valley-hans-auto-services","lat":40.8751743,"lng":-73.5964954,"state":"NY","city":"Locust Valley","address":"6 Birch Hill Road","zip":"11560","phone":"+1 516-676-0526","email":"","website":"","hours":"","brand":"","services":["general_repair"],"shopType":"general_repair"},{"id":"shop-ny-city-of-glen-cove-car-salon","name":"Car Salon","slug":"ny-city-of-glen-cove-car-salon","lat":40.8741655,"lng":-73.6147691,"state":"NY","city":"City of Glen Cove","address":"","zip":"","phone":"+1-516-674-4060","email":"","website":"","hours":"","brand":"","services":["general_repair"],"shopType":"general_repair"},{"id":"shop-ny-village-of-moravia-performance-automotive-marine-service","name":"Performance Automotive & Marine Service","slug":"ny-village-of-moravia-performance-automotive-marine-service","lat":42.7044757,"lng":-76.4209039,"state":"NY","city":"Village of Moravia","address":"","zip":"","phone":"+1 315 487 3317","email":"","website":"","hours":"","brand":"","services":["general_repair"],"shopType":"general_repair"},{"id":"shop-ny-stoney-creek-five-star","name":"Five Star","slug":"ny-stoney-creek-five-star","lat":43.1631752,"lng":-79.7335856,"state":"NY","city":"Stoney Creek","address":"460 Highway 20 East","zip":"L0R 1P0","phone":"","email":"","website":"","hours":"","brand":"","services":["general_repair"],"shopType":"general_repair"},{"id":"shop-ny-town-of-amherst-delta-sonic","name":"Delta Sonic","slug":"ny-town-of-amherst-delta-sonic","lat":42.991431,"lng":-78.8207717,"state":"NY","city":"Town of Amherst","address":"","zip":"","phone":"","email":"","website":"","hours":"","brand":"","services":["general_repair"],"shopType":"general_repair"},{"id":"shop-ny-bronx-sunnys-autobody-llc","name":"Sunnys Autobody, LLC","slug":"ny-bronx-sunnys-autobody-llc","lat":40.8869401,"lng":-73.8264802,"state":"NY","city":"Bronx","address":"4151 Boston Road","zip":"10466","phone":"+1 718 3255300","email":"","website":"https://www.sunnysautobody.com/","hours":"Mo-Fr 08:30-17:30; Sa 09:00-16:30","brand":"","services":["body_work"],"shopType":"body_shop"},{"id":"shop-ny-brooklyn-einstein-s-truck-auto","name":"Einstein's Truck & Auto","slug":"ny-brooklyn-einstein-s-truck-auto","lat":40.6314517,"lng":-74.0035786,"state":"NY","city":"Brooklyn","address":"1068 60th Street","zip":"11219","phone":"+1-718-438-1880","email":"","website":"http://Einsteinstruckandauto.net","hours":"","brand":"","services":["general_repair"],"shopType":"general_repair"},{"id":"shop-ny-mississauga-sonic-auto","name":"Sonic Auto","slug":"ny-mississauga-sonic-auto","lat":43.6531929,"lng":-79.645581,"state":"NY","city":"Mississauga","address":"5890 Dixie Road","zip":"L4W 1E9","phone":"+1-905-565-0004","email":"","website":"","hours":"","brand":"","services":["general_repair"],"shopType":"general_repair"},{"id":"shop-ny-barrie-goodyear","name":"Goodyear","slug":"ny-barrie-goodyear","lat":44.3804202,"lng":-79.7038679,"state":"NY","city":"Barrie","address":"Anne Street South","zip":"","phone":"","email":"","website":"","hours":"","brand":"Goodyear","services":["tires"],"shopType":"general_repair"},{"id":"shop-ny-barrie-active-green-ross","name":"Active Green + Ross","slug":"ny-barrie-active-green-ross","lat":44.3800093,"lng":-79.7035049,"state":"NY","city":"Barrie","address":"","zip":"","phone":"","email":"","website":"","hours":"","brand":"Active Green + Ross","services":["general_repair"],"shopType":"general_repair"},{"id":"shop-ny-rochester-mac-s-auto-service-ii","name":"Mac's Auto Service II","slug":"ny-rochester-mac-s-auto-service-ii","lat":43.0949389,"lng":-77.5873701,"state":"NY","city":"Rochester","address":"3301 Brighton-Henrietta Town Line Road","zip":"14623","phone":"+1 585-272-7700","email":"","website":"https://www.macs2.com/","hours":"Mo-Fr 07:30-17:30; Sa,Su off","brand":"","services":["general_repair"],"shopType":"general_repair"},{"id":"shop-ny-jamaica-fast-fix-automotive","name":"Fast Fix Automotive","slug":"ny-jamaica-fast-fix-automotive","lat":40.7055322,"lng":-73.8155107,"state":"NY","city":"Jamaica","address":"139-35 Queens Boulevard","zip":"11435","phone":"+1-718-658-1066","email":"","website":"http://fastfixautomotive.com","hours":"","brand":"","services":["general_repair"],"shopType":"general_repair"},{"id":"shop-ny-huntington-tully-s-auto-body","name":"Tully's Auto Body","slug":"ny-huntington-tully-s-auto-body","lat":40.8505384,"lng":-73.3664147,"state":"NY","city":"Huntington","address":"136 Little Plains Road","zip":"11743","phone":"+1-631-757-9810","email":"","website":"https://www.anjonofgreenlawn.com/","hours":"","brand":"","services":["body_work"],"shopType":"body_shop"},{"id":"shop-ny-city-of-cortland-mr-tire","name":"Mr. Tire","slug":"ny-city-of-cortland-mr-tire","lat":42.6062549,"lng":-76.1676432,"state":"NY","city":"City of Cortland","address":"","zip":"","phone":"","email":"","website":"","hours":"","brand":"","services":["tires"],"shopType":"tire_shop"},{"id":"shop-ny-brooklyn-a1a-auto-glass","name":"A1A Auto Glass","slug":"ny-brooklyn-a1a-auto-glass","lat":40.6416574,"lng":-73.9191705,"state":"NY","city":"Brooklyn","address":"8013 Preston Court","zip":"11236","phone":"+1-718-531-8625","email":"","website":"http://a1aautoglass.com","hours":"","brand":"","services":["general_repair"],"shopType":"general_repair"},{"id":"shop-ny-town-of-smithtown-mike-s-car-care","name":"Mike's Car Care","slug":"ny-town-of-smithtown-mike-s-car-care","lat":40.841915,"lng":-73.1683783,"state":"NY","city":"Town of Smithtown","address":"","zip":"","phone":"","email":"","website":"","hours":"","brand":"","services":["general_repair"],"shopType":"general_repair"},{"id":"shop-ny-bradford-pro-oil-change","name":"Pro Oil Change","slug":"ny-bradford-pro-oil-change","lat":44.1074929,"lng":-79.590041,"state":"NY","city":"Bradford","address":"474 Holland Street West","zip":"L3Z 0A2","phone":"","email":"","website":"","hours":"","brand":"","services":["oil_change"],"shopType":"quick_lube"},{"id":"shop-ny-newmarket-speedy","name":"Speedy","slug":"ny-newmarket-speedy","lat":44.0496407,"lng":-79.4784517,"state":"NY","city":"Newmarket","address":"17295A Yonge Street","zip":"L3Y 8Z2","phone":"","email":"","website":"","hours":"08:00-18:00","brand":"","services":["general_repair"],"shopType":"general_repair"},{"id":"shop-ny-newmarket-mister-transmission","name":"Mister Transmission","slug":"ny-newmarket-mister-transmission","lat":44.0498382,"lng":-79.4785985,"state":"NY","city":"Newmarket","address":"17295 Yonge Street","zip":"L3Y 8Z2","phone":"","email":"","website":"","hours":"08:00-17:30","brand":"Mister Transmission","services":["transmission"],"shopType":"transmission_shop"},{"id":"shop-ny-city-of-auburn-monro-muffler-brake-service","name":"Monro Muffler Brake & Service","slug":"ny-city-of-auburn-monro-muffler-brake-service","lat":42.9417498,"lng":-76.5524847,"state":"NY","city":"City of Auburn","address":"","zip":"","phone":"","email":"","website":"","hours":"","brand":"Monro","services":["exhaust","brakes"],"shopType":"general_repair"},{"id":"shop-ny-town-of-bainbridge-progressive-auto","name":"Progressive Auto","slug":"ny-town-of-bainbridge-progressive-auto","lat":42.3078506,"lng":-75.5194512,"state":"NY","city":"Town of Bainbridge","address":"","zip":"","phone":"","email":"","website":"","hours":"","brand":"","services":["general_repair"],"shopType":"general_repair"},{"id":"shop-ny-slaterville-hunt-s-auto-service","name":"Hunt's Auto Service","slug":"ny-slaterville-hunt-s-auto-service","lat":42.3943597,"lng":-76.3721223,"state":"NY","city":"Slaterville","address":"2412 Slaterville Road","zip":"","phone":"","email":"","website":"https://www.huntsautoservice.com/","hours":"","brand":"","services":["general_repair"],"shopType":"general_repair"},{"id":"shop-ny-queensbury-auto-fix-care-care-center","name":"Auto Fix Care Care Center","slug":"ny-queensbury-auto-fix-care-care-center","lat":43.3307804,"lng":-73.6660314,"state":"NY","city":"Queensbury","address":"78 Quaker Road","zip":"12804","phone":"","email":"","website":"","hours":"","brand":"","services":["general_repair"],"shopType":"general_repair"},{"id":"shop-ny-buffalo-dunn-tire","name":"Dunn Tire","slug":"ny-buffalo-dunn-tire","lat":42.8589397,"lng":-78.7548682,"state":"NY","city":"Buffalo","address":"2150 Union Road","zip":"14224","phone":"(716) 447-1500","email":"","website":"https://www.yelp.com/biz/dunn-tire-buffalo-4","hours":"","brand":"Dunn Tire","services":["tires"],"shopType":"tire_shop","rating":2.7,"reviewCount":61,"yelpMatched":true,"yelpMatchScore":1},{"id":"shop-ny-new-york-tractor-trailer-repair","name":"Tractor Trailer Repair","slug":"ny-new-york-tractor-trailer-repair","lat":40.6600409,"lng":-73.7670941,"state":"NY","city":"New York","address":"176-20 147 Avenue","zip":"","phone":"","email":"","website":"","hours":"","brand":"","services":["general_repair"],"shopType":"general_repair"},{"id":"shop-ny-altamont-radzewicz-tire-services","name":"RADZEWICZ tire services","slug":"ny-altamont-radzewicz-tire-services","lat":42.7363727,"lng":-74.0072979,"state":"NY","city":"Altamont","address":"4122 Western Turnpike","zip":"12009","phone":"","email":"","website":"","hours":"Mo-Fr 09:00-17:00","brand":"","services":["tires","car_repair","tyres"],"shopType":"general_repair"},{"id":"shop-ny-thornhill-canadian-tire","name":"Canadian Tire","slug":"ny-thornhill-canadian-tire","lat":43.8142013,"lng":-79.4754895,"state":"NY","city":"Thornhill","address":"8081 Dufferin Street","zip":"L4J 8R9","phone":"+1-905-889-9138","email":"","website":"","hours":"","brand":"","services":["tires"],"shopType":"tire_shop"},{"id":"shop-ny-town-of-hempstead-south-shore-collision","name":"South Shore Collision","slug":"ny-town-of-hempstead-south-shore-collision","lat":40.6159537,"lng":-73.6432122,"state":"NY","city":"Town of Hempstead","address":"","zip":"","phone":"","email":"","website":"","hours":"","brand":"","services":["body_work"],"shopType":"body_shop"},{"id":"shop-ny-town-of-ovid-innovative-auto","name":"Innovative Auto","slug":"ny-town-of-ovid-innovative-auto","lat":42.655909,"lng":-76.751724,"state":"NY","city":"Town of Ovid","address":"","zip":"","phone":"","email":"","website":"","hours":"","brand":"","services":["general_repair"],"shopType":"general_repair"},{"id":"shop-ny-town-of-salina-lyncourt-car-care","name":"Lyncourt Car Care","slug":"ny-town-of-salina-lyncourt-car-care","lat":43.0825867,"lng":-76.1382848,"state":"NY","city":"Town of Salina","address":"","zip":"","phone":"+1 315 807 7505","email":"","website":"","hours":"","brand":"","services":["general_repair"],"shopType":"general_repair"},{"id":"shop-ny-new-york-re-action-auto-truck-center","name":"Re Action Auto & Truck Center","slug":"ny-new-york-re-action-auto-truck-center","lat":40.7904068,"lng":-73.8121289,"state":"NY","city":"New York","address":"12-30 Clintonville Street","zip":"","phone":"","email":"","website":"","hours":"","brand":"","services":["general_repair"],"shopType":"general_repair"},{"id":"shop-ny-new-york-speedy-auto-repair","name":"Speedy Auto Repair","slug":"ny-new-york-speedy-auto-repair","lat":40.8250545,"lng":-73.8490033,"state":"NY","city":"New York","address":"860 Castle Hill Avenue","zip":"","phone":"","email":"","website":"","hours":"","brand":"","services":["general_repair"],"shopType":"general_repair"},{"id":"shop-ny-city-of-syracuse-douglas-auto-service","name":"Douglas Auto Service","slug":"ny-city-of-syracuse-douglas-auto-service","lat":43.0765999,"lng":-76.1598642,"state":"NY","city":"City of Syracuse","address":"726 Wolf Street","zip":"","phone":"","email":"","website":"","hours":"","brand":"","services":["general_repair"],"shopType":"general_repair"},{"id":"shop-ny-syracuse-guy-s-automotive-service","name":"Guy's Automotive Service","slug":"ny-syracuse-guy-s-automotive-service","lat":43.0776172,"lng":-76.1611104,"state":"NY","city":"Syracuse","address":"700 Hiawatha Boulevard East","zip":"13208","phone":"+1 315 472 7011","email":"","website":"","hours":"","brand":"","services":["general_repair"],"shopType":"general_repair"},{"id":"shop-ny-syracuse-majewski-s-auto-body-collision-service","name":"Majewski's Auto Body Collision Service","slug":"ny-syracuse-majewski-s-auto-body-collision-service","lat":43.0759766,"lng":-76.1609508,"state":"NY","city":"Syracuse","address":"701 Wolf Street","zip":"13208","phone":"","email":"","website":"","hours":"","brand":"","services":["body_work"],"shopType":"body_shop"},{"id":"shop-ny-new-york-baychester-auto-repairs","name":"Baychester Auto Repairs","slug":"ny-new-york-baychester-auto-repairs","lat":40.8709515,"lng":-73.8345973,"state":"NY","city":"New York","address":"2951 Edson Avenue","zip":"","phone":"","email":"","website":"","hours":"","brand":"","services":["general_repair"],"shopType":"general_repair"},{"id":"shop-ny-syracuse-f-m-auto-body-inc","name":"F.M. Auto Body, INC.","slug":"ny-syracuse-f-m-auto-body-inc","lat":43.0761231,"lng":-76.1601173,"state":"NY","city":"Syracuse","address":"710 Wolf Street","zip":"13208","phone":"+1 315 475 4946","email":"","website":"","hours":"","brand":"","services":["body_work"],"shopType":"body_shop"},{"id":"shop-ny-city-of-syracuse-two-guys-auto-service","name":"Two Guys Auto Service","slug":"ny-city-of-syracuse-two-guys-auto-service","lat":43.0842342,"lng":-76.148264,"state":"NY","city":"City of Syracuse","address":"","zip":"","phone":"+1 315 455 6007","email":"","website":"","hours":"","brand":"NAPA AutoCare Center","services":["general_repair"],"shopType":"general_repair"},{"id":"shop-ny-rochester-morris-auto-repair-and-collision-inc","name":"Morris Auto Repair and Collision, Inc.","slug":"ny-rochester-morris-auto-repair-and-collision-inc","lat":43.0920603,"lng":-77.6402255,"state":"NY","city":"Rochester","address":"52 Lightfoot Street","zip":"14623","phone":"+1 585-424-6990","email":"","website":"https://www.morrisauto.com/","hours":"","brand":"","services":["body_work"],"shopType":"body_shop"},{"id":"shop-ny-city-of-watertown-cole-muffler-and-brake","name":"Cole Muffler and Brake","slug":"ny-city-of-watertown-cole-muffler-and-brake","lat":43.9769448,"lng":-75.9324119,"state":"NY","city":"City of Watertown","address":"","zip":"","phone":"","email":"","website":"","hours":"","brand":"","services":["exhaust","brakes"],"shopType":"general_repair"},{"id":"shop-ny-city-of-watertown-mavis-discount-tire","name":"Mavis Discount Tire","slug":"ny-city-of-watertown-mavis-discount-tire","lat":43.9769526,"lng":-75.9325594,"state":"NY","city":"City of Watertown","address":"","zip":"","phone":"","email":"","website":"","hours":"","brand":"Discount Tire","services":["tires"],"shopType":"tire_shop"},{"id":"shop-ny-town-of-grand-island-marty-s-towing","name":"Marty's Towing","slug":"ny-town-of-grand-island-marty-s-towing","lat":43.0088376,"lng":-78.9647543,"state":"NY","city":"Town of Grand Island","address":"","zip":"","phone":"","email":"","website":"","hours":"","brand":"","services":["general_repair"],"shopType":"general_repair"},{"id":"shop-ny-town-of-grand-island-dr-hugg-s-car-wash","name":"Dr. Hugg's Car Wash","slug":"ny-town-of-grand-island-dr-hugg-s-car-wash","lat":43.0202973,"lng":-78.9606923,"state":"NY","city":"Town of Grand Island","address":"","zip":"","phone":"","email":"","website":"","hours":"","brand":"","services":["general_repair"],"shopType":"general_repair"},{"id":"shop-ny-town-of-grand-island-monro-muffler-brake-service","name":"Monro Muffler Brake & Service","slug":"ny-town-of-grand-island-monro-muffler-brake-service","lat":43.0196012,"lng":-78.9598324,"state":"NY","city":"Town of Grand Island","address":"","zip":"","phone":"","email":"","website":"","hours":"","brand":"Monro","services":["exhaust","brakes"],"shopType":"general_repair"},{"id":"shop-ny-town-of-grand-island-auto-fix","name":"Auto Fix","slug":"ny-town-of-grand-island-auto-fix","lat":43.0168981,"lng":-78.9598105,"state":"NY","city":"Town of Grand Island","address":"","zip":"","phone":"","email":"","website":"","hours":"","brand":"","services":["general_repair"],"shopType":"general_repair"},{"id":"shop-ny-town-of-grand-island-wheelfind-automobile-repair-towing","name":"Wheelfind Automobile Repair & Towing","slug":"ny-town-of-grand-island-wheelfind-automobile-repair-towing","lat":43.0099552,"lng":-78.9510589,"state":"NY","city":"Town of Grand Island","address":"","zip":"","phone":"","email":"","website":"","hours":"","brand":"","services":["general_repair"],"shopType":"general_repair"},{"id":"shop-ny-village-of-moravia-webster-s-garage","name":"Webster's Garage","slug":"ny-village-of-moravia-webster-s-garage","lat":42.712926,"lng":-76.4214349,"state":"NY","city":"Village of Moravia","address":"152 Main Street","zip":"","phone":"+1-315-497-6161","email":"","website":"http://www.webstersgarage.com/","hours":"","brand":"","services":["general_repair"],"shopType":"general_repair"},{"id":"shop-ny-hewlett-suddman-s","name":"Suddman's","slug":"ny-hewlett-suddman-s","lat":40.6382254,"lng":-73.7044316,"state":"NY","city":"Hewlett","address":"1205 West Broadway","zip":"11557","phone":"","email":"","website":"","hours":"","brand":"","services":["general_repair"],"shopType":"general_repair"},{"id":"shop-ny-village-of-lynbrook-mavis-discount-tire","name":"Mavis Discount Tire","slug":"ny-village-of-lynbrook-mavis-discount-tire","lat":40.6571601,"lng":-73.6568517,"state":"NY","city":"Village of Lynbrook","address":"Sunrise Highway","zip":"","phone":"","email":"","website":"","hours":"","brand":"Discount Tire","services":["tires"],"shopType":"tire_shop"},{"id":"shop-ny-pickering-dasilva-racing","name":"DaSilva Racing","slug":"ny-pickering-dasilva-racing","lat":43.8301139,"lng":-79.0667623,"state":"NY","city":"Pickering","address":"Brock Road","zip":"","phone":"","email":"","website":"","hours":"","brand":"","services":["diagnostics","car_parts","car_repair"],"shopType":"general_repair"},{"id":"shop-ny-clarington-carstar","name":"Carstar","slug":"ny-clarington-carstar","lat":43.9022429,"lng":-78.669508,"state":"NY","city":"Clarington","address":"Baseline Road East","zip":"","phone":"","email":"","website":"","hours":"","brand":"Carstar","services":["body_work","body_repair"],"shopType":"general_repair"},{"id":"shop-ny-new-york-golden-auto-body","name":"Golden Auto Body","slug":"ny-new-york-golden-auto-body","lat":40.7863429,"lng":-73.8368978,"state":"NY","city":"New York","address":"131-09 14th Avenue","zip":"","phone":"+1-718-939-2006","email":"","website":"","hours":"","brand":"","services":["body_work"],"shopType":"body_shop"},{"id":"shop-ny-new-york-lee-myles-transmissions","name":"Lee Myles Transmissions","slug":"ny-new-york-lee-myles-transmissions","lat":40.7195392,"lng":-73.7624307,"state":"NY","city":"New York","address":"201-06 Hillside Avenue","zip":"","phone":"+1-718-740-4800","email":"","website":"https://www.leemyles.com/","hours":"","brand":"","services":["transmission"],"shopType":"transmission_shop"},{"id":"shop-ny-new-york-justin-s-towing-storage","name":"Justin's Towing & Storage","slug":"ny-new-york-justin-s-towing-storage","lat":40.6814094,"lng":-73.8399985,"state":"NY","city":"New York","address":"100-01 Liberty Avenue","zip":"","phone":"+1-347-205-5151","email":"","website":"https://www.justinstowing.com/","hours":"","brand":"","services":["general_repair"],"shopType":"general_repair"},{"id":"shop-ny-toronto-td-insurance-auto-centre","name":"TD Insurance Auto Centre","slug":"ny-toronto-td-insurance-auto-centre","lat":43.7577507,"lng":-79.4103484,"state":"NY","city":"Toronto","address":"4656 Yonge Street","zip":"M2N 5M1","phone":"","email":"","website":"","hours":"","brand":"","services":["general_repair"],"shopType":"general_repair"},{"id":"shop-ny-peterborough-pete-s-autobody","name":"Pete's Autobody","slug":"ny-peterborough-pete-s-autobody","lat":44.2752927,"lng":-78.3369309,"state":"NY","city":"Peterborough","address":"Queensway Court","zip":"","phone":"","email":"","website":"","hours":"","brand":"","services":["body_work","body_repair"],"shopType":"general_repair"},{"id":"shop-ny-port-perry-carstar-port-perry","name":"Carstar Port Perry","slug":"ny-port-perry-carstar-port-perry","lat":44.0788507,"lng":-78.9832952,"state":"NY","city":"Port Perry","address":"14100 Highway 7/12","zip":"","phone":"","email":"","website":"","hours":"","brand":"","services":["body_work","body_repair"],"shopType":"general_repair"},{"id":"shop-ny-toronto-full-stop-auto","name":"Full Stop Auto","slug":"ny-toronto-full-stop-auto","lat":43.6912192,"lng":-79.2824482,"state":"NY","city":"Toronto","address":"4 Mansion Avenue","zip":"","phone":"","email":"","website":"","hours":"","brand":"","services":["car_repair","body_work","body_repair"],"shopType":"general_repair"},{"id":"shop-ny-nestleton-station-all-flag-s-auto","name":"All Flag's Auto","slug":"ny-nestleton-station-all-flag-s-auto","lat":44.1365234,"lng":-78.8104278,"state":"NY","city":"Nestleton Station","address":"7a","zip":"","phone":"","email":"","website":"","hours":"","brand":"","services":["car_repair"],"shopType":"general_repair"},