[{"id":"shop-ny-east-aurora-dan-s-auto-repair","name":"Dan's Auto Repair","slug":"ny-east-aurora-dan-s-auto-repair","lat":42.7675682,"lng":-78.6118118,"state":"NY","city":"East Aurora","address":"","zip":"","phone":"","email":"","website":"","hours":"","brand":"","services":["general_repair"],"shopType":"general_repair"},{"id":"shop-ny-new-york-steinway-auto-repairs","name":"Steinway Auto Repairs","slug":"ny-new-york-steinway-auto-repairs","lat":40.7707762,"lng":-73.9083348,"state":"NY","city":"New York","address":"23-05 Steinway Street","zip":"","phone":"+1-718-545-6129","email":"","website":"","hours":"","brand":"","services":["general_repair"],"shopType":"general_repair"},{"id":"shop-ny-village-of-canton-monroe-muffler","name":"Monroe Muffler","slug":"ny-village-of-canton-monroe-muffler","lat":44.5974497,"lng":-75.148796,"state":"NY","city":"Village of Canton","address":"","zip":"","phone":"","email":"","website":"","hours":"","brand":"Monro","services":["exhaust"],"shopType":"general_repair"},{"id":"shop-ny-village-of-gouverneur-northern-collision","name":"Northern Collision","slug":"ny-village-of-gouverneur-northern-collision","lat":44.3394064,"lng":-75.4566832,"state":"NY","city":"Village of Gouverneur","address":"","zip":"","phone":"","email":"","website":"","hours":"","brand":"","services":["body_work"],"shopType":"body_shop"},{"id":"shop-ny-fort-drum-auto-skills-center","name":"Auto Skills Center","slug":"ny-fort-drum-auto-skills-center","lat":44.0590904,"lng":-75.8033603,"state":"NY","city":"Fort Drum","address":"","zip":"","phone":"","email":"","website":"","hours":"","brand":"","services":["general_repair"],"shopType":"general_repair"},{"id":"shop-ny-town-of-east-greenbush-danco-auto-repair","name":"Danco Auto Repair","slug":"ny-town-of-east-greenbush-danco-auto-repair","lat":42.6192485,"lng":-73.705445,"state":"NY","city":"Town of East Greenbush","address":"","zip":"","phone":"","email":"","website":"","hours":"","brand":"","services":["general_repair"],"shopType":"general_repair"},{"id":"shop-ny-village-of-ravena-barry-s-auto-repair","name":"Barry's Auto Repair","slug":"ny-village-of-ravena-barry-s-auto-repair","lat":42.4881591,"lng":-73.8195294,"state":"NY","city":"Village of Ravena","address":"","zip":"","phone":"","email":"","website":"","hours":"","brand":"","services":["general_repair"],"shopType":"general_repair"},{"id":"shop-ny-town-of-east-greenbush-quik-lube","name":"Quik Lube","slug":"ny-town-of-east-greenbush-quik-lube","lat":42.6184685,"lng":-73.7025619,"state":"NY","city":"Town of East Greenbush","address":"","zip":"","phone":"","email":"","website":"","hours":"","brand":"","services":["oil_change"],"shopType":"quick_lube"},{"id":"shop-ny-city-of-albany-albany-spring-service","name":"Albany Spring Service","slug":"ny-city-of-albany-albany-spring-service","lat":42.6637662,"lng":-73.7443626,"state":"NY","city":"City of Albany","address":"","zip":"","phone":"","email":"","website":"","hours":"","brand":"","services":["general_repair"],"shopType":"general_repair"},{"id":"shop-ny-valatie-kinderhook-transmission","name":"Kinderhook Transmission","slug":"ny-valatie-kinderhook-transmission","lat":42.4606174,"lng":-73.6939517,"state":"NY","city":"Valatie","address":"3465 United States Highway 9","zip":"","phone":"+1 518-784-5050","email":"","website":"","hours":"","brand":"","services":["transmission"],"shopType":"transmission_shop"},{"id":"shop-ny-west-sand-lake-leckonby-s-autoworks-inc","name":"Leckonby's Autoworks Inc","slug":"ny-west-sand-lake-leckonby-s-autoworks-inc","lat":42.645943,"lng":-73.60451,"state":"NY","city":"West Sand Lake","address":"3642 State Highway 43","zip":"12196","phone":"+1 518-674-3864","email":"","website":"","hours":"","brand":"","services":["general_repair"],"shopType":"general_repair"},{"id":"shop-ny-town-of-niskayuna-valvoline","name":"Valvoline","slug":"ny-town-of-niskayuna-valvoline","lat":42.7686754,"lng":-73.891333,"state":"NY","city":"Town of Niskayuna","address":"","zip":"","phone":"","email":"","website":"","hours":"","brand":"Valvoline","services":["oil_change"],"shopType":"quick_lube"},{"id":"shop-ny-city-of-rochester-austin-spencer-collision","name":"Austin Spencer Collision","slug":"ny-city-of-rochester-austin-spencer-collision","lat":43.0943975,"lng":-77.6126048,"state":"NY","city":"City of Rochester","address":"","zip":"","phone":"","email":"","website":"","hours":"","brand":"","services":["body_work"],"shopType":"body_shop"},{"id":"shop-ny-city-of-rochester-brighton-garage","name":"Brighton Garage","slug":"ny-city-of-rochester-brighton-garage","lat":43.1279605,"lng":-77.5657557,"state":"NY","city":"City of Rochester","address":"","zip":"","phone":"","email":"","website":"","hours":"Mo-Fr 07:00-18:00","brand":"","services":["general_repair"],"shopType":"general_repair"},{"id":"shop-ny-city-of-schenectady-munro-muffler-brake","name":"Munro Muffler Brake","slug":"ny-city-of-schenectady-munro-muffler-brake","lat":42.789327,"lng":-73.9376083,"state":"NY","city":"City of Schenectady","address":"","zip":"","phone":"","email":"","website":"","hours":"","brand":"","services":["exhaust","brakes"],"shopType":"general_repair"},{"id":"shop-ny-city-of-schenectady-dream-autos-service-center","name":"Dream Autos Service Center","slug":"ny-city-of-schenectady-dream-autos-service-center","lat":42.7897134,"lng":-73.9382155,"state":"NY","city":"City of Schenectady","address":"","zip":"","phone":"","email":"","website":"","hours":"","brand":"","services":["general_repair"],"shopType":"general_repair"},{"id":"shop-ny-town-of-rotterdam-carman-service-center","name":"Carman Service Center","slug":"ny-town-of-rotterdam-carman-service-center","lat":42.7848386,"lng":-73.9308175,"state":"NY","city":"Town of Rotterdam","address":"","zip":"","phone":"","email":"","website":"","hours":"","brand":"","services":["general_repair"],"shopType":"general_repair"},{"id":"shop-ny-town-of-rotterdam-jay-s-certified-auto-repair","name":"Jay's Certified Auto Repair","slug":"ny-town-of-rotterdam-jay-s-certified-auto-repair","lat":42.7859207,"lng":-73.9322545,"state":"NY","city":"Town of Rotterdam","address":"","zip":"","phone":"","email":"","website":"","hours":"","brand":"","services":["general_repair"],"shopType":"general_repair"},{"id":"shop-ny-fairport-firestone","name":"Firestone","slug":"ny-fairport-firestone","lat":43.0649426,"lng":-77.4109811,"state":"NY","city":"Fairport","address":"7374 Palmyra Road","zip":"14450","phone":"","email":"","website":"","hours":"","brand":"Firestone","services":["general_repair"],"shopType":"general_repair"},{"id":"shop-ny-albany-paul-s-garage","name":"Paul's Garage","slug":"ny-albany-paul-s-garage","lat":42.6629557,"lng":-73.7794058,"state":"NY","city":"Albany","address":"230 Ontario Street","zip":"12203","phone":"","email":"","website":"","hours":"","brand":"","services":["general_repair"],"shopType":"general_repair"},{"id":"shop-ny-town-of-clifton-park-midas","name":"Midas","slug":"ny-town-of-clifton-park-midas","lat":42.8615438,"lng":-73.7667064,"state":"NY","city":"Town of Clifton Park","address":"","zip":"","phone":"","email":"","website":"","hours":"","brand":"Midas","services":["general_repair"],"shopType":"general_repair"},{"id":"shop-ny-town-of-clifton-park-trev-s-automotive","name":"Trev's Automotive","slug":"ny-town-of-clifton-park-trev-s-automotive","lat":42.9037962,"lng":-73.7828643,"state":"NY","city":"Town of Clifton Park","address":"","zip":"","phone":"","email":"","website":"","hours":"","brand":"","services":["general_repair"],"shopType":"general_repair"},{"id":"shop-ny-selden-sts-tire-auto-center","name":"STS Tire & Auto Center","slug":"ny-selden-sts-tire-auto-center","lat":40.8672003,"lng":-73.0333005,"state":"NY","city":"Selden","address":"525 Middle Country Road","zip":"11784","phone":"","email":"","website":"","hours":"","brand":"","services":["tires"],"shopType":"tire_shop"},{"id":"shop-ny-town-of-hunter-rory-s","name":"Rory's","slug":"ny-town-of-hunter-rory-s","lat":42.1950459,"lng":-74.0946714,"state":"NY","city":"Town of Hunter","address":"","zip":"","phone":"","email":"","website":"","hours":"","brand":"","services":["general_repair"],"shopType":"general_repair"},{"id":"shop-ny-new-york-pep-boys","name":"Pep Boys","slug":"ny-new-york-pep-boys","lat":40.6738467,"lng":-73.9870713,"state":"NY","city":"New York","address":"354 4th Avenue","zip":"11215","phone":"","email":"","website":"https://www.pepboys.com","hours":"Mo-Fr 07:30-21:00; Sa 07:30-20:00; Su 09:00-18:00","brand":"Pep Boys","services":["general_repair"],"shopType":"general_repair"},{"id":"shop-ny-greenville-s-j-service-center","name":"S & J Service Center","slug":"ny-greenville-s-j-service-center","lat":41.0128087,"lng":-73.8061349,"state":"NY","city":"Greenville","address":"245","zip":"","phone":"","email":"","website":"","hours":"","brand":"","services":["general_repair"],"shopType":"general_repair"},{"id":"shop-ny-village-of-potsdam-parts-america","name":"Parts America","slug":"ny-village-of-potsdam-parts-america","lat":44.6862047,"lng":-74.9895204,"state":"NY","city":"Village of Potsdam","address":"","zip":"","phone":"","email":"","website":"","hours":"","brand":"","services":["general_repair"],"shopType":"general_repair"},{"id":"shop-ny-new-york-bullocks-auto-repair","name":"Bullocks Auto Repair","slug":"ny-new-york-bullocks-auto-repair","lat":40.5789712,"lng":-73.8499771,"state":"NY","city":"New York","address":"","zip":"","phone":"","email":"","website":"","hours":"","brand":"","services":["general_repair"],"shopType":"general_repair"},{"id":"shop-ny-city-of-syracuse-big-mike-s-auto-service","name":"Big Mike's Auto Service","slug":"ny-city-of-syracuse-big-mike-s-auto-service","lat":43.059371,"lng":-76.1996,"state":"NY","city":"City of Syracuse","address":"","zip":"","phone":"","email":"","website":"","hours":"","brand":"","services":["general_repair"],"shopType":"general_repair"},{"id":"shop-ny-marcellus-warner-s-auto-body","name":"Warner's Auto Body","slug":"ny-marcellus-warner-s-auto-body","lat":42.9791493,"lng":-76.3257777,"state":"NY","city":"Marcellus","address":"2650 Pleasant Valley Road","zip":"13108","phone":"","email":"","website":"","hours":"","brand":"","services":["body_work"],"shopType":"body_shop"},{"id":"shop-ny-town-of-bethlehem-jiffy-lube","name":"Jiffy Lube","slug":"ny-town-of-bethlehem-jiffy-lube","lat":42.6315761,"lng":-73.8051008,"state":"NY","city":"Town of Bethlehem","address":"","zip":"","phone":"","email":"","website":"","hours":"","brand":"Jiffy Lube","services":["oil_change"],"shopType":"quick_lube"},{"id":"shop-ny-town-of-clifton-park-firestone","name":"Firestone","slug":"ny-town-of-clifton-park-firestone","lat":42.8597465,"lng":-73.7758566,"state":"NY","city":"Town of Clifton Park","address":"","zip":"","phone":"","email":"","website":"","hours":"","brand":"Firestone","services":["general_repair"],"shopType":"general_repair"},{"id":"shop-ny-town-of-halfmoon-aaa","name":"AAA","slug":"ny-town-of-halfmoon-aaa","lat":42.8579229,"lng":-73.7604932,"state":"NY","city":"Town of Halfmoon","address":"","zip":"","phone":"","email":"","website":"","hours":"","brand":"","services":["general_repair"],"shopType":"general_repair"},{"id":"shop-ny-east-aurora-bruce-s-automotive","name":"Bruce's Automotive","slug":"ny-east-aurora-bruce-s-automotive","lat":42.7682478,"lng":-78.6154605,"state":"NY","city":"East Aurora","address":"","zip":"","phone":"","email":"","website":"","hours":"","brand":"","services":["general_repair"],"shopType":"general_repair"},{"id":"shop-ny-corning-goodyear-auto-service","name":"Goodyear Auto Service","slug":"ny-corning-goodyear-auto-service","lat":42.1422499,"lng":-77.0539226,"state":"NY","city":"Corning","address":"20 Denison Parkway East","zip":"14830","phone":"+1-607-936-8021","email":"","website":"http://www.goodyear.com/en-US/tires/tire-shop/all/000900438/Corning%20NY%2014830-2606%20US/retailer-details","hours":"Mo-Fr 07:00-18:00; Sa 07:30-17:00","brand":"Goodyear","services":["tires"],"shopType":"general_repair"},{"id":"shop-ny-city-of-corning-tire-world-of-corning","name":"Tire World of Corning","slug":"ny-city-of-corning-tire-world-of-corning","lat":42.1437734,"lng":-77.058878,"state":"NY","city":"City of Corning","address":"","zip":"14830","phone":"+1-607-936-9916","email":"corningtire@yahoo.com","website":"http://tireworldofcorning.com","hours":"Mo-Fr 07:00-17:00","brand":"","services":["tires"],"shopType":"tire_shop"},{"id":"shop-ny-town-of-bethlehem-g-and-r-auto","name":"G and R Auto","slug":"ny-town-of-bethlehem-g-and-r-auto","lat":42.6238729,"lng":-73.8352303,"state":"NY","city":"Town of Bethlehem","address":"","zip":"","phone":"","email":"","website":"","hours":"","brand":"","services":["general_repair"],"shopType":"general_repair"},{"id":"shop-ny-nassau-county-s-s-automotive-center","name":"S&S Automotive Center","slug":"ny-nassau-county-s-s-automotive-center","lat":40.7870763,"lng":-73.5030628,"state":"NY","city":"Nassau County","address":"325 South Oyster Bay Road","zip":"11803","phone":"","email":"","website":"","hours":"","brand":"","services":["general_repair"],"shopType":"general_repair"},{"id":"shop-ny-lansing-phoenix-auto-of-ithaca","name":"Phoenix Auto of Ithaca","slug":"ny-lansing-phoenix-auto-of-ithaca","lat":42.5385255,"lng":-76.4946119,"state":"NY","city":"Lansing","address":"119 Auburn Road","zip":"14882","phone":"","email":"","website":"","hours":"","brand":"","services":["general_repair"],"shopType":"general_repair"},{"id":"shop-ny-new-york-alfa-motors","name":"Alfa Motors","slug":"ny-new-york-alfa-motors","lat":40.6843919,"lng":-74.0009284,"state":"NY","city":"New York","address":"","zip":"","phone":"+1-718-596-3977","email":"","website":"http://alfamotorsbrooklyn.com","hours":"","brand":"","services":["general_repair"],"shopType":"general_repair"},{"id":"shop-ny-new-york-luna-s-tire-shop","name":"Luna's Tire Shop","slug":"ny-new-york-luna-s-tire-shop","lat":40.6801173,"lng":-73.9814768,"state":"NY","city":"New York","address":"","zip":"","phone":"+1-718-403-9769","email":"","website":"","hours":"unknown","brand":"","services":["tires"],"shopType":"tire_shop"},{"id":"shop-ny-new-york-r-ferraro-collision","name":"R. Ferraro Collision","slug":"ny-new-york-r-ferraro-collision","lat":40.6723081,"lng":-73.990505,"state":"NY","city":"New York","address":"","zip":"","phone":"+1-718-788-6288","email":"","website":"http://www.ferrarocollision.com","hours":"","brand":"","services":["body_work"],"shopType":"body_shop"},{"id":"shop-ny-new-york-carlos-repair-ridge","name":"Carlos Repair @ Ridge","slug":"ny-new-york-carlos-repair-ridge","lat":40.6780428,"lng":-73.9857985,"state":"NY","city":"New York","address":"264 3rd Avenue","zip":"11215","phone":"+1-718-832-1413","email":"","website":"","hours":"Mo-Fr 07:30-17:00","brand":"","services":["general_repair"],"shopType":"general_repair"},{"id":"shop-ny-new-york-new-xcell-auto-repair","name":"New Xcell Auto Repair","slug":"ny-new-york-new-xcell-auto-repair","lat":40.702026,"lng":-73.9929402,"state":"NY","city":"New York","address":"","zip":"","phone":"+1-718-625-4110","email":"","website":"","hours":"","brand":"","services":["general_repair"],"shopType":"general_repair"},{"id":"shop-ny-new-york-pep-boys-2","name":"Pep Boys","slug":"ny-new-york-pep-boys-2","lat":40.6259703,"lng":-74.1538513,"state":"NY","city":"New York","address":"1941 Forest Avenue","zip":"10303","phone":"","email":"","website":"","hours":"","brand":"Pep Boys","services":["general_repair"],"shopType":"general_repair"},{"id":"shop-ny-new-york-bp-jamaica-auto-service","name":"BP Jamaica Auto Service","slug":"ny-new-york-bp-jamaica-auto-service","lat":40.6852621,"lng":-73.8817353,"state":"NY","city":"New York","address":"","zip":"","phone":"+1-718-647-2580","email":"","website":"","hours":"","brand":"","services":["general_repair"],"shopType":"general_repair"},{"id":"shop-ny-new-york-rush-auto-tire-shop","name":"Rush Auto Tire Shop","slug":"ny-new-york-rush-auto-tire-shop","lat":40.6785833,"lng":-73.9487276,"state":"NY","city":"New York","address":"1263 Atlantic Avenue","zip":"11216","phone":"+1-347-533-8054","email":"","website":"","hours":"","brand":"","services":["tires"],"shopType":"tire_shop"},{"id":"shop-ny-brooklyn-meineke","name":"Meineke","slug":"ny-brooklyn-meineke","lat":40.6148266,"lng":-73.9630897,"state":"NY","city":"Brooklyn","address":"1741 Coney Island Avenue","zip":"11230","phone":"+1-718-804-5287","email":"","website":"https://www.meineke.com/locations/ny/brooklyn-303/","hours":"Mo-Fr 07:30-18:00; Sa 07:30-16:00; Su off","brand":"Meineke","services":["car_repair","oil_change","air_conditioning","tyres","tires","brakes","batteries","exhaust"],"shopType":"general_repair"},{"id":"shop-ny-brooklyn-chang-s-auto-repair","name":"Chang's Auto Repair","slug":"ny-brooklyn-chang-s-auto-repair","lat":40.6802844,"lng":-73.9892079,"state":"NY","city":"Brooklyn","address":"293 Bond Street","zip":"11231","phone":"+1-718-858-5845","email":"","website":"","hours":"Mo-Fr 08:30-17:30; Sa 10:00-15:00","brand":"","services":["general_repair"],"shopType":"general_repair"},{"id":"shop-ny-new-york-viva-mexico-tire-shop","name":"Viva Mexico Tire Shop","slug":"ny-new-york-viva-mexico-tire-shop","lat":40.674223,"lng":-73.9996533,"state":"NY","city":"New York","address":"","zip":"","phone":"+1-718-246-7349","email":"","website":"","hours":"Mo-Su 07:00-20:00","brand":"","services":["tires"],"shopType":"tire_shop"},{"id":"shop-ny-new-york-mario-s-auto-repair","name":"Mario's Auto Repair","slug":"ny-new-york-mario-s-auto-repair","lat":40.6800062,"lng":-73.960458,"state":"NY","city":"New York","address":"","zip":"","phone":"+1-718-638-6465","email":"","website":"","hours":"","brand":"","services":["general_repair"],"shopType":"general_repair"},{"id":"shop-ny-new-york-friendly-auto-repair","name":"Friendly Auto Repair","slug":"ny-new-york-friendly-auto-repair","lat":40.6630833,"lng":-73.9990347,"state":"NY","city":"New York","address":"","zip":"","phone":"+1-929-250-2461","email":"","website":"","hours":"","brand":"","services":["general_repair"],"shopType":"general_repair"},{"id":"shop-ny-new-york-quality-repair-center","name":"Quality Repair Center","slug":"ny-new-york-quality-repair-center","lat":40.6185849,"lng":-74.0295345,"state":"NY","city":"New York","address":"","zip":"","phone":"+1-718-491-6161","email":"","website":"","hours":"","brand":"","services":["general_repair"],"shopType":"general_repair"},{"id":"shop-ny-brooklyn-neptune-auto-parts","name":"Neptune Auto Parts","slug":"ny-brooklyn-neptune-auto-parts","lat":40.5814104,"lng":-73.9631175,"state":"NY","city":"Brooklyn","address":"255 Neptune Avenue","zip":"11235","phone":"+1 718-646-1133","email":"","website":"","hours":"","brand":"","services":["car_repair","oil_change","diagnostics","tires","car_parts","tyres"],"shopType":"general_repair"},{"id":"shop-ny-new-york-67th-st-tire-shop","name":"67th St. Tire Shop","slug":"ny-new-york-67th-st-tire-shop","lat":40.6355271,"lng":-74.0203544,"state":"NY","city":"New York","address":"6702 5th Avenue","zip":"11220","phone":"+1-718-833-6482","email":"","website":"","hours":"","brand":"","services":["tires"],"shopType":"tire_shop"},{"id":"shop-ny-new-york-tmb-services","name":"TMB Services","slug":"ny-new-york-tmb-services","lat":40.6260904,"lng":-73.9974514,"state":"NY","city":"New York","address":"1414 62nd Street","zip":"11219","phone":"+1-718-232-1724","email":"","website":"","hours":"","brand":"","services":["general_repair"],"shopType":"general_repair"},{"id":"shop-ny-new-york-los-primos-tire-shop","name":"Los Primos Tire Shop","slug":"ny-new-york-los-primos-tire-shop","lat":40.6391737,"lng":-74.0204703,"state":"NY","city":"New York","address":"6302 4th Avenue","zip":"11220","phone":"+1-718-792-7541","email":"","website":"","hours":"","brand":"","services":["tires"],"shopType":"tire_shop"},{"id":"shop-ny-new-york-automotriz","name":"Automotriz","slug":"ny-new-york-automotriz","lat":40.6454446,"lng":-74.0201517,"state":"NY","city":"New York","address":"212 56th Street","zip":"11220","phone":"+1-646-474-7787","email":"","website":"","hours":"Mo-Fr 08:00-18:00; Sa 08:00-15:00","brand":"","services":["general_repair"],"shopType":"general_repair"},{"id":"shop-ny-brooklyn-genesis-of-brooklyn-service-parts","name":"Genesis of Brooklyn Service & Parts","slug":"ny-brooklyn-genesis-of-brooklyn-service-parts","lat":40.649323,"lng":-74.0190972,"state":"NY","city":"Brooklyn","address":"126 51st Street","zip":"11232","phone":"","email":"","website":"","hours":"","brand":"Genesis","services":["general_repair"],"shopType":"general_repair"},{"id":"shop-ny-new-york-alex-collision-auto-repair","name":"Alex Collision & Auto Repair","slug":"ny-new-york-alex-collision-auto-repair","lat":40.6525702,"lng":-74.0108284,"state":"NY","city":"New York","address":"260 42nd Street","zip":"11232","phone":"+1-718-832-0332","email":"","website":"","hours":"","brand":"","services":["body_work"],"shopType":"body_shop"},{"id":"shop-ny-new-york-a-1st-stop-auto-repair","name":"A 1st Stop Auto Repair","slug":"ny-new-york-a-1st-stop-auto-repair","lat":40.6519663,"lng":-74.0105913,"state":"NY","city":"New York","address":"","zip":"","phone":"+1-929-298-0098","email":"","website":"","hours":"","brand":"","services":["general_repair"],"shopType":"general_repair"},{"id":"shop-ny-new-york-friends-tire-shop","name":"Friends Tire Shop","slug":"ny-new-york-friends-tire-shop","lat":40.6560205,"lng":-74.0029503,"state":"NY","city":"New York","address":"900 4th Avenue","zip":"11232","phone":"","email":"","website":"","hours":"","brand":"","services":["tires"],"shopType":"tire_shop"},{"id":"shop-ny-new-york-chino-s-tire-shop","name":"Chino's Tire Shop","slug":"ny-new-york-chino-s-tire-shop","lat":40.6529918,"lng":-74.0060902,"state":"NY","city":"New York","address":"","zip":"","phone":"+1-646-379-8943","email":"","website":"","hours":"Mo-Su 07:00-23:00","brand":"","services":["tires"],"shopType":"tire_shop"},{"id":"shop-ny-new-york-prospect-auto-glass","name":"Prospect Auto Glass","slug":"ny-new-york-prospect-auto-glass","lat":40.660728,"lng":-74.0005507,"state":"NY","city":"New York","address":"773 3rd Avenue","zip":"11232","phone":"+1-718-499-9080","email":"","website":"https://www.prospectautoglass.com","hours":"","brand":"","services":["general_repair"],"shopType":"general_repair"},{"id":"shop-ny-new-york-kings-fort-hamilton-tires-rims","name":"Kings Fort Hamilton Tires & Rims","slug":"ny-new-york-kings-fort-hamilton-tires-rims","lat":40.6440858,"lng":-73.9887679,"state":"NY","city":"New York","address":"3623 Fort Hamilton Parkway","zip":"11218","phone":"","email":"","website":"","hours":"","brand":"","services":["tires"],"shopType":"tire_shop"},{"id":"shop-ny-new-york-punctual-auto-center","name":"Punctual Auto Center","slug":"ny-new-york-punctual-auto-center","lat":40.6413703,"lng":-73.9824517,"state":"NY","city":"New York","address":"18 Church Avenue","zip":"11218","phone":"+1-718-438-2700","email":"","website":"","hours":"","brand":"","services":["general_repair"],"shopType":"general_repair"},{"id":"shop-ny-new-york-brooklyn-auto-sound-glass","name":"Brooklyn Auto Sound & Glass","slug":"ny-new-york-brooklyn-auto-sound-glass","lat":40.6646794,"lng":-73.9939574,"state":"NY","city":"New York","address":"626 4th Avenue","zip":"11215","phone":"+1-718-369-3030","email":"","website":"","hours":"","brand":"","services":["general_repair"],"shopType":"general_repair"},{"id":"shop-ny-new-york-prospect-auto-repair","name":"Prospect Auto Repair","slug":"ny-new-york-prospect-auto-repair","lat":40.6646011,"lng":-73.9940362,"state":"NY","city":"New York","address":"628 4th Avenue","zip":"11215","phone":"+1-718-788-7683","email":"","website":"","hours":"","brand":"","services":["general_repair"],"shopType":"general_repair"},{"id":"shop-ny-new-york-ultra-service-center","name":"Ultra Service Center","slug":"ny-new-york-ultra-service-center","lat":40.6274635,"lng":-73.9660589,"state":"NY","city":"New York","address":"","zip":"","phone":"","email":"","website":"","hours":"","brand":"","services":["general_repair"],"shopType":"general_repair"},{"id":"shop-ny-new-york-kings-plaze-auto-repair","name":"Kings Plaze Auto Repair","slug":"ny-new-york-kings-plaze-auto-repair","lat":40.6148688,"lng":-73.9277694,"state":"NY","city":"New York","address":"","zip":"","phone":"","email":"","website":"","hours":"","brand":"","services":["general_repair"],"shopType":"general_repair"},{"id":"shop-ny-new-york-dub-citi","name":"Dub Citi","slug":"ny-new-york-dub-citi","lat":40.6618632,"lng":-73.9316871,"state":"NY","city":"New York","address":"504 Utica Avenue","zip":"11203","phone":"+1-718-975-8011","email":"","website":"https://dubciticar.com","hours":"","brand":"","services":["general_repair"],"shopType":"general_repair"},{"id":"shop-ny-new-york-10-minute-oil-change","name":"10 Minute Oil Change","slug":"ny-new-york-10-minute-oil-change","lat":40.6617589,"lng":-73.9317345,"state":"NY","city":"New York","address":"504 Utica Avenue","zip":"11203","phone":"","email":"","website":"","hours":"","brand":"","services":["oil_change"],"shopType":"quick_lube"},{"id":"shop-ny-new-york-fts-fama-tire-shop","name":"FTS Fama Tire Shop","slug":"ny-new-york-fts-fama-tire-shop","lat":40.6761275,"lng":-73.891996,"state":"NY","city":"New York","address":"2770 Atlantic Avenue","zip":"11207","phone":"+1-929-368-1563","email":"","website":"","hours":"","brand":"","services":["tires"],"shopType":"tire_shop"},{"id":"shop-ny-new-york-jimmy-s-auto-repair-shop","name":"Jimmy's Auto Repair Shop","slug":"ny-new-york-jimmy-s-auto-repair-shop","lat":40.6761722,"lng":-73.8917308,"state":"NY","city":"New York","address":"","zip":"","phone":"+1-718-647-7150","email":"","website":"","hours":"","brand":"","services":["general_repair"],"shopType":"general_repair"},{"id":"shop-ny-new-york-mufflers-discount-center","name":"Mufflers Discount Center","slug":"ny-new-york-mufflers-discount-center","lat":40.677325,"lng":-73.8970521,"state":"NY","city":"New York","address":"","zip":"","phone":"+1-718-346-0466","email":"","website":"","hours":"","brand":"","services":["exhaust"],"shopType":"general_repair"},{"id":"shop-ny-new-york-k-w-chung","name":"K&W Chung","slug":"ny-new-york-k-w-chung","lat":40.6728398,"lng":-73.91111,"state":"NY","city":"New York","address":"301 Rockaway Avenue","zip":"11233","phone":"+1-718-342-0720","email":"","website":"","hours":"","brand":"","services":["general_repair"],"shopType":"general_repair"},{"id":"shop-ny-new-york-marino-tire-shop","name":"Marino Tire Shop","slug":"ny-new-york-marino-tire-shop","lat":40.6940964,"lng":-73.9432948,"state":"NY","city":"New York","address":"304 Throop Avenue","zip":"11206","phone":"+1-718-404-6004","email":"","website":"","hours":"","brand":"","services":["tires"],"shopType":"tire_shop"},{"id":"shop-ny-new-york-unique-truck-auto","name":"Unique Truck & Auto","slug":"ny-new-york-unique-truck-auto","lat":40.6974528,"lng":-73.9694858,"state":"NY","city":"New York","address":"","zip":"","phone":"+1-718-855-1488","email":"","website":"","hours":"","brand":"","services":["general_repair"],"shopType":"general_repair"},{"id":"shop-ny-brooklyn-tvandnav2go","name":"TVandNav2Go","slug":"ny-brooklyn-tvandnav2go","lat":40.6341767,"lng":-73.9147499,"state":"NY","city":"Brooklyn","address":"7718 Flatlands Avenue","zip":"11236","phone":"+1 718 763 7367","email":"","website":"http://tvandnav2go.com/","hours":"","brand":"","services":["electrical"],"shopType":"general_repair"},{"id":"shop-ny-monroe-county-howard-road-garage","name":"Howard Road Garage","slug":"ny-monroe-county-howard-road-garage","lat":43.1635884,"lng":-77.6915059,"state":"NY","city":"Monroe County","address":"","zip":"","phone":"","email":"","website":"","hours":"","brand":"","services":["general_repair"],"shopType":"general_repair"},{"id":"shop-ny-monroe-county-monro-muffler-brake","name":"Monro Muffler Brake","slug":"ny-monroe-county-monro-muffler-brake","lat":43.1639563,"lng":-77.6915226,"state":"NY","city":"Monroe County","address":"","zip":"","phone":"","email":"","website":"","hours":"","brand":"Monro","services":["exhaust","brakes"],"shopType":"general_repair"},{"id":"shop-ny-long-island-city-tire-town-express","name":"Tire Town Express","slug":"ny-long-island-city-tire-town-express","lat":40.7389118,"lng":-73.9341475,"state":"NY","city":"Long Island City","address":"32-49 Gale Avenue","zip":"11101","phone":"+1-718-784-0404","email":"mztiretown@gmail.com","website":"https://www.tiretownexpress.com/","hours":"","brand":"","services":["tires"],"shopType":"tire_shop"},{"id":"shop-ny-new-york-arys-complete-auto-repair","name":"Arys Complete Auto Repair","slug":"ny-new-york-arys-complete-auto-repair","lat":40.6787863,"lng":-73.9621754,"state":"NY","city":"New York","address":"568A Grand Avenue","zip":"11238","phone":"+1-646-387-8529","email":"","website":"","hours":"","brand":"","services":["general_repair"],"shopType":"general_repair"},{"id":"shop-ny-new-york-all-in-one-auto-service-2","name":"All In One Auto Service 2","slug":"ny-new-york-all-in-one-auto-service-2","lat":40.6787243,"lng":-73.9621977,"state":"NY","city":"New York","address":"568B Grand Avenue","zip":"11238","phone":"+1-718-857-6434","email":"","website":"https://allinoneautoservicebrooklyn.com","hours":"","brand":"","services":["general_repair"],"shopType":"general_repair"},{"id":"shop-ny-new-york-frontline-automotive","name":"Frontline Automotive","slug":"ny-new-york-frontline-automotive","lat":40.6785716,"lng":-73.9622528,"state":"NY","city":"New York","address":"568D Grand Avenue","zip":"11238","phone":"","email":"","website":"","hours":"","brand":"","services":["general_repair"],"shopType":"general_repair"},{"id":"shop-ny-new-york-g-b-collision-center","name":"G&B Collision Center","slug":"ny-new-york-g-b-collision-center","lat":40.6783296,"lng":-73.9619931,"state":"NY","city":"New York","address":"","zip":"","phone":"+1-718-230-9793","email":"","website":"https://gbcollisioncenter.com","hours":"","brand":"","services":["body_work"],"shopType":"body_shop"},{"id":"shop-ny-new-york-mavis-discount-tire","name":"Mavis Discount Tire","slug":"ny-new-york-mavis-discount-tire","lat":40.8835493,"lng":-73.9013154,"state":"NY","city":"New York","address":"","zip":"","phone":"+1-718-543-3800","email":"","website":"https://www.mavistire.com/locations/bronx-riverdale-ny.asp","hours":"Mo-Fr 08:00-18:00; Sa 08:00-17:00; Su 09:00-17:00","brand":"Discount Tire","services":["tires"],"shopType":"tire_shop"},{"id":"shop-ny-new-york-awais-auto-repair-and-tire-center","name":"Awais Auto Repair and Tire Center","slug":"ny-new-york-awais-auto-repair-and-tire-center","lat":40.6739603,"lng":-74.0004934,"state":"NY","city":"New York","address":"","zip":"","phone":"+1-718-522-6356","email":"","website":"https://www.redhookautorepair.com","hours":"Mo-Sa 07:30-20:00; Su 08:30-20:00","brand":"","services":["tires"],"shopType":"tire_shop"},{"id":"shop-ny-new-york-prela-enterprises-inc","name":"Prela Enterprises Inc","slug":"ny-new-york-prela-enterprises-inc","lat":40.758632,"lng":-73.7844572,"state":"NY","city":"New York","address":"42-42 Francis Lewis Boulevard","zip":"11361","phone":"","email":"","website":"","hours":"","brand":"","services":["general_repair"],"shopType":"general_repair"},{"id":"shop-ny-new-york-thumbs-up-tire-shop","name":"Thumbs Up Tire Shop","slug":"ny-new-york-thumbs-up-tire-shop","lat":40.7106662,"lng":-73.9516257,"state":"NY","city":"New York","address":"418 Hooper Street","zip":"11211","phone":"+1-718-384-0022","email":"","website":"","hours":"","brand":"","services":["tires"],"shopType":"tire_shop"},{"id":"shop-ny-new-york-david-s-auto-service","name":"David's Auto Service","slug":"ny-new-york-david-s-auto-service","lat":40.7334407,"lng":-73.9524767,"state":"NY","city":"New York","address":"321 McGuinness Boulevard","zip":"11222","phone":"+1-718-609-9150","email":"","website":"","hours":"","brand":"","services":["general_repair"],"shopType":"general_repair"},{"id":"shop-ny-maspeth-gotham-city-collision-east","name":"Gotham City Collision East","slug":"ny-maspeth-gotham-city-collision-east","lat":40.7322964,"lng":-73.902037,"state":"NY","city":"Maspeth","address":"64-10 Maurice Avenue","zip":"11378","phone":"+13479476542","email":"","website":"https://www.gothamcitycollision.com","hours":"Mo-Sa 08:00-17:00","brand":"","services":["body_work","body_repair"],"shopType":"body_shop"},{"id":"shop-ny-new-york-jp-auto-repair","name":"JP Auto Repair","slug":"ny-new-york-jp-auto-repair","lat":40.7356897,"lng":-73.894939,"state":"NY","city":"New York","address":"50-37 69th Place","zip":"11377","phone":"+1-728-639-4668","email":"","website":"","hours":"","brand":"","services":["general_repair"],"shopType":"general_repair"},{"id":"shop-ny-queens-five-five-auto-repair","name":"Five Five Auto Repair","slug":"ny-queens-five-five-auto-repair","lat":40.7368175,"lng":-73.8954977,"state":"NY","city":"Queens","address":"50-01 69th Street","zip":"11377","phone":"+1-718-478-6588","email":"","website":"","hours":"","brand":"","services":["general_repair"],"shopType":"general_repair"},{"id":"shop-ny-new-york-auto-body-repair-inc","name":"Auto Body & Repair Inc.","slug":"ny-new-york-auto-body-repair-inc","lat":40.753464,"lng":-73.923668,"state":"NY","city":"New York","address":"36-04 Steinway Street","zip":"11101","phone":"+1 718-472-3300","email":"","website":"","hours":"","brand":"","services":["body_work"],"shopType":"body_shop"},{"id":"shop-ny-new-york-kings-automotive","name":"Kings Automotive","slug":"ny-new-york-kings-automotive","lat":40.7533669,"lng":-73.9237476,"state":"NY","city":"New York","address":"36-06 Steinway Street","zip":"11101","phone":"+1 718-757-0378","email":"","website":"","hours":"","brand":"","services":["general_repair"],"shopType":"general_repair"},{"id":"shop-ny-new-york-tm-t-complete-auto-repairs","name":"TM&T Complete Auto Repairs","slug":"ny-new-york-tm-t-complete-auto-repairs","lat":40.7532415,"lng":-73.921803,"state":"NY","city":"New York","address":"41-15 Northern Boulevard","zip":"11101","phone":"+1 718-729-3500","email":"","website":"","hours":"","brand":"","services":["general_repair"],"shopType":"general_repair"},{"id":"shop-ny-astoria-the-scooter-shop","name":"The Scooter shop","slug":"ny-astoria-the-scooter-shop","lat":40.7704749,"lng":-73.9181191,"state":"NY","city":"Astoria","address":"2922 Hoyt Avenue South","zip":"11102","phone":"","email":"","website":"","hours":"","brand":"","services":["general_repair"],"shopType":"general_repair"},{"id":"shop-ny-new-york-ny-best-auto-repair-inc","name":"NY Best Auto Repair Inc","slug":"ny-new-york-ny-best-auto-repair-inc","lat":40.7717429,"lng":-73.9254929,"state":"NY","city":"New York","address":"21-20 Newtown Avenue","zip":"11102","phone":"+1 718 274 9389","email":"","website":"","hours":"","brand":"","services":["general_repair"],"shopType":"general_repair"},{"id":"shop-ny-new-york-a-rich-auto-works","name":"A Rich Auto Works","slug":"ny-new-york-a-rich-auto-works","lat":40.686954,"lng":-73.8428199,"state":"NY","city":"New York","address":"97-02 100th Street","zip":"11416","phone":"+1-718-843-0203","email":"","website":"","hours":"","brand":"","services":["general_repair"],"shopType":"general_repair"},{"id":"shop-ny-jamaica-pro-body-shop","name":"Pro Body Shop","slug":"ny-jamaica-pro-body-shop","lat":40.7052361,"lng":-73.8109472,"state":"NY","city":"Jamaica","address":"144-24 Hillside Avenue","zip":"11435","phone":"+1-718-297-2121","email":"","website":"","hours":"","brand":"","services":["body_work"],"shopType":"body_shop"},{"id":"shop-ny-hastings-on-hudson-straub-auto-repairs","name":"Straub Auto Repairs","slug":"ny-hastings-on-hudson-straub-auto-repairs","lat":40.9925474,"lng":-73.883254,"state":"NY","city":"Hastings on Hudson","address":"477 Warburton Avenue","zip":"10706","phone":"+1-914-478-1177","email":"","website":"","hours":"","brand":"","services":["general_repair"],"shopType":"general_repair"},{"id":"shop-ny-port-henry-port-henry-village-public-works","name":"Port Henry Village Public Works","slug":"ny-port-henry-port-henry-village-public-works","lat":44.0473715,"lng":-73.4603354,"state":"NY","city":"Port Henry","address":"","zip":"","phone":"","email":"","website":"","hours":"","brand":"","services":["general_repair"],"shopType":"general_repair"},{"id":"shop-ny-port-henry-champ2000-com-inc","name":"Champ2000.com Inc.","slug":"ny-port-henry-champ2000-com-inc","lat":44.045257,"lng":-73.4600769,"state":"NY","city":"Port Henry","address":"","zip":"","phone":"","email":"","website":"","hours":"","brand":"","services":["general_repair"],"shopType":"general_repair"},{"id":"shop-ny-port-henry-sleeper-s-automotive","name":"Sleeper's Automotive","slug":"ny-port-henry-sleeper-s-automotive","lat":44.043063,"lng":-73.459401,"state":"NY","city":"Port Henry","address":"","zip":"","phone":"","email":"","website":"","hours":"","brand":"","services":["general_repair"],"shopType":"general_repair"},{"id":"shop-ny-port-henry-moriah-buildings-and-grounds","name":"Moriah Buildings and Grounds","slug":"ny-port-henry-moriah-buildings-and-grounds","lat":44.0380538,"lng":-73.45924,"state":"NY","city":"Port Henry","address":"","zip":"","phone":"","email":"","website":"","hours":"","brand":"","services":["general_repair"],"shopType":"general_repair"},{"id":"shop-ny-town-of-moriah-port-henry-service-center","name":"Port Henry Service Center","slug":"ny-town-of-moriah-port-henry-service-center","lat":44.0334876,"lng":-73.4622334,"state":"NY","city":"Town of Moriah","address":"","zip":"","phone":"","email":"","website":"","hours":"","brand":"","services":["general_repair"],"shopType":"general_repair"},{"id":"shop-ny-port-henry-jim-s-body-shop","name":"Jim's Body Shop","slug":"ny-port-henry-jim-s-body-shop","lat":44.0493133,"lng":-73.4659241,"state":"NY","city":"Port Henry","address":"","zip":"","phone":"","email":"","website":"","hours":"","brand":"","services":["body_work"],"shopType":"body_shop"},{"id":"shop-ny-town-of-moriah-sleeper-s","name":"Sleeper's","slug":"ny-town-of-moriah-sleeper-s","lat":44.0610564,"lng":-73.5090594,"state":"NY","city":"Town of Moriah","address":"","zip":"","phone":"","email":"","website":"","hours":"","brand":"","services":["general_repair"],"shopType":"general_repair"},{"id":"shop-ny-port-henry-leroy-s","name":"Leroy's","slug":"ny-port-henry-leroy-s","lat":44.0472081,"lng":-73.4747003,"state":"NY","city":"Port Henry","address":"","zip":"","phone":"","email":"","website":"","hours":"","brand":"","services":["general_repair"],"shopType":"general_repair"},{"id":"shop-ny-city-of-plattsburgh-yipes-stripes","name":"Yipes Stripes","slug":"ny-city-of-plattsburgh-yipes-stripes","lat":44.6811406,"lng":-73.4519444,"state":"NY","city":"City of Plattsburgh","address":"","zip":"","phone":"","email":"","website":"","hours":"","brand":"","services":["general_repair"],"shopType":"general_repair"},{"id":"shop-ny-city-of-plattsburgh-windshield-world","name":"Windshield World","slug":"ny-city-of-plattsburgh-windshield-world","lat":44.6977569,"lng":-73.4796892,"state":"NY","city":"City of Plattsburgh","address":"","zip":"","phone":"","email":"","website":"","hours":"","brand":"","services":["general_repair"],"shopType":"general_repair"},{"id":"shop-ny-city-of-plattsburgh-bailey-ford-of-plattsburgh-parts","name":"Bailey Ford of Plattsburgh Parts","slug":"ny-city-of-plattsburgh-bailey-ford-of-plattsburgh-parts","lat":44.6976921,"lng":-73.479201,"state":"NY","city":"City of Plattsburgh","address":"","zip":"","phone":"","email":"","website":"","hours":"","brand":"Ford","services":["general_repair"],"shopType":"general_repair"},{"id":"shop-ny-mineville-h-b-repair","name":"H & B Repair","slug":"ny-mineville-h-b-repair","lat":44.1070285,"lng":-73.5175762,"state":"NY","city":"Mineville","address":"","zip":"","phone":"","email":"","website":"","hours":"","brand":"","services":["general_repair"],"shopType":"general_repair"},{"id":"shop-ny-saratoga-springs-h-v-collision-center","name":"H&V Collision Center","slug":"ny-saratoga-springs-h-v-collision-center","lat":43.0372922,"lng":-73.8250927,"state":"NY","city":"Saratoga Springs","address":"2202 New York 50","zip":"12866","phone":"","email":"","website":"handvcollision.com","hours":"","brand":"","services":["body_work"],"shopType":"body_shop"},{"id":"shop-ny-endicott-auto-smart-llc","name":"Auto Smart, LLC","slug":"ny-endicott-auto-smart-llc","lat":42.0694341,"lng":-76.1225306,"state":"NY","city":"Endicott","address":"8767 State Route 17C","zip":"13760","phone":"","email":"","website":"","hours":"Mo-Fr 09:00-18:00; Sa-Su \"on appointment\"","brand":"","services":["used_car_sales"],"shopType":"general_repair"},{"id":"shop-ny-queensbury-midas","name":"Midas","slug":"ny-queensbury-midas","lat":43.3323564,"lng":-73.6433125,"state":"NY","city":"Queensbury","address":"333 Quaker Road","zip":"12804","phone":"","email":"","website":"https://www.midas.com/albany-ny/store.aspx?shopnum=6842&dmanum=20001","hours":"","brand":"Midas","services":["general_repair"],"shopType":"general_repair"},{"id":"shop-ny-town-of-east-fishkill-clove-branch-muffler-brake","name":"Clove Branch Muffler & Brake","slug":"ny-town-of-east-fishkill-clove-branch-muffler-brake","lat":41.5961941,"lng":-73.7941348,"state":"NY","city":"Town of East Fishkill","address":"","zip":"","phone":"","email":"","website":"","hours":"","brand":"","services":["exhaust","brakes"],"shopType":"general_repair"},{"id":"shop-ny-ithaca-trombley-tire-auto-service","name":"Trombley Tire & Auto Service","slug":"ny-ithaca-trombley-tire-auto-service","lat":42.4394667,"lng":-76.5127799,"state":"NY","city":"Ithaca","address":"917 West State Street","zip":"14850","phone":"+1-607-273-2236","email":"","website":"https://www.trombleytireandauto.com/locations/mode/d/locationid/4.aspx","hours":"Mo-Fr 07:30-17:30; Sa 07:30-13:00","brand":"","services":["tires"],"shopType":"tire_shop"},{"id":"shop-ny-town-of-moriah-mike-s-auto-detailing","name":"Mike's Auto Detailing","slug":"ny-town-of-moriah-mike-s-auto-detailing","lat":44.0351049,"lng":-73.4621167,"state":"NY","city":"Town of Moriah","address":"","zip":"","phone":"","email":"","website":"","hours":"","brand":"","services":["general_repair"],"shopType":"general_repair"},{"id":"shop-ny-city-of-olean-al-lemen-services","name":"Al Lemen Services","slug":"ny-city-of-olean-al-lemen-services","lat":42.0721303,"lng":-78.4293653,"state":"NY","city":"City of Olean","address":"","zip":"","phone":"","email":"","website":"","hours":"","brand":"","services":["general_repair"],"shopType":"general_repair"},{"id":"shop-ny-livonia-commercial-automotive-inc","name":"Commercial Automotive, Inc.","slug":"ny-livonia-commercial-automotive-inc","lat":42.8205455,"lng":-77.6691668,"state":"NY","city":"Livonia","address":"28 Commercial Street","zip":"14487","phone":"+1-585-346-9010","email":"","website":"http://www.commercialautomotivelivonia.com","hours":"","brand":"","services":["general_repair"],"shopType":"general_repair"},{"id":"shop-ny-red-hook-vin-s-auto-service","name":"Vin's Auto Service","slug":"ny-red-hook-vin-s-auto-service","lat":41.9942349,"lng":-73.8703188,"state":"NY","city":"Red Hook","address":"East Market Street","zip":"12571","phone":"","email":"","website":"","hours":"","brand":"","services":["general_repair"],"shopType":"general_repair"},{"id":"shop-ny-corning-monro","name":"Monro","slug":"ny-corning-monro","lat":42.1527587,"lng":-77.0784106,"state":"NY","city":"Corning","address":"368 Pulteney Street","zip":"14830","phone":"","email":"","website":"","hours":"","brand":"Monro","services":["exhaust","brakes"],"shopType":"general_repair"},{"id":"shop-ny-fairmount-midas","name":"Midas","slug":"ny-fairmount-midas","lat":43.0469413,"lng":-76.2403938,"state":"NY","city":"Fairmount","address":"West Genesee Street","zip":"","phone":"","email":"","website":"","hours":"","brand":"Midas","services":["general_repair"],"shopType":"general_repair"},{"id":"shop-ny-jamesville-cooke-s-car-care","name":"Cooke's Car Care","slug":"ny-jamesville-cooke-s-car-care","lat":42.9950083,"lng":-76.0706464,"state":"NY","city":"Jamesville","address":"4614 North Street","zip":"13078","phone":"+1-315-492-0966","email":"","website":"http://www.napaautocare.com/store.aspx?id=227958","hours":"Mo-Fr 08:00-17:00","brand":"NAPA","services":["general_repair"],"shopType":"general_repair"},{"id":"shop-ny-holbrook-superior-auto-collision","name":"Superior Auto Collision","slug":"ny-holbrook-superior-auto-collision","lat":40.7787656,"lng":-73.0843879,"state":"NY","city":"Holbrook","address":"1150-3 Lincoln Avenue","zip":"11741","phone":"","email":"","website":"","hours":"","brand":"","services":["body_work"],"shopType":"body_shop"},{"id":"shop-ny-new-york-central-collision","name":"Central Collision","slug":"ny-new-york-central-collision","lat":40.761003,"lng":-73.940267,"state":"NY","city":"New York","address":"","zip":"","phone":"","email":"","website":"","hours":"","brand":"","services":["body_work"],"shopType":"body_shop"},{"id":"shop-ny-city-of-syracuse-b-t-auto-service","name":"B&T Auto Service","slug":"ny-city-of-syracuse-b-t-auto-service","lat":43.0583752,"lng":-76.1499871,"state":"NY","city":"City of Syracuse","address":"","zip":"","phone":"","email":"","website":"","hours":"","brand":"","services":["general_repair"],"shopType":"general_repair"},{"id":"shop-ny-cicero-ziebart","name":"Ziebart","slug":"ny-cicero-ziebart","lat":43.1631248,"lng":-76.0943885,"state":"NY","city":"Cicero","address":"6174 South Bay Road","zip":"13039","phone":"+1-315-699-4944","email":"","website":"http://www.ziebart.com/find-my-local-ziebart/location/ny18-6174-s-bay-rd-cicero-ny-13039","hours":"","brand":"","services":["general_repair"],"shopType":"general_repair"},{"id":"shop-ny-camillus-mavis-discount-tire","name":"Mavis Discount Tire","slug":"ny-camillus-mavis-discount-tire","lat":43.0414851,"lng":-76.2728835,"state":"NY","city":"Camillus","address":"5332 West Genesee Street","zip":"13031","phone":"","email":"","website":"","hours":"","brand":"Discount Tire","services":["tires"],"shopType":"tire_shop"},{"id":"shop-ny-syracuse-moores-tire-sales","name":"Moores Tire Sales","slug":"ny-syracuse-moores-tire-sales","lat":43.0532385,"lng":-76.1264753,"state":"NY","city":"Syracuse","address":"931 Burnet Avenue","zip":"13203","phone":"+1 315 474 0610","email":"","website":"http://www.moorestiresales.com","hours":"","brand":"","services":["tires"],"shopType":"tire_shop"},{"id":"shop-ny-city-of-ithaca-wink-s-auto-repair","name":"Wink's Auto Repair","slug":"ny-city-of-ithaca-wink-s-auto-repair","lat":42.4424679,"lng":-76.5100908,"state":"NY","city":"City of Ithaca","address":"","zip":"","phone":"","email":"","website":"","hours":"","brand":"","services":["general_repair"],"shopType":"general_repair"},{"id":"shop-ny-city-of-ithaca-bj-s","name":"BJ's","slug":"ny-city-of-ithaca-bj-s","lat":42.486898,"lng":-76.4922255,"state":"NY","city":"City of Ithaca","address":"","zip":"","phone":"","email":"","website":"","hours":"","brand":"","services":["tires"],"shopType":"general_repair"},{"id":"shop-ny-camillus-dunn-tire","name":"Dunn Tire","slug":"ny-camillus-dunn-tire","lat":43.053119,"lng":-76.2605772,"state":"NY","city":"Camillus","address":"3690 Milton Avenue","zip":"13031","phone":"+1 315 410 8600","email":"","website":"http://www.dunntire.com/","hours":"Mo-Fr 07:00-18:00; Sa 08:00-16:00","brand":"Dunn Tire","services":["tires"],"shopType":"tire_shop"},{"id":"shop-ny-village-of-greenwich-warren-tire-service-center","name":"Warren Tire Service Center","slug":"ny-village-of-greenwich-warren-tire-service-center","lat":43.095252,"lng":-73.5082389,"state":"NY","city":"Village of Greenwich","address":"","zip":"","phone":"","email":"","website":"","hours":"","brand":"","services":["tires"],"shopType":"tire_shop"},{"id":"shop-ny-new-paltz-absolutely-automotive","name":"Absolutely Automotive","slug":"ny-new-paltz-absolutely-automotive","lat":41.7399209,"lng":-74.0567601,"state":"NY","city":"New Paltz","address":"","zip":"","phone":"","email":"","website":"","hours":"","brand":"","services":["general_repair"],"shopType":"general_repair"},{"id":"shop-ny-town-of-cicero-burdick-toyota-scion-service-and-parts","name":"Burdick Toyota - Scion Service and Parts","slug":"ny-town-of-cicero-burdick-toyota-scion-service-and-parts","lat":43.1526701,"lng":-76.112311,"state":"NY","city":"Town of Cicero","address":"","zip":"","phone":"+1-315-459-6070","email":"","website":"https://www.burdicktoyota.com/service/index.htm","hours":"Mo-Th 07:00-19:00; Fr 07:00-18:00; Sa 07:30-16:00","brand":"","services":["general_repair"],"shopType":"general_repair"},{"id":"shop-ny-town-of-west-seneca-tnt-express-lube","name":"TNT Express Lube","slug":"ny-town-of-west-seneca-tnt-express-lube","lat":42.8391815,"lng":-78.753719,"state":"NY","city":"Town of West Seneca","address":"","zip":"","phone":"","email":"","website":"http://www.tntexpresslube.com/","hours":"","brand":"","services":["oil_change"],"shopType":"quick_lube"},{"id":"shop-ny-city-of-syracuse-car-magic-by-curtis","name":"Car Magic by Curtis","slug":"ny-city-of-syracuse-car-magic-by-curtis","lat":43.0121997,"lng":-76.134161,"state":"NY","city":"City of Syracuse","address":"","zip":"","phone":"","email":"","website":"","hours":"","brand":"","services":["general_repair"],"shopType":"general_repair"},{"id":"shop-ny-new-paltz-new-paltz-auto-works","name":"New Paltz Auto Works","slug":"ny-new-paltz-new-paltz-auto-works","lat":41.7468009,"lng":-74.0807893,"state":"NY","city":"New Paltz","address":"","zip":"","phone":"","email":"","website":"","hours":"","brand":"","services":["general_repair"],"shopType":"general_repair"},{"id":"shop-ny-lindenhurst-bullet-proof-transmission","name":"Bullet Proof Transmission","slug":"ny-lindenhurst-bullet-proof-transmission","lat":40.6847485,"lng":-73.3828119,"state":"NY","city":"Lindenhurst","address":"300 West Hoffman Avenue","zip":"11757","phone":"","email":"","website":"","hours":"Mo-Fr 08:00-17:00","brand":"","services":["transmission"],"shopType":"transmission_shop"},{"id":"shop-ny-new-york-united-motor-service-center","name":"United Motor Service Center","slug":"ny-new-york-united-motor-service-center","lat":40.7505534,"lng":-73.9053124,"state":"NY","city":"New York","address":"56-19 37th Avenue","zip":"","phone":"+1 718-255-1218","email":"","website":"www.unitedmotorservice.com","hours":"","brand":"","services":["general_repair"],"shopType":"general_repair"},{"id":"shop-ny-bay-shore-atlantic-chevrolet-cadillac","name":"Atlantic Chevrolet Cadillac","slug":"ny-bay-shore-atlantic-chevrolet-cadillac","lat":40.7326806,"lng":-73.2579453,"state":"NY","city":"Bay Shore","address":"","zip":"","phone":"","email":"","website":"","hours":"","brand":"","services":["ac"],"shopType":"general_repair"},{"id":"shop-ny-town-of-maryland-the-tire-lubricant-warehouse","name":"The Tire & Lubricant Warehouse","slug":"ny-town-of-maryland-the-tire-lubricant-warehouse","lat":42.536068,"lng":-74.8912373,"state":"NY","city":"Town of Maryland","address":"","zip":"","phone":"","email":"","website":"","hours":"","brand":"","services":["tires"],"shopType":"tire_shop"},{"id":"shop-ny-town-of-canton-star-route-auto","name":"Star Route Auto","slug":"ny-town-of-canton-star-route-auto","lat":44.5689019,"lng":-75.1425047,"state":"NY","city":"Town of Canton","address":"","zip":"","phone":"","email":"","website":"","hours":"","brand":"","services":["general_repair"],"shopType":"general_repair"},{"id":"shop-ny-east-glenville-gil-s-garage","name":"Gil's Garage","slug":"ny-east-glenville-gil-s-garage","lat":42.9124047,"lng":-73.8971788,"state":"NY","city":"East Glenville","address":"","zip":"","phone":"+1 518 3061651","email":"","website":"https://www.gilsgarage.com/","hours":"","brand":"","services":["general_repair"],"shopType":"general_repair"},{"id":"shop-ny-nedrow-greeley-s-auto-tire-service","name":"Greeley's Auto & Tire Service","slug":"ny-nedrow-greeley-s-auto-tire-service","lat":42.982322,"lng":-76.1431696,"state":"NY","city":"Nedrow","address":"","zip":"","phone":"","email":"","website":"http://www.greeleysautoandtires.com/","hours":"","brand":"ACDelco","services":["tires"],"shopType":"tire_shop"},{"id":"shop-ny-city-of-syracuse-goodyear","name":"Goodyear","slug":"ny-city-of-syracuse-goodyear","lat":43.1063779,"lng":-76.1464493,"state":"NY","city":"City of Syracuse","address":"","zip":"","phone":"","email":"","website":"http://www.goodyearautoservice.com/home.jsp","hours":"","brand":"Goodyear","services":["general_repair"],"shopType":"general_repair"},{"id":"shop-ny-syracuse-ziebart","name":"Ziebart","slug":"ny-syracuse-ziebart","lat":43.0569505,"lng":-76.1837599,"state":"NY","city":"Syracuse","address":"980 Hiawatha Boulevard West","zip":"13204","phone":"+1-315-471-3003","email":"","website":"http://ziebart.com/","hours":"Mo-Fr 08:00-17:00","brand":"","services":["general_repair"],"shopType":"general_repair"},{"id":"shop-ny-lindenhurst-monster-s-recycling","name":"Monster's Recycling","slug":"ny-lindenhurst-monster-s-recycling","lat":40.6953192,"lng":-73.3551996,"state":"NY","city":"Lindenhurst","address":"200 Reid St","zip":"11757","phone":"+1 631 6611500","email":"","website":"http://monsters-recycling.com","hours":"Mo-Fr 08:00-17:00; Sa 08:00-13:00; Su off","brand":"","services":["engine_repair","transmission"],"shopType":"general_repair"},{"id":"shop-ny-city-of-schenectady-ronnie-son-s-auto-repair","name":"Ronnie & Son's Auto Repair","slug":"ny-city-of-schenectady-ronnie-son-s-auto-repair","lat":42.7774806,"lng":-73.9004786,"state":"NY","city":"City of Schenectady","address":"","zip":"","phone":"","email":"","website":"","hours":"","brand":"","services":["general_repair"],"shopType":"general_repair"},{"id":"shop-ny-city-of-schenectady-state-transmission","name":"State Transmission","slug":"ny-city-of-schenectady-state-transmission","lat":42.7777582,"lng":-73.9007294,"state":"NY","city":"City of Schenectady","address":"","zip":"","phone":"","email":"","website":"","hours":"","brand":"","services":["transmission"],"shopType":"transmission_shop"},{"id":"shop-ny-city-of-syracuse-c-b-auto","name":"C&B Auto","slug":"ny-city-of-syracuse-c-b-auto","lat":43.0524922,"lng":-76.1845228,"state":"NY","city":"City of Syracuse","address":"","zip":"","phone":"","email":"","website":"","hours":"","brand":"","services":["general_repair"],"shopType":"general_repair"},{"id":"shop-ny-jamesville-jamesville-car-care","name":"Jamesville Car Care","slug":"ny-jamesville-jamesville-car-care","lat":42.996713,"lng":-76.1128396,"state":"NY","city":"Jamesville","address":"5894 East Seneca Turnpike","zip":"13078","phone":"+1 315 469 5008","email":"","website":"","hours":"","brand":"","services":["general_repair"],"shopType":"general_repair"},{"id":"shop-ny-village-of-skaneateles-wirth-s-automotive-inc","name":"Wirth's Automotive INC.","slug":"ny-village-of-skaneateles-wirth-s-automotive-inc","lat":42.9446584,"lng":-76.4125106,"state":"NY","city":"Village of Skaneateles","address":"","zip":"","phone":"","email":"","website":"","hours":"","brand":"ACDelco","services":["general_repair"],"shopType":"general_repair"},{"id":"shop-ny-amsterdam-mid-city-auto-repair","name":"Mid City Auto Repair","slug":"ny-amsterdam-mid-city-auto-repair","lat":42.9265642,"lng":-74.1704916,"state":"NY","city":"Amsterdam","address":"325 Chapman Drive","zip":"12010","phone":"","email":"","website":"","hours":"","brand":"","services":["general_repair"],"shopType":"general_repair"},{"id":"shop-ny-brooklyn-guaranteed-alarm-glass-inc","name":"Guaranteed Alarm & Glass Inc.","slug":"ny-brooklyn-guaranteed-alarm-glass-inc","lat":40.5826284,"lng":-73.9596625,"state":"NY","city":"Brooklyn","address":"3029 Coney Island Avenue","zip":"11235","phone":"+1 718 6464110","email":"","website":"http://guaranteedalarmandglassinc.com","hours":"Mo-Fr 09:00-18:00; Sa 09:00-17:00","brand":"","services":["general_repair"],"shopType":"general_repair"},{"id":"shop-ny-locust-valley-hans-auto-services","name":"Hans Auto Services","slug":"ny-locust-valley-hans-auto-services","lat":40.8751743,"lng":-73.5964954,"state":"NY","city":"Locust Valley","address":"6 Birch Hill Road","zip":"11560","phone":"+1 516-676-0526","email":"","website":"","hours":"","brand":"","services":["general_repair"],"shopType":"general_repair"},{"id":"shop-ny-city-of-glen-cove-car-salon","name":"Car Salon","slug":"ny-city-of-glen-cove-car-salon","lat":40.8741655,"lng":-73.6147691,"state":"NY","city":"City of Glen Cove","address":"","zip":"","phone":"+1-516-674-4060","email":"","website":"","hours":"","brand":"","services":["general_repair"],"shopType":"general_repair"},{"id":"shop-ny-village-of-moravia-performance-automotive-marine-service","name":"Performance Automotive & Marine Service","slug":"ny-village-of-moravia-performance-automotive-marine-service","lat":42.7044757,"lng":-76.4209039,"state":"NY","city":"Village of Moravia","address":"","zip":"","phone":"+1 315 487 3317","email":"","website":"","hours":"","brand":"","services":["general_repair"],"shopType":"general_repair"},{"id":"shop-ny-buffalo-delta-sonic","name":"Delta Sonic","slug":"ny-buffalo-delta-sonic","lat":42.991431,"lng":-78.8207717,"state":"NY","city":"Buffalo","address":"","zip":"","phone":"","email":"","website":"","hours":"","brand":"","services":["general_repair"],"shopType":"general_repair"},{"id":"shop-ny-bronx-sunnys-autobody-llc","name":"Sunnys Autobody, LLC","slug":"ny-bronx-sunnys-autobody-llc","lat":40.8869401,"lng":-73.8264802,"state":"NY","city":"Bronx","address":"4151 Boston Road","zip":"10466","phone":"+1 718 3255300","email":"","website":"https://www.sunnysautobody.com/","hours":"Mo-Fr 08:30-17:30; Sa 09:00-16:30","brand":"","services":["body_work"],"shopType":"body_shop"},{"id":"shop-ny-brooklyn-einstein-s-truck-auto","name":"Einstein's Truck & Auto","slug":"ny-brooklyn-einstein-s-truck-auto","lat":40.6314517,"lng":-74.0035786,"state":"NY","city":"Brooklyn","address":"1068 60th Street","zip":"11219","phone":"+1-718-438-1880","email":"","website":"http://Einsteinstruckandauto.net","hours":"","brand":"","services":["general_repair"],"shopType":"general_repair"},{"id":"shop-ny-rochester-mac-s-auto-service-ii","name":"Mac's Auto Service II","slug":"ny-rochester-mac-s-auto-service-ii","lat":43.0949389,"lng":-77.5873701,"state":"NY","city":"Rochester","address":"3301 Brighton-Henrietta Town Line Road","zip":"14623","phone":"+1 585-272-7700","email":"","website":"https://www.macs2.com/","hours":"Mo-Fr 07:30-17:30; Sa,Su off","brand":"","services":["general_repair"],"shopType":"general_repair"},{"id":"shop-ny-jamaica-fast-fix-automotive","name":"Fast Fix Automotive","slug":"ny-jamaica-fast-fix-automotive","lat":40.7055322,"lng":-73.8155107,"state":"NY","city":"Jamaica","address":"139-35 Queens Boulevard","zip":"11435","phone":"+1-718-658-1066","email":"","website":"http://fastfixautomotive.com","hours":"","brand":"","services":["general_repair"],"shopType":"general_repair"},{"id":"shop-ny-painted-post-walmart-auto-center","name":"Walmart Auto Center","slug":"ny-painted-post-walmart-auto-center","lat":42.1553122,"lng":-77.1076024,"state":"NY","city":"Painted Post","address":"","zip":"","phone":"","email":"","website":"","hours":"","brand":"","services":["general_repair"],"shopType":"general_repair"},{"id":"shop-ny-huntington-tully-s-auto-body","name":"Tully's Auto Body","slug":"ny-huntington-tully-s-auto-body","lat":40.8505384,"lng":-73.3664147,"state":"NY","city":"Huntington","address":"136 Little Plains Road","zip":"11743","phone":"+1-631-757-9810","email":"","website":"https://www.anjonofgreenlawn.com/","hours":"","brand":"","services":["body_work"],"shopType":"body_shop"},{"id":"shop-ny-city-of-cortland-mr-tire","name":"Mr. Tire","slug":"ny-city-of-cortland-mr-tire","lat":42.6062549,"lng":-76.1676432,"state":"NY","city":"City of Cortland","address":"","zip":"","phone":"","email":"","website":"","hours":"","brand":"","services":["tires"],"shopType":"tire_shop"},{"id":"shop-ny-brooklyn-a1a-auto-glass","name":"A1A Auto Glass","slug":"ny-brooklyn-a1a-auto-glass","lat":40.6416574,"lng":-73.9191705,"state":"NY","city":"Brooklyn","address":"8013 Preston Court","zip":"11236","phone":"+1-718-531-8625","email":"","website":"http://a1aautoglass.com","hours":"","brand":"","services":["general_repair"],"shopType":"general_repair"},{"id":"shop-ny-town-of-smithtown-mike-s-car-care","name":"Mike's Car Care","slug":"ny-town-of-smithtown-mike-s-car-care","lat":40.841915,"lng":-73.1683783,"state":"NY","city":"Town of Smithtown","address":"","zip":"","phone":"","email":"","website":"","hours":"","brand":"","services":["general_repair"],"shopType":"general_repair"},{"id":"shop-ny-town-of-ellington-bob-s","name":"Bob's","slug":"ny-town-of-ellington-bob-s","lat":42.2164407,"lng":-79.1078313,"state":"NY","city":"Town of Ellington","address":"","zip":"","phone":"","email":"","website":"","hours":"","brand":"","services":["general_repair"],"shopType":"general_repair"},{"id":"shop-ny-city-of-auburn-monro-muffler-brake-service","name":"Monro Muffler Brake & Service","slug":"ny-city-of-auburn-monro-muffler-brake-service","lat":42.9417498,"lng":-76.5524847,"state":"NY","city":"City of Auburn","address":"","zip":"","phone":"","email":"","website":"","hours":"","brand":"Monro","services":["exhaust","brakes"],"shopType":"general_repair"},{"id":"shop-ny-new-york-dema-auto-inc","name":"Dema Auto Inc","slug":"ny-new-york-dema-auto-inc","lat":40.6325341,"lng":-74.0761293,"state":"NY","city":"New York","address":"","zip":"10301","phone":"+1-718-816-9229","email":"","website":"http://demaauto.wixsite.com/auto","hours":"Mo-Fr 08:00-17:00; Sa 08:00-12:00","brand":"","services":["general_repair"],"shopType":"general_repair"},{"id":"shop-ny-town-of-bainbridge-progressive-auto","name":"Progressive Auto","slug":"ny-town-of-bainbridge-progressive-auto","lat":42.3078506,"lng":-75.5194512,"state":"NY","city":"Town of Bainbridge","address":"","zip":"","phone":"","email":"","website":"","hours":"","brand":"","services":["general_repair"],"shopType":"general_repair"},{"id":"shop-ny-slaterville-hunt-s-auto-service","name":"Hunt's Auto Service","slug":"ny-slaterville-hunt-s-auto-service","lat":42.3943597,"lng":-76.3721223,"state":"NY","city":"Slaterville","address":"2412 Slaterville Road","zip":"","phone":"","email":"","website":"https://www.huntsautoservice.com/","hours":"","brand":"","services":["general_repair"],"shopType":"general_repair"},{"id":"shop-ny-queensbury-auto-fix-care-care-center","name":"Auto Fix Care Care Center","slug":"ny-queensbury-auto-fix-care-care-center","lat":43.3307804,"lng":-73.6660314,"state":"NY","city":"Queensbury","address":"78 Quaker Road","zip":"12804","phone":"","email":"","website":"","hours":"","brand":"","services":["general_repair"],"shopType":"general_repair"},{"id":"shop-ny-new-york-apex","name":"Apex","slug":"ny-new-york-apex","lat":40.7431803,"lng":-73.9151064,"state":"NY","city":"New York","address":"","zip":"11377","phone":"+17184572643","email":"","website":"","hours":"Mo-Fr 10:00-18:00; Sa 10:00-14:00","brand":"","services":["general_repair"],"shopType":"general_repair"},{"id":"shop-ny-new-york-mark-s-motors","name":"Mark's Motors","slug":"ny-new-york-mark-s-motors","lat":40.5815613,"lng":-73.9603238,"state":"NY","city":"New York","address":"","zip":"","phone":"","email":"","website":"","hours":"24/7","brand":"","services":["tires","inspection"],"shopType":"general_repair"},{"id":"shop-ny-buffalo-dunn-tire","name":"Dunn Tire","slug":"ny-buffalo-dunn-tire","lat":42.8589397,"lng":-78.7548682,"state":"NY","city":"Buffalo","address":"2150 Union Road","zip":"14224","phone":"","email":"","website":"","hours":"","brand":"Dunn Tire","services":["tires"],"shopType":"tire_shop"},{"id":"shop-ny-new-york-universal-auto-tech-and-body-works","name":"Universal Auto Tech and Body Works","slug":"ny-new-york-universal-auto-tech-and-body-works","lat":40.7463217,"lng":-73.9527255,"state":"NY","city":"New York","address":"","zip":"","phone":"+1-718-707-0410","email":"","website":"","hours":"","brand":"","services":["body_work"],"shopType":"body_shop"},{"id":"shop-ny-new-york-a-m-auto-repair","name":"A&M Auto Repair","slug":"ny-new-york-a-m-auto-repair","lat":40.750884,"lng":-73.9458497,"state":"NY","city":"New York","address":"","zip":"","phone":"","email":"","website":"","hours":"","brand":"","services":["general_repair"],"shopType":"general_repair"},{"id":"shop-ny-new-york-gotham-city-collision","name":"Gotham City Collision","slug":"ny-new-york-gotham-city-collision","lat":40.7491535,"lng":-73.9474435,"state":"NY","city":"New York","address":"","zip":"","phone":"","email":"","website":"","hours":"","brand":"","services":["body_work"],"shopType":"body_shop"},{"id":"shop-ny-new-york-jassi-s-auto-body","name":"Jassi's Auto Body","slug":"ny-new-york-jassi-s-auto-body","lat":40.7496289,"lng":-73.9467615,"state":"NY","city":"New York","address":"","zip":"","phone":"","email":"","website":"","hours":"","brand":"","services":["body_work"],"shopType":"body_shop"},{"id":"shop-ny-new-york-hybrid-auto","name":"Hybrid Auto","slug":"ny-new-york-hybrid-auto","lat":40.7496775,"lng":-73.9470021,"state":"NY","city":"New York","address":"","zip":"","phone":"","email":"","website":"","hours":"","brand":"","services":["general_repair"],"shopType":"general_repair"},{"id":"shop-ny-new-york-tractor-trailer-repair","name":"Tractor Trailer Repair","slug":"ny-new-york-tractor-trailer-repair","lat":40.6600409,"lng":-73.7670941,"state":"NY","city":"New York","address":"176-20 147 Avenue","zip":"","phone":"","email":"","website":"","hours":"","brand":"","services":["general_repair"],"shopType":"general_repair"},{"id":"shop-ny-altamont-radzewicz-tire-services","name":"RADZEWICZ tire services","slug":"ny-altamont-radzewicz-tire-services","lat":42.7363727,"lng":-74.0072979,"state":"NY","city":"Altamont","address":"4122 Western Turnpike","zip":"12009","phone":"","email":"","website":"","hours":"Mo-Fr 09:00-17:00","brand":"","services":["tires","car_repair","tyres"],"shopType":"general_repair"},{"id":"shop-ny-village-of-island-park-south-shore-collision","name":"South Shore Collision","slug":"ny-village-of-island-park-south-shore-collision","lat":40.6159537,"lng":-73.6432122,"state":"NY","city":"Village of Island Park","address":"","zip":"","phone":"","email":"","website":"","hours":"","brand":"","services":["body_work"],"shopType":"body_shop"},{"id":"shop-ny-town-of-ovid-innovative-auto","name":"Innovative Auto","slug":"ny-town-of-ovid-innovative-auto","lat":42.655909,"lng":-76.751724,"state":"NY","city":"Town of Ovid","address":"","zip":"","phone":"","email":"","website":"","hours":"","brand":"","services":["general_repair"],"shopType":"general_repair"},{"id":"shop-ny-town-of-salina-lyncourt-car-care","name":"Lyncourt Car Care","slug":"ny-town-of-salina-lyncourt-car-care","lat":43.0825867,"lng":-76.1382848,"state":"NY","city":"Town of Salina","address":"","zip":"","phone":"+1 315 807 7505","email":"","website":"","hours":"","brand":"","services":["general_repair"],"shopType":"general_repair"},{"id":"shop-ny-new-york-c-f-tire-corp","name":"C&F tire corp","slug":"ny-new-york-c-f-tire-corp","lat":40.7702816,"lng":-73.9150664,"state":"NY","city":"New York","address":"33-11 Astoria Boulevard","zip":"","phone":"","email":"","website":"","hours":"","brand":"","services":["tires"],"shopType":"tire_shop"},{"id":"shop-ny-new-york-1-queens-auto-repair","name":"#1 Queens Auto Repair","slug":"ny-new-york-1-queens-auto-repair","lat":40.7585711,"lng":-73.9357262,"state":"NY","city":"New York","address":"37-20 23rd Street","zip":"","phone":"","email":"","website":"","hours":"","brand":"","services":["general_repair"],"shopType":"general_repair"},{"id":"shop-ny-new-york-freddy-s-2-auto-repair","name":"Freddy's 2 Auto Repair","slug":"ny-new-york-freddy-s-2-auto-repair","lat":40.7573742,"lng":-73.9369135,"state":"NY","city":"New York","address":"37-26 23rd Street","zip":"","phone":"","email":"","website":"","hours":"","brand":"","services":["general_repair"],"shopType":"general_repair"},{"id":"shop-ny-new-york-re-action-auto-truck-center","name":"Re Action Auto & Truck Center","slug":"ny-new-york-re-action-auto-truck-center","lat":40.7904068,"lng":-73.8121289,"state":"NY","city":"New York","address":"12-30 Clintonville Street","zip":"","phone":"","email":"","website":"","hours":"","brand":"","services":["general_repair"],"shopType":"general_repair"},{"id":"shop-ny-new-york-cicero-s","name":"Cicero's","slug":"ny-new-york-cicero-s","lat":40.6246531,"lng":-74.1436713,"state":"NY","city":"New York","address":"","zip":"","phone":"","email":"","website":"","hours":"","brand":"","services":["general_repair"],"shopType":"general_repair"},{"id":"shop-ny-new-york-wyckoff-halsey-auto-service","name":"Wyckoff Halsey Auto Service","slug":"ny-new-york-wyckoff-halsey-auto-service","lat":40.6963109,"lng":-73.9050276,"state":"NY","city":"New York","address":"981 Wyckoff Avenue","zip":"","phone":"+1-718-366-4386","email":"","website":"","hours":"","brand":"","services":["general_repair"],"shopType":"general_repair"},{"id":"shop-ny-new-york-speedy-auto-repair","name":"Speedy Auto Repair","slug":"ny-new-york-speedy-auto-repair","lat":40.8250545,"lng":-73.8490033,"state":"NY","city":"New York","address":"860 Castle Hill Avenue","zip":"","phone":"","email":"","website":"","hours":"","brand":"","services":["general_repair"],"shopType":"general_repair"},{"id":"shop-ny-syracuse-douglas-auto-service","name":"Douglas Auto Service","slug":"ny-syracuse-douglas-auto-service","lat":43.0765999,"lng":-76.1598642,"state":"NY","city":"Syracuse","address":"726 Wolf Street","zip":"","phone":"","email":"","website":"","hours":"","brand":"","services":["general_repair"],"shopType":"general_repair"},{"id":"shop-ny-syracuse-guy-s-automotive-service","name":"Guy's Automotive Service","slug":"ny-syracuse-guy-s-automotive-service","lat":43.0776172,"lng":-76.1611104,"state":"NY","city":"Syracuse","address":"700 Hiawatha Boulevard East","zip":"13208","phone":"+1 315 472 7011","email":"","website":"","hours":"","brand":"","services":["general_repair"],"shopType":"general_repair"},{"id":"shop-ny-syracuse-majewski-s-auto-body-collision-service","name":"Majewski's Auto Body Collision Service","slug":"ny-syracuse-majewski-s-auto-body-collision-service","lat":43.0759766,"lng":-76.1609508,"state":"NY","city":"Syracuse","address":"701 Wolf Street","zip":"13208","phone":"","email":"","website":"","hours":"","brand":"","services":["body_work"],"shopType":"body_shop"},{"id":"shop-ny-new-york-beauty-and-the-beast-auto-repair","name":"Beauty and the Beast Auto Repair","slug":"ny-new-york-beauty-and-the-beast-auto-repair","lat":40.8316838,"lng":-73.8908013,"state":"NY","city":"New York","address":"","zip":"","phone":"","email":"","website":"","hours":"","brand":"","services":["general_repair"],"shopType":"general_repair"},{"id":"shop-ny-new-york-baychester-auto-repairs","name":"Baychester Auto Repairs","slug":"ny-new-york-baychester-auto-repairs","lat":40.8709515,"lng":-73.8345973,"state":"NY","city":"New York","address":"2951 Edson Avenue","zip":"","phone":"","email":"","website":"","hours":"","brand":"","services":["general_repair"],"shopType":"general_repair"},{"id":"shop-ny-syracuse-f-m-auto-body-inc","name":"F.M. Auto Body, INC.","slug":"ny-syracuse-f-m-auto-body-inc","lat":43.0761231,"lng":-76.1601173,"state":"NY","city":"Syracuse","address":"710 Wolf Street","zip":"13208","phone":"+1 315 475 4946","email":"","website":"","hours":"","brand":"","services":["body_work"],"shopType":"body_shop"},{"id":"shop-ny-city-of-syracuse-two-guys-auto-service","name":"Two Guys Auto Service","slug":"ny-city-of-syracuse-two-guys-auto-service","lat":43.0842342,"lng":-76.148264,"state":"NY","city":"City of Syracuse","address":"","zip":"","phone":"+1 315 455 6007","email":"","website":"","hours":"","brand":"NAPA AutoCare Center","services":["general_repair"],"shopType":"general_repair"},{"id":"shop-ny-rochester-morris-auto-repair-and-collision-inc","name":"Morris Auto Repair and Collision, Inc.","slug":"ny-rochester-morris-auto-repair-and-collision-inc","lat":43.0920603,"lng":-77.6402255,"state":"NY","city":"Rochester","address":"52 Lightfoot Street","zip":"14623","phone":"+1 585-424-6990","email":"","website":"https://www.morrisauto.com/","hours":"","brand":"","services":["body_work"],"shopType":"body_shop"},{"id":"shop-ny-city-of-watertown-cole-muffler-and-brake","name":"Cole Muffler and Brake","slug":"ny-city-of-watertown-cole-muffler-and-brake","lat":43.9769448,"lng":-75.9324119,"state":"NY","city":"City of Watertown","address":"","zip":"","phone":"","email":"","website":"","hours":"","brand":"","services":["exhaust","brakes"],"shopType":"general_repair"},{"id":"shop-ny-city-of-watertown-mavis-discount-tire","name":"Mavis Discount Tire","slug":"ny-city-of-watertown-mavis-discount-tire","lat":43.9769526,"lng":-75.9325594,"state":"NY","city":"City of Watertown","address":"","zip":"","phone":"","email":"","website":"","hours":"","brand":"Discount Tire","services":["tires"],"shopType":"tire_shop"},{"id":"shop-ny-town-of-grand-island-marty-s-towing","name":"Marty's Towing","slug":"ny-town-of-grand-island-marty-s-towing","lat":43.0088376,"lng":-78.9647543,"state":"NY","city":"Town of Grand Island","address":"","zip":"","phone":"","email":"","website":"","hours":"","brand":"","services":["general_repair"],"shopType":"general_repair"},{"id":"shop-ny-town-of-grand-island-dr-hugg-s-car-wash","name":"Dr. Hugg's Car Wash","slug":"ny-town-of-grand-island-dr-hugg-s-car-wash","lat":43.0202973,"lng":-78.9606923,"state":"NY","city":"Town of Grand Island","address":"","zip":"","phone":"","email":"","website":"","hours":"","brand":"","services":["general_repair"],"shopType":"general_repair"},{"id":"shop-ny-town-of-grand-island-monro-muffler-brake-service","name":"Monro Muffler Brake & Service","slug":"ny-town-of-grand-island-monro-muffler-brake-service","lat":43.0196012,"lng":-78.9598324,"state":"NY","city":"Town of Grand Island","address":"","zip":"","phone":"","email":"","website":"","hours":"","brand":"Monro","services":["exhaust","brakes"],"shopType":"general_repair"},{"id":"shop-ny-town-of-grand-island-auto-fix","name":"Auto Fix","slug":"ny-town-of-grand-island-auto-fix","lat":43.0168981,"lng":-78.9598105,"state":"NY","city":"Town of Grand Island","address":"","zip":"","phone":"","email":"","website":"","hours":"","brand":"","services":["general_repair"],"shopType":"general_repair"},{"id":"shop-ny-town-of-grand-island-wheelfind-automobile-repair-towing","name":"Wheelfind Automobile Repair & Towing","slug":"ny-town-of-grand-island-wheelfind-automobile-repair-towing","lat":43.0099552,"lng":-78.9510589,"state":"NY","city":"Town of Grand Island","address":"","zip":"","phone":"","email":"","website":"","hours":"","brand":"","services":["general_repair"],"shopType":"general_repair"},{"id":"shop-ny-moravia-webster-s-garage","name":"Webster's Garage","slug":"ny-moravia-webster-s-garage","lat":42.712926,"lng":-76.4214349,"state":"NY","city":"Moravia","address":"152 Main Street","zip":"","phone":"+1-315-497-6161","email":"","website":"http://www.webstersgarage.com/","hours":"","brand":"","services":["general_repair"],"shopType":"general_repair"},{"id":"shop-ny-hewlett-suddman-s","name":"Suddman's","slug":"ny-hewlett-suddman-s","lat":40.6382254,"lng":-73.7044316,"state":"NY","city":"Hewlett","address":"1205 West Broadway","zip":"11557","phone":"","email":"","website":"","hours":"","brand":"","services":["general_repair"],"shopType":"general_repair"},{"id":"shop-ny-new-york-lll-auto-repair","name":"LLL Auto Repair","slug":"ny-new-york-lll-auto-repair","lat":40.6774764,"lng":-73.9855719,"state":"NY","city":"New York","address":"524-528 President Street","zip":"11215","phone":"+1-718-488-9244","email":"","website":"","hours":"09:00-17:00+","brand":"","services":["general_repair"],"shopType":"general_repair"},{"id":"shop-ny-lynbrook-mavis-discount-tire","name":"Mavis Discount Tire","slug":"ny-lynbrook-mavis-discount-tire","lat":40.6571601,"lng":-73.6568517,"state":"NY","city":"Lynbrook","address":"Sunrise Highway","zip":"","phone":"","email":"","website":"","hours":"","brand":"Discount Tire","services":["tires"],"shopType":"tire_shop"},{"id":"shop-ny-new-york-golden-auto-body","name":"Golden Auto Body","slug":"ny-new-york-golden-auto-body","lat":40.7863429,"lng":-73.8368978,"state":"NY","city":"New York","address":"131-09 14th Avenue","zip":"","phone":"+1-718-939-2006","email":"","website":"","hours":"","brand":"","services":["body_work"],"shopType":"body_shop"},{"id":"shop-ny-new-york-eurotech-auto-sales-service","name":"Eurotech Auto Sales & Service","slug":"ny-new-york-eurotech-auto-sales-service","lat":40.7382164,"lng":-73.8952866,"state":"NY","city":"New York","address":"69-14 48th Avenue","zip":"","phone":"+1-718-424-1700","email":"","website":"www.eurotechautomotive.com","hours":"","brand":"","services":["general_repair"],"shopType":"general_repair"},{"id":"shop-ny-new-york-lee-myles-transmissions","name":"Lee Myles Transmissions","slug":"ny-new-york-lee-myles-transmissions","lat":40.7195392,"lng":-73.7624307,"state":"NY","city":"New York","address":"201-06 Hillside Avenue","zip":"","phone":"+1-718-740-4800","email":"","website":"https://www.leemyles.com/","hours":"","brand":"","services":["transmission"],"shopType":"transmission_shop"},{"id":"shop-ny-new-york-justin-s-towing-storage","name":"Justin's Towing & Storage","slug":"ny-new-york-justin-s-towing-storage","lat":40.6814094,"lng":-73.8399985,"state":"NY","city":"New York","address":"100-01 Liberty Avenue","zip":"","phone":"+1-347-205-5151","email":"","website":"https://www.justinstowing.com/","hours":"","brand":"","services":["general_repair"],"shopType":"general_repair"},{"id":"shop-ny-new-york-quicken-auto-mechanic-inc","name":"Quicken Auto Mechanic, Inc.","slug":"ny-new-york-quicken-auto-mechanic-inc","lat":40.7004854,"lng":-73.9090842,"state":"NY","city":"New York","address":"1659 Woodbine Street","zip":"","phone":"+1-718-821-1114","email":"","website":"","hours":"","brand":"","services":["general_repair"],"shopType":"general_repair"},{"id":"shop-ny-new-york-quality-auto-services-inc","name":"Quality Auto Services, Inc.","slug":"ny-new-york-quality-auto-services-inc","lat":40.7578372,"lng":-73.9974832,"state":"NY","city":"New York","address":"516 West 39th Street","zip":"","phone":"+1-212-244-6237","email":"","website":"https://qualityautoservicesnyc.com/","hours":"Mo-Su 08:00-18:00","brand":"Goodyear","services":["general_repair"],"shopType":"general_repair"},{"id":"shop-ny-new-york-five-star-auto-body","name":"Five Star Auto Body","slug":"ny-new-york-five-star-auto-body","lat":40.7094294,"lng":-73.9042864,"state":"NY","city":"New York","address":"63-51 Forest Avenue","zip":"","phone":"+1-718-821-6581","email":"","website":"","hours":"","brand":"","services":["body_work"],"shopType":"body_shop"},{"id":"shop-ny-new-york-t-a-auto-repair","name":"T&A Auto Repair","slug":"ny-new-york-t-a-auto-repair","lat":40.7440594,"lng":-73.9489645,"state":"NY","city":"New York","address":"13-20 Jackson Avenue","zip":"11101","phone":"+1-718-729-3333","email":"","website":"http://tandaauto1320.wixsite.com/tandaautorepairs","hours":"Mo-Fr 08:00-18:00, Sa 08:00-14:00","brand":"","services":["general_repair"],"shopType":"general_repair"},{"id":"shop-ny-buffalo-complete-care-auto-repair","name":"Complete Care Auto Repair","slug":"ny-buffalo-complete-care-auto-repair","lat":42.9112303,"lng":-78.8852642,"state":"NY","city":"Buffalo","address":"","zip":"","phone":"","email":"","website":"","hours":"","brand":"","services":["general_repair"],"shopType":"general_repair"},{"id":"shop-ny-new-york-safelite-autoglass","name":"Safelite AutoGlass","slug":"ny-new-york-safelite-autoglass","lat":40.7786062,"lng":-73.9012333,"state":"NY","city":"New York","address":"19-19 37th Street","zip":"","phone":"+1-877-664-8932","email":"","website":"https://www.safelite.com/stores/astoria","hours":"","brand":"Safelite AutoGlass","services":["glass"],"shopType":"general_repair"},{"id":"shop-ny-new-york-astro-auto-body-collision","name":"Astro Auto Body Collision","slug":"ny-new-york-astro-auto-body-collision","lat":40.7600235,"lng":-73.8450035,"state":"NY","city":"New York","address":"","zip":"","phone":"","email":"","website":"","hours":"","brand":"","services":["body_work"],"shopType":"body_shop"},{"id":"shop-ny-queens-red-line-tire-center","name":"Red Line Tire Center","slug":"ny-queens-red-line-tire-center","lat":40.758163,"lng":-73.8595721,"state":"NY","city":"Queens","address":"110-09 Northern Boulevard","zip":"11369","phone":"+1 718 672 7600","email":"","website":"","hours":"24/7","brand":"","services":["tires"],"shopType":"tire_shop"},{"id":"shop-ny-new-york-rts-auto-repair-flat-fix","name":"RTS Auto Repair Flat Fix","slug":"ny-new-york-rts-auto-repair-flat-fix","lat":40.6676431,"lng":-73.7670994,"state":"NY","city":"New York","address":"144-34 Farmers Boulevard","zip":"11434","phone":"+1-347-869-1949","email":"","website":"","hours":"","brand":"","services":["general_repair"],"shopType":"general_repair"},{"id":"shop-ny-new-york-el-casique","name":"El Casique","slug":"ny-new-york-el-casique","lat":40.7635422,"lng":-73.8807468,"state":"NY","city":"New York","address":"25-01 25th Avenue","zip":"","phone":"","email":"","website":"","hours":"","brand":"","services":["tires"],"shopType":"general_repair"},{"id":"shop-ny-new-york-bam-bam-tire","name":"Bam Bam Tire","slug":"ny-new-york-bam-bam-tire","lat":40.7535043,"lng":-73.9062673,"state":"NY","city":"New York","address":"54-11 Northern Boulevard","zip":"","phone":"","email":"","website":"","hours":"","brand":"","services":["tires"],"shopType":"tire_shop"},{"id":"shop-ny-new-york-106th-tire","name":"106th Tire","slug":"ny-new-york-106th-tire","lat":40.7579196,"lng":-73.8626805,"state":"NY","city":"New York","address":"106-01 Northern Boulevard","zip":"","phone":"","email":"","website":"","hours":"","brand":"","services":["tires"],"shopType":"tire_shop"},{"id":"shop-ny-queens-one-ten-auto-repair","name":"One Ten Auto Repair","slug":"ny-queens-one-ten-auto-repair","lat":40.75812,"lng":-73.8603018,"state":"NY","city":"Queens","address":"108-09 Northern Boulevard","zip":"11369","phone":"","email":"","website":"","hours":"","brand":"","services":["car_repair"],"shopType":"general_repair"},{"id":"shop-ny-ridgewood-a1-auto-repair-transmission","name":"A1 Auto Repair & Transmission","slug":"ny-ridgewood-a1-auto-repair-transmission","lat":40.7117104,"lng":-73.8997932,"state":"NY","city":"Ridgewood","address":"63-07 Fresh Pond Road","zip":"11385","phone":"+1-718-417-4500","email":"","website":"","hours":"","brand":"","services":["transmission"],"shopType":"transmission_shop"},{"id":"shop-ny-new-york-grand-auto-repair-corporation","name":"Grand Auto Repair Corporation","slug":"ny-new-york-grand-auto-repair-corporation","lat":40.7059045,"lng":-73.912679,"state":"NY","city":"New York","address":"475 Seneca Avenue","zip":"","phone":"+1-718-821-7744","email":"","website":"","hours":"Mo-Fr 08:00-18:00; Sa 08:00-15:00","brand":"","services":["general_repair"],"shopType":"general_repair"},{"id":"shop-ny-new-york-nys-inspection","name":"NYS Inspection","slug":"ny-new-york-nys-inspection","lat":40.7058247,"lng":-73.912508,"state":"NY","city":"New York","address":"479 Seneca Avenue","zip":"","phone":"+1-718-821-7744","email":"","website":"","hours":"Mo-Fr 08:00-18:00; Sa 08:00-15:00","brand":"","services":["inspection"],"shopType":"general_repair"},{"id":"shop-ny-city-of-albany-lombardo-s-auto-center","name":"Lombardo's Auto Center","slug":"ny-city-of-albany-lombardo-s-auto-center","lat":42.6547378,"lng":-73.7727467,"state":"NY","city":"City of Albany","address":"","zip":"","phone":"","email":"","website":"","hours":"","brand":"","services":["general_repair"],"shopType":"general_repair"},{"id":"shop-ny-oceanside-collision-depot","name":"Collision Depot","slug":"ny-oceanside-collision-depot","lat":40.6411416,"lng":-73.6566786,"state":"NY","city":"Oceanside","address":"600 Atlantic Avenue","zip":"11572","phone":"","email":"","website":"","hours":"","brand":"","services":["body_work"],"shopType":"body_shop"},{"id":"shop-ny-new-york-a-a-imported-motors-inc","name":"A&A Imported Motors Inc.","slug":"ny-new-york-a-a-imported-motors-inc","lat":40.781531,"lng":-73.9486872,"state":"NY","city":"New York","address":"307 East 92nd Street","zip":"","phone":"+1-212-860-4470","email":"","website":"","hours":"Mo-Fr 08:00-17:00","brand":"","services":["inspection","car_repair"],"shopType":"general_repair"},{"id":"shop-ny-new-york-goodhue-repair","name":"Goodhue Repair","slug":"ny-new-york-goodhue-repair","lat":40.6354185,"lng":-74.0919862,"state":"NY","city":"New York","address":"194 Sumner Street","zip":"","phone":"+1-718-448-1385","email":"","website":"","hours":"","brand":"","services":["general_repair"],"shopType":"general_repair"},{"id":"shop-ny-new-york-jdrh-auto-body-collision","name":"JDRH Auto Body & Collision","slug":"ny-new-york-jdrh-auto-body-collision","lat":40.7147675,"lng":-73.7442474,"state":"NY","city":"New York","address":"213-33 99th Avenue","zip":"","phone":"+1-718-736-0714","email":"jdrhauto@gmail.com","website":"","hours":"","brand":"","services":["body_work"],"shopType":"body_shop"},{"id":"shop-ny-new-york-muffler-auto-repair","name":"Muffler & Auto Repair","slug":"ny-new-york-muffler-auto-repair","lat":40.8263778,"lng":-73.8608909,"state":"NY","city":"New York","address":"1881 Bruckner Boulevard","zip":"","phone":"","email":"","website":"","hours":"","brand":"","services":["exhaust"],"shopType":"general_repair"},{"id":"shop-ny-new-york-cristo-rey-flat-fix","name":"Cristo Rey Flat Fix","slug":"ny-new-york-cristo-rey-flat-fix","lat":40.6951468,"lng":-73.9037987,"state":"NY","city":"New York","address":"1034 Covert Street","zip":"","phone":"+1-929-276-3477","email":"","website":"","hours":"","brand":"","services":["general_repair"],"shopType":"general_repair"},{"id":"shop-ny-webster-ede-collision","name":"EDE Collision","slug":"ny-webster-ede-collision","lat":43.2047072,"lng":-77.4839886,"state":"NY","city":"Webster","address":"728 Ridge Road","zip":"14580","phone":"","email":"","website":"","hours":"","brand":"","services":["body_work"],"shopType":"body_shop"},{"id":"shop-ny-new-york-prestige-auto","name":"Prestige Auto","slug":"ny-new-york-prestige-auto","lat":40.8553755,"lng":-73.891511,"state":"NY","city":"New York","address":"2321 3rd Avenue","zip":"","phone":"","email":"","website":"","hours":"","brand":"","services":["general_repair"],"shopType":"general_repair"},{"id":"shop-ny-jamaica-manden-tire","name":"Manden Tire","slug":"ny-jamaica-manden-tire","lat":40.6925961,"lng":-73.7677727,"state":"NY","city":"Jamaica","address":"179-03 Linden Boulevard","zip":"11434","phone":"+1-718-464-5750","email":"","website":"","hours":"","brand":"","services":["tires"],"shopType":"tire_shop"},{"id":"shop-ny-new-york-the-tire-place-llc","name":"The Tire Place LLC","slug":"ny-new-york-the-tire-place-llc","lat":40.7073174,"lng":-73.8758213,"state":"NY","city":"New York","address":"69-76 75th Avenue","zip":"","phone":"+1-718-894-8473","email":"","website":"https://www.tirezone.net/","hours":"Mo-We, Fr 08:00-18:00; Th 08:00-19:00; Sa 08:00-16:00","brand":"","services":["tires"],"shopType":"tire_shop"},{"id":"shop-ny-new-york-garry-service-station-inc","name":"Garry Service Station Inc","slug":"ny-new-york-garry-service-station-inc","lat":40.7057241,"lng":-73.8760453,"state":"NY","city":"New York","address":"7338 Cooper Avenue","zip":"","phone":"+1-718-821-8803","email":"","website":"","hours":"Mo-Sa 06:00-20:00; Su 08:00-16:00","brand":"","services":["general_repair"],"shopType":"general_repair"},{"id":"shop-ny-new-york-queens-truck-repairs","name":"Queens Truck Repairs","slug":"ny-new-york-queens-truck-repairs","lat":40.7031947,"lng":-73.7898277,"state":"NY","city":"New York","address":"168-17 Liberty Avenue","zip":"","phone":"","email":"","website":"","hours":"","brand":"","services":["general_repair"],"shopType":"general_repair"},{"id":"shop-ny-liverpool-ford-bryant-car-care","name":"Ford & Bryant Car Care","slug":"ny-liverpool-ford-bryant-car-care","lat":43.1227941,"lng":-76.2353928,"state":"NY","city":"Liverpool","address":"1350 Cold Springs Road","zip":"13090","phone":"+1-315-457-0450","email":"","website":"http://fordandbryant.com/","hours":"","brand":"","services":["car_repair"],"shopType":"general_repair"},{"id":"shop-ny-new-york-five-z-s-auto-repair-inc","name":"Five Z's Auto Repair Inc","slug":"ny-new-york-five-z-s-auto-repair-inc","lat":40.7041806,"lng":-73.8823077,"state":"NY","city":"New York","address":"69-38 Central Avenue","zip":"","phone":"+1-718-386-2428","email":"fivezsauto@yahoo.com","website":"https://fivezsautorepair.com/","hours":"Mo-Fr 07:00-17:00; Sa 07:30-12:00","brand":"","services":["general_repair"],"shopType":"general_repair"},{"id":"shop-ny-new-york-r-m-repair-shop","name":"R & M Repair Shop","slug":"ny-new-york-r-m-repair-shop","lat":40.7035296,"lng":-73.8921944,"state":"NY","city":"New York","address":"64-38 Shaler Avenue","zip":"","phone":"+1-718-381-5663","email":"","website":"","hours":"","brand":"","services":["general_repair"],"shopType":"general_repair"},{"id":"shop-ny-new-york-manabi-auto-repair-inc","name":"Manabi Auto Repair Inc","slug":"ny-new-york-manabi-auto-repair-inc","lat":40.7029911,"lng":-73.8925993,"state":"NY","city":"New York","address":"64-20 Shaler Avenue","zip":"","phone":"+1-718-821-0084","email":"","website":"","hours":"Mo-Fr 08:00-18:00; Sa 09:00-16:00","brand":"","services":["general_repair"],"shopType":"general_repair"},{"id":"shop-ny-new-york-elvis-auto-repair","name":"Elvis Auto Repair","slug":"ny-new-york-elvis-auto-repair","lat":40.7022544,"lng":-73.9167444,"state":"NY","city":"New York","address":"411 Harman Street","zip":"","phone":"+1-718-418-4903","email":"","website":"","hours":"","brand":"","services":["general_repair"],"shopType":"general_repair"},{"id":"shop-ny-new-york-cesar-s-auto","name":"Cesar's Auto","slug":"ny-new-york-cesar-s-auto","lat":40.7027117,"lng":-73.9163042,"state":"NY","city":"New York","address":"197 Wyckoff Avenue","zip":"","phone":"+1-718-381-8428","email":"","website":"","hours":"Mo-Sa 09:00-19:00","brand":"","services":["general_repair"],"shopType":"general_repair"},{"id":"shop-ny-liverpool-big-mike-s-service-center","name":"Big Mike's Service Center","slug":"ny-liverpool-big-mike-s-service-center","lat":43.1315132,"lng":-76.2064595,"state":"NY","city":"Liverpool","address":"7459 Morgan Road","zip":"13090","phone":"+1-315-299-8906","email":"","website":"https://www.bigmikesservicecenter.com/","hours":"Mo-Fr 08:00-17:30; Sa 08:00-12:00","brand":"","services":["general_repair"],"shopType":"general_repair"},{"id":"shop-ny-new-york-artie-s-auto-place","name":"Artie's Auto Place","slug":"ny-new-york-artie-s-auto-place","lat":40.7211016,"lng":-73.9045375,"state":"NY","city":"New York","address":"60-93 58th Avenue","zip":"","phone":"+1-718-326-7486","email":"","website":"","hours":"Mo-Fr 08:00-18:00; Sa 08:00-16:00","brand":"","services":["general_repair"],"shopType":"general_repair"},{"id":"shop-ny-new-york-am-tire-shop","name":"AM Tire Shop","slug":"ny-new-york-am-tire-shop","lat":40.6713198,"lng":-73.9913319,"state":"NY","city":"New York","address":"","zip":"","phone":"+1 347 520 4119","email":"","website":"","hours":"","brand":"","services":["tires"],"shopType":"tire_shop"},{"id":"shop-ny-new-york-american-autobody-recovery","name":"American Autobody & Recovery","slug":"ny-new-york-american-autobody-recovery","lat":40.7192039,"lng":-73.9073882,"state":"NY","city":"New York","address":"60-05 Flushing Avenue","zip":"","phone":"+1-718-386-0547","email":"","website":"","hours":"24/7","brand":"","services":["body_work"],"shopType":"body_shop"},{"id":"shop-ny-new-york-rod-auto-repair","name":"Rod Auto Repair","slug":"ny-new-york-rod-auto-repair","lat":40.7182818,"lng":-73.908146,"state":"NY","city":"New York","address":"59-02 Flushing Avenue","zip":"","phone":"+1-347-730-4246","email":"","website":"","hours":"Mo, We-Fr 09:00-19:00; Tu 09:00-17:00; Sa 09:00-14:00","brand":"","services":["general_repair"],"shopType":"general_repair"},{"id":"shop-ny-east-glenville-midas","name":"Midas","slug":"ny-east-glenville-midas","lat":42.8715313,"lng":-73.9306868,"state":"NY","city":"East Glenville","address":"","zip":"","phone":"","email":"","website":"","hours":"","brand":"Midas","services":["general_repair"],"shopType":"general_repair"},{"id":"shop-ny-new-york-pat-s-service-station","name":"Pat's Service Station","slug":"ny-new-york-pat-s-service-station","lat":40.7206962,"lng":-73.9121257,"state":"NY","city":"New York","address":"58-09 Rust Street","zip":"","phone":"","email":"","website":"","hours":"","brand":"","services":["general_repair"],"shopType":"general_repair"},{"id":"shop-ny-new-york-unico-auto-truck-repair-inc","name":"Unico Auto & Truck Repair Inc","slug":"ny-new-york-unico-auto-truck-repair-inc","lat":40.7098443,"lng":-73.9242129,"state":"NY","city":"New York","address":"220 Randolph Street","zip":"","phone":"+1-718-599-3999","email":"","website":"","hours":"","brand":"","services":["oil_change"],"shopType":"quick_lube"},{"id":"shop-ny-village-of-greenwich-witchcraft-body-paint","name":"Witchcraft Body & Paint","slug":"ny-village-of-greenwich-witchcraft-body-paint","lat":43.0879718,"lng":-73.5045485,"state":"NY","city":"Village of Greenwich","address":"","zip":"","phone":"","email":"","website":"","hours":"","brand":"","services":["body_work"],"shopType":"body_shop"},{"id":"shop-ny-valley-stream-auto-pros","name":"Auto Pros","slug":"ny-valley-stream-auto-pros","lat":40.6643481,"lng":-73.698566,"state":"NY","city":"Valley Stream","address":"32 Rockaway Avenue","zip":"11580","phone":"+1-516-872-2525","email":"","website":"","hours":"","brand":"","services":["general_repair"],"shopType":"general_repair"},{"id":"shop-ny-barnum-island-competition-automotive","name":"Competition Automotive","slug":"ny-barnum-island-competition-automotive","lat":40.600415,"lng":-73.6538611,"state":"NY","city":"Barnum Island","address":"459 Austin Boulevard","zip":"","phone":"+1-516-431-5500","email":"","website":"","hours":"","brand":"","services":["general_repair"],"shopType":"general_repair"},{"id":"shop-ny-barnum-island-great-beat-auto-tire-center","name":"Great Beat Auto & Tire Center","slug":"ny-barnum-island-great-beat-auto-tire-center","lat":40.6032368,"lng":-73.6517393,"state":"NY","city":"Barnum Island","address":"Austin Boulevard","zip":"","phone":"+1-516-431-4290","email":"","website":"","hours":"","brand":"","services":["tires"],"shopType":"tire_shop"},{"id":"shop-ny-island-park-auto-spa","name":"Auto Spa","slug":"ny-island-park-auto-spa","lat":40.6052386,"lng":-73.6501498,"state":"NY","city":"Island Park","address":"4282 Austin Boulevard","zip":"11558","phone":"","email":"","website":"","hours":"","brand":"","services":["general_repair"],"shopType":"general_repair"},{"id":"shop-ny-barnum-island-mavis-discount-tire","name":"Mavis Discount Tire","slug":"ny-barnum-island-mavis-discount-tire","lat":40.6116727,"lng":-73.6442962,"state":"NY","city":"Barnum Island","address":"Austin Boulevard","zip":"","phone":"","email":"","website":"","hours":"","brand":"Discount Tire","services":["tires"],"shopType":"tire_shop"},{"id":"shop-ny-new-york-97-new-used-tire-store","name":"97 New & Used Tire Store","slug":"ny-new-york-97-new-used-tire-store","lat":40.7568793,"lng":-73.8711382,"state":"NY","city":"New York","address":"97-04 Northern Boulevard","zip":"","phone":"","email":"","website":"","hours":"","brand":"","services":["tires"],"shopType":"tire_shop"},{"id":"shop-ny-new-york-k-m-auto-repair-inc","name":"K & M Auto Repair Inc","slug":"ny-new-york-k-m-auto-repair-inc","lat":40.6963965,"lng":-73.9051844,"state":"NY","city":"New York","address":"9-75 Wyckoff Avenue","zip":"","phone":"+1-718-456-0006","email":"","website":"","hours":"","brand":"","services":["oil_change"],"shopType":"quick_lube"},{"id":"shop-ny-new-york-six-brother-auto-repair","name":"Six Brother Auto Repair","slug":"ny-new-york-six-brother-auto-repair","lat":40.7043256,"lng":-73.9080883,"state":"NY","city":"New York","address":"656 Onderonk Avenue","zip":"","phone":"+1-718-628-1901","email":"","website":"","hours":"Mo-Sa 07:00-19:00","brand":"","services":["oil_change"],"shopType":"quick_lube"},{"id":"shop-ny-albany-autobahn-centre","name":"Autobahn Centre","slug":"ny-albany-autobahn-centre","lat":42.6688916,"lng":-73.7785735,"state":"NY","city":"Albany","address":"484 Central Avenue","zip":"12206","phone":"+1-518-689-3086","email":"","website":"http://www.autobahncentre.com","hours":"Mo-Fr 09:00-18:00","brand":"","services":["general_repair"],"shopType":"general_repair"},{"id":"shop-ny-new-york-mitchell-s","name":"Mitchell's","slug":"ny-new-york-mitchell-s","lat":40.6441363,"lng":-73.9925511,"state":"NY","city":"New York","address":"1020 39th Street","zip":"","phone":"","email":"","website":"","hours":"","brand":"","services":["general_repair"],"shopType":"general_repair"},{"id":"shop-ny-new-york-pep-boys-3","name":"Pep Boys","slug":"ny-new-york-pep-boys-3","lat":40.7028645,"lng":-73.7913164,"state":"NY","city":"New York","address":"94-47 Liberty Avenue","zip":"","phone":"","email":"","website":"","hours":"","brand":"Pep Boys","services":["general_repair"],"shopType":"general_repair"},{"id":"shop-ny-new-york-boro-park-auto-diagnostic","name":"Boro Park Auto Diagnostic","slug":"ny-new-york-boro-park-auto-diagnostic","lat":40.6423569,"lng":-73.987877,"state":"NY","city":"New York","address":"3801 12th Avenue","zip":"","phone":"","email":"","website":"","hours":"","brand":"","services":["general_repair"],"shopType":"general_repair"},{"id":"shop-ny-new-york-auto-repair-36-street","name":"Auto Repair 36 Street","slug":"ny-new-york-auto-repair-36-street","lat":40.6418455,"lng":-73.9880537,"state":"NY","city":"New York","address":"1201 39th Street","zip":"","phone":"+1-718-871-7979","email":"","website":"","hours":"","brand":"","services":["general_repair"],"shopType":"general_repair"},{"id":"shop-ny-new-york-ambato-auto-service-inc","name":"Ambato Auto Service Inc","slug":"ny-new-york-ambato-auto-service-inc","lat":40.7050029,"lng":-73.9275844,"state":"NY","city":"New York","address":"1090 Flushing Avenue","zip":"","phone":"+1-718-456-3155","email":"","website":"http://ambatoauto.com/","hours":"Mo-Fr 08:00-18:00; Sa 08:00-15:00","brand":"","services":["oil_change","tires","brakes","tyres","alignment"],"shopType":"general_repair"},{"id":"shop-ny-new-york-joseph-s-auto-repair","name":"Joseph's Auto Repair","slug":"ny-new-york-joseph-s-auto-repair","lat":40.6985858,"lng":-73.9342066,"state":"NY","city":"New York","address":"613 Bushwick Avenue","zip":"","phone":"+1-347-305-3017","email":"","website":"","hours":"","brand":"","services":["oil_change"],"shopType":"quick_lube"},{"id":"shop-ny-new-york-signature-auto-spa","name":"Signature Auto Spa","slug":"ny-new-york-signature-auto-spa","lat":40.7580688,"lng":-73.8656145,"state":"NY","city":"New York","address":"32-53 103rd Street","zip":"","phone":"","email":"","website":"","hours":"","brand":"","services":["general_repair"],"shopType":"general_repair"},{"id":"shop-ny-new-york-roy-unlimited-auto-service","name":"Roy Unlimited Auto Service","slug":"ny-new-york-roy-unlimited-auto-service","lat":40.7575066,"lng":-73.8604276,"state":"NY","city":"New York","address":"33-10 109th Street","zip":"","phone":"","email":"","website":"","hours":"","brand":"","services":["general_repair"],"shopType":"general_repair"},