[{"id":"shop-ny-east-aurora-dan-s-auto-repair","name":"Dan's Auto Repair","slug":"ny-east-aurora-dan-s-auto-repair","lat":42.7675682,"lng":-78.6118118,"state":"NY","city":"East Aurora","address":"","zip":"","phone":"","email":"","website":"","hours":"","brand":"","services":["general_repair"],"shopType":"general_repair"},{"id":"shop-ny-unknown-main-auto-service","name":"Main Auto Service","slug":"ny-unknown-main-auto-service","lat":43.6915689,"lng":-79.3035512,"state":"NY","city":"","address":"","zip":"","phone":"+1-416-693-1212","email":"","website":"","hours":"","brand":"","services":["general_repair"],"shopType":"general_repair"},{"id":"shop-ny-unknown-speedy","name":"Speedy","slug":"ny-unknown-speedy","lat":44.2391589,"lng":-76.5062303,"state":"NY","city":"","address":"","zip":"","phone":"","email":"","website":"","hours":"","brand":"Speedy","services":["general_repair"],"shopType":"general_repair"},{"id":"shop-ny-new-york-steinway-auto-repairs","name":"Steinway Auto Repairs","slug":"ny-new-york-steinway-auto-repairs","lat":40.7707762,"lng":-73.9083348,"state":"NY","city":"New York","address":"23-05 Steinway Street","zip":"","phone":"+1-718-545-6129","email":"","website":"","hours":"","brand":"","services":["general_repair"],"shopType":"general_repair"},{"id":"shop-ny-east-york-a-a-auto-clinic","name":"A&A Auto Clinic","slug":"ny-east-york-a-a-auto-clinic","lat":43.6920697,"lng":-79.3159261,"state":"NY","city":"East York","address":"1202 Woodbine Avenue","zip":"","phone":"+1-416-696-1334","email":"","website":"","hours":"","brand":"","services":["general_repair"],"shopType":"general_repair"},{"id":"shop-ny-unknown-woodbine-auto-service","name":"Woodbine Auto Service","slug":"ny-unknown-woodbine-auto-service","lat":43.6922187,"lng":-79.3153854,"state":"NY","city":"","address":"","zip":"","phone":"","email":"","website":"","hours":"","brand":"","services":["general_repair"],"shopType":"general_repair"},{"id":"shop-ny-unknown-township-tire","name":"Township Tire","slug":"ny-unknown-township-tire","lat":44.2407107,"lng":-76.6011075,"state":"NY","city":"","address":"","zip":"","phone":"","email":"","website":"","hours":"","brand":"","services":["tires"],"shopType":"tire_shop"},{"id":"shop-ny-toronto-lewis-auto-service","name":"Lewis' Auto Service","slug":"ny-toronto-lewis-auto-service","lat":43.679245,"lng":-79.2955121,"state":"NY","city":"Toronto","address":"715 Kingston Road","zip":"","phone":"","email":"","website":"","hours":"","brand":"","services":["general_repair"],"shopType":"general_repair"},{"id":"shop-ny-east-york-woodbine-auto-sales-repair","name":"Woodbine Auto Sales & Repair","slug":"ny-east-york-woodbine-auto-sales-repair","lat":43.6911871,"lng":-79.315534,"state":"NY","city":"East York","address":"1174 Woodbine Avenue","zip":"","phone":"+1-416-429-2562","email":"","website":"","hours":"","brand":"","services":["general_repair"],"shopType":"general_repair"},{"id":"shop-ny-village-of-canton-monroe-muffler","name":"Monroe Muffler","slug":"ny-village-of-canton-monroe-muffler","lat":44.5974497,"lng":-75.148796,"state":"NY","city":"Village of Canton","address":"","zip":"","phone":"","email":"","website":"","hours":"","brand":"Monro","services":["exhaust"],"shopType":"general_repair"},{"id":"shop-ny-village-of-gouverneur-northern-collision","name":"Northern Collision","slug":"ny-village-of-gouverneur-northern-collision","lat":44.3394064,"lng":-75.4566832,"state":"NY","city":"Village of Gouverneur","address":"","zip":"","phone":"","email":"","website":"","hours":"","brand":"","services":["body_work"],"shopType":"body_shop"},{"id":"shop-ny-unknown-total-auto-service","name":"Total Auto Service","slug":"ny-unknown-total-auto-service","lat":43.798304,"lng":-79.1395006,"state":"NY","city":"","address":"","zip":"","phone":"","email":"","website":"","hours":"","brand":"","services":["general_repair"],"shopType":"general_repair"},{"id":"shop-ny-north-york-mr-lube","name":"Mr. Lube","slug":"ny-north-york-mr-lube","lat":43.7934217,"lng":-79.3543554,"state":"NY","city":"North York","address":"1500 Finch Avenue East","zip":"","phone":"","email":"","website":"","hours":"","brand":"Mr. Lube","services":["oil_change"],"shopType":"quick_lube"},{"id":"shop-ny-east-york-sure-choice-auto-service-centre","name":"Sure Choice Auto Service Centre","slug":"ny-east-york-sure-choice-auto-service-centre","lat":43.6944899,"lng":-79.316263,"state":"NY","city":"East York","address":"1285 Woodbine Avenue","zip":"","phone":"+1-416-696-8116;+1-416-423-9161","email":"","website":"","hours":"","brand":"","services":["general_repair"],"shopType":"general_repair"},{"id":"shop-ny-unknown-firestone-tire-automotive-centre","name":"Firestone Tire + Automotive Centre","slug":"ny-unknown-firestone-tire-automotive-centre","lat":43.8316507,"lng":-79.0946499,"state":"NY","city":"","address":"","zip":"","phone":"","email":"","website":"","hours":"","brand":"Firestone","services":["tires"],"shopType":"tire_shop"},{"id":"shop-ny-unknown-mr-transmission","name":"Mr. Transmission","slug":"ny-unknown-mr-transmission","lat":43.8314827,"lng":-79.0945953,"state":"NY","city":"","address":"","zip":"","phone":"","email":"","website":"","hours":"","brand":"Mister Transmission","services":["transmission"],"shopType":"transmission_shop"},{"id":"shop-ny-unknown-speedy-auto-service","name":"Speedy Auto Service","slug":"ny-unknown-speedy-auto-service","lat":43.8313352,"lng":-79.0945466,"state":"NY","city":"","address":"","zip":"","phone":"","email":"","website":"","hours":"","brand":"Speedy Auto Service","services":["general_repair"],"shopType":"general_repair"},{"id":"shop-ny-pickering-mr-lube","name":"Mr. Lube","slug":"ny-pickering-mr-lube","lat":43.831005,"lng":-79.0955205,"state":"NY","city":"Pickering","address":"1195 Kingston Road","zip":"","phone":"","email":"","website":"","hours":"","brand":"Mr. Lube","services":["oil_change"],"shopType":"quick_lube"},{"id":"shop-ny-unknown-pickering-carstar-collision","name":"Pickering CarStar Collision","slug":"ny-unknown-pickering-carstar-collision","lat":43.8308329,"lng":-79.0952575,"state":"NY","city":"","address":"","zip":"","phone":"","email":"","website":"","hours":"","brand":"","services":["body_work"],"shopType":"body_shop"},{"id":"shop-ny-unknown-jiffy-lube","name":"Jiffy Lube","slug":"ny-unknown-jiffy-lube","lat":43.9043299,"lng":-79.4455052,"state":"NY","city":"","address":"","zip":"","phone":"","email":"","website":"","hours":"","brand":"Jiffy Lube","services":["oil_change"],"shopType":"quick_lube"},{"id":"shop-ny-unknown-mfp-auto-service","name":"MFP Auto Service","slug":"ny-unknown-mfp-auto-service","lat":43.8514446,"lng":-79.4330886,"state":"NY","city":"","address":"","zip":"","phone":"","email":"","website":"","hours":"","brand":"","services":["general_repair"],"shopType":"general_repair"},{"id":"shop-ny-unknown-mr-lube","name":"Mr. Lube","slug":"ny-unknown-mr-lube","lat":43.8715717,"lng":-79.264978,"state":"NY","city":"","address":"","zip":"","phone":"","email":"","website":"","hours":"","brand":"Mr. Lube","services":["oil_change"],"shopType":"quick_lube"},{"id":"shop-ny-unknown-jiffy-lube-2","name":"Jiffy Lube","slug":"ny-unknown-jiffy-lube-2","lat":43.8716529,"lng":-79.2682375,"state":"NY","city":"","address":"","zip":"","phone":"","email":"","website":"","hours":"","brand":"Jiffy Lube","services":["oil_change"],"shopType":"quick_lube"},{"id":"shop-ny-unknown-jiffy-lube-3","name":"Jiffy Lube","slug":"ny-unknown-jiffy-lube-3","lat":43.8573923,"lng":-79.3047342,"state":"NY","city":"","address":"","zip":"","phone":"","email":"","website":"","hours":"","brand":"Jiffy Lube","services":["oil_change"],"shopType":"quick_lube"},{"id":"shop-ny-unknown-viselco","name":"Viselco","slug":"ny-unknown-viselco","lat":43.6913661,"lng":-79.4683328,"state":"NY","city":"","address":"","zip":"","phone":"","email":"","website":"","hours":"","brand":"","services":["general_repair"],"shopType":"general_repair"},{"id":"shop-ny-unknown-avo-s-auto-repair","name":"Avo's Auto Repair","slug":"ny-unknown-avo-s-auto-repair","lat":43.7878084,"lng":-79.3525583,"state":"NY","city":"","address":"","zip":"","phone":"","email":"","website":"","hours":"","brand":"","services":["general_repair"],"shopType":"general_repair"},{"id":"shop-ny-unknown-certigard","name":"Certigard","slug":"ny-unknown-certigard","lat":43.740631,"lng":-79.3196897,"state":"NY","city":"","address":"","zip":"","phone":"","email":"","website":"","hours":"","brand":"","services":["general_repair"],"shopType":"general_repair"},{"id":"shop-ny-toronto-fix-auto-collision","name":"Fix Auto Collision","slug":"ny-toronto-fix-auto-collision","lat":43.6544629,"lng":-79.3682205,"state":"NY","city":"Toronto","address":"257 Queen Street East","zip":"","phone":"","email":"","website":"","hours":"","brand":"","services":["body_work"],"shopType":"body_shop"},{"id":"shop-ny-unknown-centre-honda-body-shop","name":"Centre Honda Body Shop","slug":"ny-unknown-centre-honda-body-shop","lat":43.6542533,"lng":-79.368674,"state":"NY","city":"","address":"Queen Street East","zip":"","phone":"","email":"","website":"","hours":"","brand":"","services":["body_work"],"shopType":"body_shop"},{"id":"shop-ny-unknown-canadian-tire","name":"Canadian Tire","slug":"ny-unknown-canadian-tire","lat":43.7251708,"lng":-79.2929352,"state":"NY","city":"","address":"","zip":"","phone":"","email":"","website":"https://www.canadiantire.ca/en/store-details/on/warden-eglinton-on-30.html","hours":"","brand":"Canadian Tire","services":["tires"],"shopType":"tire_shop"},{"id":"shop-ny-unknown-super-tire-auto","name":"Super Tire & Auto","slug":"ny-unknown-super-tire-auto","lat":43.719024,"lng":-79.5159761,"state":"NY","city":"","address":"","zip":"","phone":"","email":"","website":"","hours":"","brand":"","services":["tires"],"shopType":"tire_shop"},{"id":"shop-ny-unknown-ok-tire","name":"OK Tire","slug":"ny-unknown-ok-tire","lat":43.6733989,"lng":-79.4154836,"state":"NY","city":"","address":"490 Dupont Street","zip":"","phone":"+1 416-964-2250","email":"","website":"https://www.oktire.com/stores/ok-tire-toronto-the-annex/","hours":"","brand":"OK Tire","services":["tires"],"shopType":"tire_shop"},{"id":"shop-ny-unknown-auto-expert-auto-service","name":"Auto Expert Auto Service","slug":"ny-unknown-auto-expert-auto-service","lat":43.673371,"lng":-79.4156527,"state":"NY","city":"","address":"490 Dupont Street","zip":"","phone":"+1 416-319-7860","email":"","website":"","hours":"","brand":"","services":["general_repair"],"shopType":"general_repair"},{"id":"shop-ny-town-of-le-ray-auto-skills-center","name":"Auto Skills Center","slug":"ny-town-of-le-ray-auto-skills-center","lat":44.0590904,"lng":-75.8033603,"state":"NY","city":"Town of Le Ray","address":"","zip":"","phone":"","email":"","website":"","hours":"","brand":"","services":["general_repair"],"shopType":"general_repair"},{"id":"shop-ny-unknown-canadian-tire-auto-repair","name":"Canadian Tire Auto Repair","slug":"ny-unknown-canadian-tire-auto-repair","lat":43.7422177,"lng":-79.5827125,"state":"NY","city":"","address":"1530 Albion Road","zip":"","phone":"","email":"","website":"","hours":"","brand":"Canadian Tire","services":["tires"],"shopType":"tire_shop"},{"id":"shop-ny-mississauga-halton-transmission","name":"Halton Transmission","slug":"ny-mississauga-halton-transmission","lat":43.5650882,"lng":-79.6347146,"state":"NY","city":"Mississauga","address":"735 Dundas Street West","zip":"L5C 3B6","phone":"","email":"","website":"","hours":"","brand":"","services":["transmission"],"shopType":"transmission_shop"},{"id":"shop-ny-unknown-premium-tire-auto-centre","name":"Premium Tire & Auto Centre","slug":"ny-unknown-premium-tire-auto-centre","lat":43.6511433,"lng":-79.7121742,"state":"NY","city":"","address":"","zip":"","phone":"","email":"","website":"","hours":"","brand":"","services":["tires"],"shopType":"tire_shop"},{"id":"shop-ny-unknown-supreme-lube","name":"Supreme Lube","slug":"ny-unknown-supreme-lube","lat":43.697499,"lng":-79.5463288,"state":"NY","city":"","address":"","zip":"","phone":"","email":"","website":"","hours":"","brand":"","services":["oil_change"],"shopType":"quick_lube"},{"id":"shop-ny-unknown-midas","name":"Midas","slug":"ny-unknown-midas","lat":43.6282365,"lng":-79.629671,"state":"NY","city":"","address":"","zip":"","phone":"","email":"","website":"https://www.midas.com/","hours":"","brand":"Midas","services":["general_repair"],"shopType":"general_repair"},{"id":"shop-ny-unknown-north-queen-auto-centre","name":"North Queen Auto Centre","slug":"ny-unknown-north-queen-auto-centre","lat":43.6228929,"lng":-79.5400554,"state":"NY","city":"","address":"64 North Queen Street","zip":"","phone":"+1-416-239-4021","email":"","website":"","hours":"","brand":"","services":["general_repair"],"shopType":"general_repair"},{"id":"shop-ny-unknown-fix-auto","name":"Fix Auto","slug":"ny-unknown-fix-auto","lat":43.6285687,"lng":-79.5427416,"state":"NY","city":"","address":"55 Shorncliffe Road","zip":"","phone":"+1-416-239-4385","email":"","website":"https://fixauto.com/etobicoke/en/","hours":"Mo-Fr 08:00-17:00; Sa-Su closed","brand":"","services":["general_repair"],"shopType":"general_repair"},{"id":"shop-ny-unknown-certigard-2","name":"Certigard","slug":"ny-unknown-certigard-2","lat":43.7211045,"lng":-79.6409578,"state":"NY","city":"","address":"","zip":"","phone":"","email":"","website":"","hours":"","brand":"","services":["general_repair"],"shopType":"general_repair"},{"id":"shop-ny-unknown-york-mills-automotive","name":"York Mills Automotive","slug":"ny-unknown-york-mills-automotive","lat":43.7575671,"lng":-79.3591137,"state":"NY","city":"","address":"","zip":"","phone":"","email":"","website":"","hours":"","brand":"","services":["general_repair"],"shopType":"general_repair"},{"id":"shop-ny-north-york-3-valleys","name":"3 Valleys","slug":"ny-north-york-3-valleys","lat":43.7519998,"lng":-79.3363827,"state":"NY","city":"North York","address":"58 Three Valleys Drive","zip":"","phone":"","email":"","website":"","hours":"Mo-Fr 07:30-17:00","brand":"","services":["general_repair"],"shopType":"general_repair"},{"id":"shop-ny-north-york-mr-lube-2","name":"Mr. Lube","slug":"ny-north-york-mr-lube-2","lat":43.7475525,"lng":-79.3123922,"state":"NY","city":"North York","address":"1964 Victoria Park Avenue","zip":"","phone":"","email":"","website":"","hours":"","brand":"Mr. Lube","services":["oil_change"],"shopType":"quick_lube"},{"id":"shop-ny-unknown-active-green-ross","name":"Active Green + Ross","slug":"ny-unknown-active-green-ross","lat":43.7474825,"lng":-79.3122139,"state":"NY","city":"","address":"","zip":"","phone":"","email":"","website":"https://www.activegreenross.com/","hours":"","brand":"Active Green + Ross","services":["general_repair"],"shopType":"general_repair"},{"id":"shop-ny-mississauga-techmax","name":"TechMax","slug":"ny-mississauga-techmax","lat":43.6515622,"lng":-79.6651997,"state":"NY","city":"Mississauga","address":"1011 Meyerside Drive","zip":"L5T 1K8","phone":"+1-905-795-0419","email":"","website":"","hours":"","brand":"","services":["general_repair"],"shopType":"general_repair"},{"id":"shop-ny-unknown-firestone-tire-auto","name":"Firestone Tire+Auto","slug":"ny-unknown-firestone-tire-auto","lat":43.6974078,"lng":-79.275216,"state":"NY","city":"","address":"","zip":"","phone":"","email":"","website":"","hours":"","brand":"Firestone","services":["tires"],"shopType":"tire_shop"},{"id":"shop-ny-toronto-eagle-transmission","name":"Eagle Transmission","slug":"ny-toronto-eagle-transmission","lat":43.696332,"lng":-79.2748396,"state":"NY","city":"Toronto","address":"63 Danforth Avenue","zip":"M1L 3W5","phone":"+1-416-691-7111","email":"","website":"","hours":"","brand":"","services":["transmission"],"shopType":"transmission_shop"},{"id":"shop-ny-unknown-autopro","name":"Autopro","slug":"ny-unknown-autopro","lat":44.9027092,"lng":-76.2809629,"state":"NY","city":"","address":"","zip":"","phone":"","email":"","website":"","hours":"","brand":"","services":["general_repair"],"shopType":"general_repair"},{"id":"shop-ny-kingston-ok-tire","name":"OK Tire","slug":"ny-kingston-ok-tire","lat":44.2404421,"lng":-76.5104118,"state":"NY","city":"Kingston","address":"900 Princess Street","zip":"K7L 1H1","phone":"+1-613-546-3181","email":"","website":"https://www.oktire.com/stores/ok-tire-kingston","hours":"","brand":"OK Tire","services":["tires"],"shopType":"tire_shop"},{"id":"shop-ny-unknown-mister-transmission","name":"Mister Transmission","slug":"ny-unknown-mister-transmission","lat":44.2374195,"lng":-76.5642845,"state":"NY","city":"","address":"","zip":"","phone":"","email":"","website":"","hours":"","brand":"Mister Transmission","services":["transmission"],"shopType":"transmission_shop"},{"id":"shop-ny-unknown-dufferin-bloor-auto-repair-sales","name":"Dufferin & Bloor Auto Repair & Sales","slug":"ny-unknown-dufferin-bloor-auto-repair-sales","lat":43.6630745,"lng":-79.436895,"state":"NY","city":"","address":"","zip":"","phone":"+1-416-531-5353","email":"","website":"","hours":"","brand":"","services":["general_repair"],"shopType":"general_repair"},{"id":"shop-ny-unknown-kal-tire","name":"Kal Tire","slug":"ny-unknown-kal-tire","lat":44.2713476,"lng":-76.5681123,"state":"NY","city":"","address":"630 Fortune Crescent","zip":"K7P 2T3","phone":"","email":"","website":"https://www.kaltire.com/","hours":"Mo-Fr 07:30-18:00; Sa 08:00-17:00","brand":"Kal Tire","services":["tires"],"shopType":"tire_shop"},{"id":"shop-ny-unknown-superior-tire-automotive","name":"Superior Tire & Automotive","slug":"ny-unknown-superior-tire-automotive","lat":43.7612184,"lng":-79.4657635,"state":"NY","city":"","address":"","zip":"","phone":"","email":"","website":"","hours":"","brand":"","services":["tires"],"shopType":"tire_shop"},{"id":"shop-ny-scarborough-kavin-10-min-oil-change","name":"Kavin 10 Min Oil Change","slug":"ny-scarborough-kavin-10-min-oil-change","lat":43.7311002,"lng":-79.2263792,"state":"NY","city":"Scarborough","address":"3220 Kingston Road","zip":"","phone":"","email":"","website":"","hours":"","brand":"","services":["oil_change"],"shopType":"quick_lube"},{"id":"shop-ny-toronto-kal-tire","name":"Kal Tire","slug":"ny-toronto-kal-tire","lat":43.6553488,"lng":-79.4515907,"state":"NY","city":"Toronto","address":"2288 Dundas Street West","zip":"M6R 1X3","phone":"+1 416 536 4423","email":"","website":"https://www.kaltire.com/en/locations/?store=867-toronto-store","hours":"","brand":"Kal Tire","services":["tires"],"shopType":"tire_shop","rating":2.9,"reviewCount":50,"yelpMatched":true,"yelpMatchScore":1},{"id":"shop-ny-unknown-fallingbrook-auto-garage","name":"Fallingbrook Auto Garage","slug":"ny-unknown-fallingbrook-auto-garage","lat":43.6865853,"lng":-79.2730763,"state":"NY","city":"","address":"","zip":"","phone":"","email":"","website":"","hours":"","brand":"","services":["general_repair"],"shopType":"general_repair"},{"id":"shop-ny-unknown-jiffy-lube-4","name":"Jiffy Lube","slug":"ny-unknown-jiffy-lube-4","lat":43.4194062,"lng":-79.7172687,"state":"NY","city":"","address":"","zip":"","phone":"","email":"","website":"","hours":"","brand":"Jiffy Lube","services":["oil_change"],"shopType":"quick_lube"},{"id":"shop-ny-unknown-meineke","name":"Meineke","slug":"ny-unknown-meineke","lat":43.4386723,"lng":-79.676393,"state":"NY","city":"","address":"143 Lakeshore Road East","zip":"L6K 1E5","phone":"+1-289-813-8929","email":"","website":"https://www.meineke.ca","hours":"Mo-Fr 08:00-18:00; Sa 09:00-18:00; Su closed","brand":"Meineke","services":["exhaust"],"shopType":"general_repair"},{"id":"shop-ny-scarborough-john-s-service","name":"John's Service","slug":"ny-scarborough-john-s-service","lat":43.6880918,"lng":-79.2835883,"state":"NY","city":"Scarborough","address":"2520 Gerrard Street East","zip":"","phone":"","email":"","website":"","hours":"","brand":"","services":["general_repair"],"shopType":"general_repair"},{"id":"shop-ny-unknown-canadian-tire-2","name":"Canadian Tire","slug":"ny-unknown-canadian-tire-2","lat":43.7160888,"lng":-79.4481097,"state":"NY","city":"","address":"","zip":"","phone":"","email":"","website":"https://www.canadiantire.ca/en/store-details/on/lawrence-allen-expwy-on-19.html","hours":"Mo-Fr 08:00-21:00; Sa,Su 08:00-20:00","brand":"Canadian Tire","services":["tires"],"shopType":"tire_shop"},{"id":"shop-ny-unknown-certigard-3","name":"Certigard","slug":"ny-unknown-certigard-3","lat":43.804002,"lng":-79.3954583,"state":"NY","city":"","address":"","zip":"","phone":"","email":"","website":"","hours":"","brand":"","services":["general_repair"],"shopType":"general_repair"},{"id":"shop-ny-unknown-goodyear","name":"Goodyear","slug":"ny-unknown-goodyear","lat":43.7266222,"lng":-79.4318063,"state":"NY","city":"","address":"","zip":"","phone":"","email":"","website":"","hours":"","brand":"Goodyear","services":["tires"],"shopType":"general_repair"},{"id":"shop-ny-unknown-apple-auto-glass","name":"Apple Auto Glass","slug":"ny-unknown-apple-auto-glass","lat":43.7901837,"lng":-79.2692718,"state":"NY","city":"","address":"","zip":"","phone":"","email":"","website":"","hours":"","brand":"","services":["general_repair"],"shopType":"general_repair"},{"id":"shop-ny-town-of-east-greenbush-danco-auto-repair","name":"Danco Auto Repair","slug":"ny-town-of-east-greenbush-danco-auto-repair","lat":42.6192485,"lng":-73.705445,"state":"NY","city":"Town of East Greenbush","address":"","zip":"","phone":"","email":"","website":"","hours":"","brand":"","services":["general_repair"],"shopType":"general_repair"},{"id":"shop-ny-village-of-ravena-barry-s-auto-repair","name":"Barry's Auto Repair","slug":"ny-village-of-ravena-barry-s-auto-repair","lat":42.4881591,"lng":-73.8195294,"state":"NY","city":"Village of Ravena","address":"","zip":"","phone":"","email":"","website":"","hours":"","brand":"","services":["general_repair"],"shopType":"general_repair"},{"id":"shop-ny-unknown-aamco-transmissions","name":"AAMCO Transmissions","slug":"ny-unknown-aamco-transmissions","lat":43.6879512,"lng":-79.739565,"state":"NY","city":"","address":"","zip":"","phone":"","email":"","website":"","hours":"","brand":"AAMCO","services":["transmission"],"shopType":"transmission_shop"},{"id":"shop-ny-town-of-east-greenbush-quik-lube","name":"Quik Lube","slug":"ny-town-of-east-greenbush-quik-lube","lat":42.6184685,"lng":-73.7025619,"state":"NY","city":"Town of East Greenbush","address":"","zip":"","phone":"","email":"","website":"","hours":"","brand":"","services":["oil_change"],"shopType":"quick_lube"},{"id":"shop-ny-unknown-active-green-ross-2","name":"Active Green + Ross","slug":"ny-unknown-active-green-ross-2","lat":43.6481372,"lng":-79.3908285,"state":"NY","city":"","address":"","zip":"","phone":"","email":"","website":"https://www.activegreenross.com/","hours":"","brand":"Active Green + Ross","services":["general_repair"],"shopType":"general_repair"},{"id":"shop-ny-toronto-canadian-tire-auto-service","name":"Canadian Tire Auto Service","slug":"ny-toronto-canadian-tire-auto-service","lat":43.6739732,"lng":-79.387386,"state":"NY","city":"Toronto","address":"839 Yonge Street","zip":"","phone":"+1-416-925-5927","email":"","website":"https://www.canadiantire.ca/en/store-details/on/toronto-yonge-church-on-150.html","hours":"","brand":"Canadian Tire","services":["tires"],"shopType":"tire_shop"},{"id":"shop-ny-unknown-active-green-ross-3","name":"Active Green + Ross","slug":"ny-unknown-active-green-ross-3","lat":43.8124767,"lng":-79.3600152,"state":"NY","city":"","address":"","zip":"","phone":"","email":"","website":"https://www.activegreenross.com/","hours":"","brand":"Active Green + Ross","services":["general_repair"],"shopType":"general_repair"},{"id":"shop-ny-toronto-yorkdale-certified-auto-service","name":"Yorkdale Certified Auto Service","slug":"ny-toronto-yorkdale-certified-auto-service","lat":43.7064433,"lng":-79.4526856,"state":"NY","city":"Toronto","address":"2835 Dufferin Street","zip":"","phone":"","email":"","website":"","hours":"","brand":"","services":["general_repair"],"shopType":"general_repair"},{"id":"shop-ny-toronto-alpha-tire","name":"Alpha Tire","slug":"ny-toronto-alpha-tire","lat":43.7217154,"lng":-79.4688047,"state":"NY","city":"Toronto","address":"1277 Caledonia Road","zip":"","phone":"","email":"","website":"","hours":"","brand":"","services":["tires"],"shopType":"tire_shop"},{"id":"shop-ny-toronto-mario-s-auto-centre","name":"Mario's Auto Centre","slug":"ny-toronto-mario-s-auto-centre","lat":43.7054412,"lng":-79.504945,"state":"NY","city":"Toronto","address":"1772 Jane Street","zip":"","phone":"","email":"","website":"","hours":"","brand":"","services":["general_repair"],"shopType":"general_repair"},{"id":"shop-ny-toronto-alex-auto-repair","name":"Alex Auto Repair","slug":"ny-toronto-alex-auto-repair","lat":43.7060026,"lng":-79.5048762,"state":"NY","city":"Toronto","address":"1778 Jane Street","zip":"","phone":"","email":"","website":"","hours":"","brand":"","services":["general_repair"],"shopType":"general_repair"},{"id":"shop-ny-agincourt-mr-lube","name":"Mr. Lube","slug":"ny-agincourt-mr-lube","lat":43.7790248,"lng":-79.3087966,"state":"NY","city":"Agincourt","address":"3306 Sheppard Avenue East","zip":"","phone":"+1-416-491-1828","email":"","website":"","hours":"","brand":"Mr. Lube","services":["oil_change"],"shopType":"quick_lube"},{"id":"shop-ny-unknown-trafalgar-tire","name":"Trafalgar Tire","slug":"ny-unknown-trafalgar-tire","lat":43.4647036,"lng":-79.685661,"state":"NY","city":"","address":"","zip":"","phone":"","email":"","website":"","hours":"","brand":"","services":["tires"],"shopType":"tire_shop"},{"id":"shop-ny-city-of-albany-albany-spring-service","name":"Albany Spring Service","slug":"ny-city-of-albany-albany-spring-service","lat":42.6637662,"lng":-73.7443626,"state":"NY","city":"City of Albany","address":"","zip":"","phone":"","email":"","website":"","hours":"","brand":"","services":["general_repair"],"shopType":"general_repair"},{"id":"shop-ny-unknown-firestone","name":"Firestone","slug":"ny-unknown-firestone","lat":43.6948391,"lng":-79.7476908,"state":"NY","city":"","address":"","zip":"","phone":"","email":"","website":"","hours":"","brand":"Firestone","services":["tires"],"shopType":"general_repair"},{"id":"shop-ny-markham-igarage-auto-service","name":"igarage auto service","slug":"ny-markham-igarage-auto-service","lat":43.8761681,"lng":-79.2739271,"state":"NY","city":"Markham","address":"156-unit 29 Bullock Drive","zip":"","phone":"","email":"","website":"","hours":"","brand":"","services":["general_repair"],"shopType":"general_repair"},{"id":"shop-ny-valatie-kinderhook-transmission","name":"Kinderhook Transmission","slug":"ny-valatie-kinderhook-transmission","lat":42.4606174,"lng":-73.6939517,"state":"NY","city":"Valatie","address":"3465 United States Highway 9","zip":"","phone":"+1 518-784-5050","email":"","website":"","hours":"","brand":"","services":["transmission"],"shopType":"transmission_shop"},{"id":"shop-ny-west-sand-lake-leckonby-s-autoworks-inc","name":"Leckonby's Autoworks Inc","slug":"ny-west-sand-lake-leckonby-s-autoworks-inc","lat":42.645943,"lng":-73.60451,"state":"NY","city":"West Sand Lake","address":"3642 State Highway 43","zip":"12196","phone":"+1 518-674-3864","email":"","website":"","hours":"","brand":"","services":["general_repair"],"shopType":"general_repair"},{"id":"shop-ny-peterborough-bob-nurse-motors","name":"Bob Nurse Motors","slug":"ny-peterborough-bob-nurse-motors","lat":44.2923205,"lng":-78.3243891,"state":"NY","city":"Peterborough","address":"20 Park Street South","zip":"K9J 3R5","phone":"","email":"","website":"https://bobnursemotors.ca/","hours":"Mo-Fr 08:00-17:00","brand":"","services":["general_repair"],"shopType":"general_repair"},{"id":"shop-ny-peterborough-krown","name":"Krown","slug":"ny-peterborough-krown","lat":44.2965323,"lng":-78.3232282,"state":"NY","city":"Peterborough","address":"107 Aylmer Street North","zip":"","phone":"","email":"","website":"","hours":"","brand":"","services":["general_repair"],"shopType":"general_repair"},{"id":"shop-ny-peterborough-douglas-automotive-repair","name":"Douglas Automotive Repair","slug":"ny-peterborough-douglas-automotive-repair","lat":44.2924323,"lng":-78.3330238,"state":"NY","city":"Peterborough","address":"1051 Monaghan Road","zip":"","phone":"","email":"","website":"","hours":"","brand":"","services":["general_repair"],"shopType":"general_repair"},{"id":"shop-ny-peterborough-bryant-s-auto","name":"Bryant's Auto","slug":"ny-peterborough-bryant-s-auto","lat":44.3072251,"lng":-78.3238178,"state":"NY","city":"Peterborough","address":"240 Brock Street","zip":"","phone":"","email":"","website":"","hours":"","brand":"","services":["general_repair"],"shopType":"general_repair"},{"id":"shop-ny-unknown-tech-net-professional-auto-service","name":"Tech-Net Professional Auto Service","slug":"ny-unknown-tech-net-professional-auto-service","lat":43.7021574,"lng":-79.3880301,"state":"NY","city":"","address":"","zip":"","phone":"","email":"","website":"","hours":"","brand":"","services":["general_repair"],"shopType":"general_repair"},{"id":"shop-ny-town-of-niskayuna-valvoline","name":"Valvoline","slug":"ny-town-of-niskayuna-valvoline","lat":42.7686754,"lng":-73.891333,"state":"NY","city":"Town of Niskayuna","address":"","zip":"","phone":"","email":"","website":"","hours":"","brand":"Valvoline","services":["oil_change"],"shopType":"quick_lube"},{"id":"shop-ny-town-of-henrietta-austin-spencer-collision","name":"Austin Spencer Collision","slug":"ny-town-of-henrietta-austin-spencer-collision","lat":43.0943975,"lng":-77.6126048,"state":"NY","city":"Town of Henrietta","address":"","zip":"","phone":"","email":"","website":"","hours":"","brand":"","services":["body_work"],"shopType":"body_shop"},{"id":"shop-ny-town-of-brighton-brighton-garage","name":"Brighton Garage","slug":"ny-town-of-brighton-brighton-garage","lat":43.1279605,"lng":-77.5657557,"state":"NY","city":"Town of Brighton","address":"","zip":"","phone":"","email":"","website":"","hours":"Mo-Fr 07:00-18:00","brand":"","services":["general_repair"],"shopType":"general_repair"},{"id":"shop-ny-unknown-performance-plus","name":"Performance Plus","slug":"ny-unknown-performance-plus","lat":44.238515,"lng":-76.50604,"state":"NY","city":"","address":"","zip":"","phone":"","email":"","website":"","hours":"","brand":"","services":["general_repair"],"shopType":"general_repair"},{"id":"shop-ny-unknown-north-toronto-tire","name":"North Toronto Tire","slug":"ny-unknown-north-toronto-tire","lat":43.771903,"lng":-79.4718815,"state":"NY","city":"","address":"","zip":"","phone":"","email":"","website":"","hours":"","brand":"","services":["tires"],"shopType":"tire_shop"},{"id":"shop-ny-mississauga-rankin-automobile","name":"Rankin Automobile","slug":"ny-mississauga-rankin-automobile","lat":43.5312865,"lng":-79.6124917,"state":"NY","city":"Mississauga","address":"1098 Lorne Park Road","zip":"","phone":"","email":"","website":"","hours":"","brand":"","services":["general_repair"],"shopType":"general_repair"},{"id":"shop-ny-unknown-andy-auto","name":"Andy Auto","slug":"ny-unknown-andy-auto","lat":43.531583,"lng":-79.608072,"state":"NY","city":"","address":"","zip":"","phone":"+1-905-891-5424","email":"","website":"","hours":"","brand":"","services":["general_repair"],"shopType":"general_repair"},{"id":"shop-ny-mississauga-auto-mila","name":"Auto Mila","slug":"ny-mississauga-auto-mila","lat":43.55925,"lng":-79.58277,"state":"NY","city":"Mississauga","address":"129B Queen Street East","zip":"","phone":"","email":"","website":"","hours":"","brand":"","services":["general_repair"],"shopType":"general_repair"},{"id":"shop-ny-mississauga-seneca-auto-body-seneca-towing","name":"Seneca Auto Body/Seneca Towing","slug":"ny-mississauga-seneca-auto-body-seneca-towing","lat":43.563999,"lng":-79.5778488,"state":"NY","city":"Mississauga","address":"1109 Seneca Avenue","zip":"","phone":"+1-905-271-7000","email":"","website":"","hours":"","brand":"","services":["body_work"],"shopType":"body_shop"},{"id":"shop-ny-city-of-schenectady-munro-muffler-brake","name":"Munro Muffler Brake","slug":"ny-city-of-schenectady-munro-muffler-brake","lat":42.789327,"lng":-73.9376083,"state":"NY","city":"City of Schenectady","address":"","zip":"","phone":"","email":"","website":"","hours":"","brand":"","services":["exhaust","brakes"],"shopType":"general_repair"},{"id":"shop-ny-city-of-schenectady-dream-autos-service-center","name":"Dream Autos Service Center","slug":"ny-city-of-schenectady-dream-autos-service-center","lat":42.7897134,"lng":-73.9382155,"state":"NY","city":"City of Schenectady","address":"","zip":"","phone":"","email":"","website":"","hours":"","brand":"","services":["general_repair"],"shopType":"general_repair"},{"id":"shop-ny-town-of-rotterdam-carman-service-center","name":"Carman Service Center","slug":"ny-town-of-rotterdam-carman-service-center","lat":42.7848386,"lng":-73.9308175,"state":"NY","city":"Town of Rotterdam","address":"","zip":"","phone":"","email":"","website":"","hours":"","brand":"","services":["general_repair"],"shopType":"general_repair"},{"id":"shop-ny-town-of-rotterdam-jay-s-certified-auto-repair","name":"Jay's Certified Auto Repair","slug":"ny-town-of-rotterdam-jay-s-certified-auto-repair","lat":42.7859207,"lng":-73.9322545,"state":"NY","city":"Town of Rotterdam","address":"","zip":"","phone":"","email":"","website":"","hours":"","brand":"","services":["general_repair"],"shopType":"general_repair"},{"id":"shop-ny-fairport-firestone","name":"Firestone","slug":"ny-fairport-firestone","lat":43.0649426,"lng":-77.4109811,"state":"NY","city":"Fairport","address":"7374 Palmyra Road","zip":"14450","phone":"","email":"","website":"","hours":"","brand":"Firestone","services":["general_repair"],"shopType":"general_repair"},{"id":"shop-ny-scarborough-inter-auto-centre","name":"Inter Auto Centre","slug":"ny-scarborough-inter-auto-centre","lat":43.7842842,"lng":-79.2863739,"state":"NY","city":"Scarborough","address":"4040 Sheppard Avenue East","zip":"","phone":"+1-416-321-8800","email":"","website":"","hours":"","brand":"","services":["general_repair"],"shopType":"general_repair"},{"id":"shop-ny-pickering-midas","name":"Midas","slug":"ny-pickering-midas","lat":43.8464827,"lng":-79.076992,"state":"NY","city":"Pickering","address":"1650 Kingston Road","zip":"","phone":"","email":"","website":"https://www.midas.com/","hours":"","brand":"Midas","services":["general_repair"],"shopType":"general_repair"},{"id":"shop-ny-toronto-spadina-auto-service","name":"Spadina Auto Service","slug":"ny-toronto-spadina-auto-service","lat":43.6428737,"lng":-79.4120181,"state":"NY","city":"Toronto","address":"111 Strachan Avenue","zip":"","phone":"+1-416-925-4251","email":"","website":"https://www.yelp.com/biz/spadina-auto-toronto","hours":"","brand":"","services":["general_repair"],"shopType":"general_repair","rating":4,"reviewCount":90,"yelpMatched":true,"yelpMatchScore":1},{"id":"shop-ny-unknown-a-a-auto-garage","name":"A&A Auto Garage","slug":"ny-unknown-a-a-auto-garage","lat":43.6427531,"lng":-79.4119965,"state":"NY","city":"","address":"","zip":"","phone":"+1-416-703-7038","email":"","website":"","hours":"","brand":"","services":["general_repair"],"shopType":"general_repair"},{"id":"shop-ny-unknown-mount-pleasant-auto-service","name":"Mount Pleasant Auto Service","slug":"ny-unknown-mount-pleasant-auto-service","lat":43.713023,"lng":-79.391585,"state":"NY","city":"","address":"963 Mount Pleasant Road","zip":"","phone":"","email":"","website":"","hours":"","brand":"","services":["general_repair"],"shopType":"general_repair"},{"id":"shop-ny-unknown-canadian-tire-3","name":"Canadian Tire","slug":"ny-unknown-canadian-tire-3","lat":43.609908,"lng":-79.695584,"state":"NY","city":"","address":"","zip":"","phone":"","email":"","website":"https://www.canadiantire.ca/en/store-details/on/mississauga-heartland-on-497.html","hours":"Mo-Fr 08:00-21:00; Sa 08:00-20:00; Su 09:00-18:00","brand":"Canadian Tire","services":["tires"],"shopType":"tire_shop"},{"id":"shop-ny-unknown-mr-lube-2","name":"Mr. Lube","slug":"ny-unknown-mr-lube-2","lat":43.5775697,"lng":-79.7330364,"state":"NY","city":"","address":"","zip":"","phone":"","email":"","website":"","hours":"","brand":"Mr. Lube","services":["oil_change"],"shopType":"quick_lube"},{"id":"shop-ny-unknown-britannia-auto-service-centre","name":"Britannia Auto Service Centre","slug":"ny-unknown-britannia-auto-service-centre","lat":43.5687936,"lng":-79.7431884,"state":"NY","city":"","address":"2990 Britannia Road West","zip":"","phone":"","email":"","website":"","hours":"","brand":"","services":["general_repair"],"shopType":"general_repair"},{"id":"shop-ny-unknown-autopro-bathurst-car-care","name":"Autopro Bathurst Car Care","slug":"ny-unknown-autopro-bathurst-car-care","lat":43.78001,"lng":-79.444176,"state":"NY","city":"","address":"","zip":"","phone":"","email":"","website":"","hours":"","brand":"","services":["general_repair"],"shopType":"general_repair"},{"id":"shop-ny-brampton-mr-lube","name":"Mr. Lube","slug":"ny-brampton-mr-lube","lat":43.7410087,"lng":-79.6934488,"state":"NY","city":"Brampton","address":"30 Coventry Road","zip":"","phone":"+1-905-792-9250","email":"","website":"","hours":"","brand":"Mr. Lube","services":["oil_change"],"shopType":"quick_lube"},{"id":"shop-ny-brampton-mr-lube-2","name":"Mr. Lube","slug":"ny-brampton-mr-lube-2","lat":43.7090703,"lng":-79.7336446,"state":"NY","city":"Brampton","address":"149 West Drive","zip":"","phone":"","email":"","website":"","hours":"","brand":"Mr. Lube","services":["oil_change"],"shopType":"quick_lube"},{"id":"shop-ny-unknown-master-mechanic","name":"Master Mechanic","slug":"ny-unknown-master-mechanic","lat":43.735406,"lng":-79.599439,"state":"NY","city":"","address":"","zip":"","phone":"","email":"","website":"","hours":"","brand":"Master Mechanic","services":["general_repair"],"shopType":"general_repair"},{"id":"shop-ny-scarborough-birchmount-collision","name":"Birchmount Collision","slug":"ny-scarborough-birchmount-collision","lat":43.80269,"lng":-79.295037,"state":"NY","city":"Scarborough","address":"4032 Finch Avenue East","zip":"","phone":"","email":"","website":"","hours":"","brand":"","services":["body_work"],"shopType":"body_shop"},{"id":"shop-ny-unknown-tich-auto-services","name":"Tich Auto Services","slug":"ny-unknown-tich-auto-services","lat":43.80477,"lng":-79.298071,"state":"NY","city":"","address":"","zip":"","phone":"","email":"","website":"","hours":"","brand":"","services":["general_repair"],"shopType":"general_repair"},{"id":"shop-ny-albany-paul-s-garage","name":"Paul's Garage","slug":"ny-albany-paul-s-garage","lat":42.6629557,"lng":-73.7794058,"state":"NY","city":"Albany","address":"230 Ontario Street","zip":"12203","phone":"","email":"","website":"","hours":"","brand":"","services":["general_repair"],"shopType":"general_repair"},{"id":"shop-ny-unknown-7-stop-auto-inc","name":"7 Stop Auto Inc.","slug":"ny-unknown-7-stop-auto-inc","lat":43.7826229,"lng":-79.1712224,"state":"NY","city":"","address":"","zip":"","phone":"","email":"","website":"","hours":"","brand":"","services":["general_repair"],"shopType":"general_repair"},{"id":"shop-ny-unknown-master-mechanic-2","name":"Master Mechanic","slug":"ny-unknown-master-mechanic-2","lat":43.895558,"lng":-78.873965,"state":"NY","city":"","address":"","zip":"","phone":"","email":"","website":"","hours":"","brand":"Master Mechanic","services":["general_repair"],"shopType":"general_repair"},{"id":"shop-ny-unknown-speedy-2","name":"Speedy","slug":"ny-unknown-speedy-2","lat":43.8961186,"lng":-78.8710202,"state":"NY","city":"","address":"","zip":"","phone":"","email":"","website":"","hours":"","brand":"","services":["general_repair"],"shopType":"general_repair"},{"id":"shop-ny-unknown-midas-2","name":"Midas","slug":"ny-unknown-midas-2","lat":43.55375,"lng":-79.723144,"state":"NY","city":"","address":"","zip":"","phone":"+1 9058260700","email":"","website":"https://www.midas.com/","hours":"","brand":"Midas","services":["general_repair"],"shopType":"general_repair"},{"id":"shop-ny-unknown-krown","name":"Krown","slug":"ny-unknown-krown","lat":43.576981,"lng":-79.559049,"state":"NY","city":"","address":"","zip":"","phone":"","email":"","website":"","hours":"","brand":"","services":["general_repair"],"shopType":"general_repair"},{"id":"shop-ny-town-of-halfmoon-midas","name":"Midas","slug":"ny-town-of-halfmoon-midas","lat":42.8615438,"lng":-73.7667064,"state":"NY","city":"Town of Halfmoon","address":"","zip":"","phone":"","email":"","website":"","hours":"","brand":"Midas","services":["general_repair"],"shopType":"general_repair"},{"id":"shop-ny-town-of-clifton-park-trev-s-automotive","name":"Trev's Automotive","slug":"ny-town-of-clifton-park-trev-s-automotive","lat":42.9037962,"lng":-73.7828643,"state":"NY","city":"Town of Clifton Park","address":"","zip":"","phone":"","email":"","website":"","hours":"","brand":"","services":["general_repair"],"shopType":"general_repair"},{"id":"shop-ny-selden-sts-tire-auto-center","name":"STS Tire & Auto Center","slug":"ny-selden-sts-tire-auto-center","lat":40.8672003,"lng":-73.0333005,"state":"NY","city":"Selden","address":"525 Middle Country Road","zip":"11784","phone":"","email":"","website":"","hours":"","brand":"","services":["tires"],"shopType":"tire_shop"},{"id":"shop-ny-unknown-shannon-s-garage","name":"Shannon's Garage","slug":"ny-unknown-shannon-s-garage","lat":44.3198215,"lng":-76.5032392,"state":"NY","city":"","address":"","zip":"","phone":"","email":"","website":"","hours":"","brand":"","services":["general_repair"],"shopType":"general_repair"},{"id":"shop-ny-town-of-hunter-rory-s","name":"Rory's","slug":"ny-town-of-hunter-rory-s","lat":42.1950459,"lng":-74.0946714,"state":"NY","city":"Town of Hunter","address":"","zip":"","phone":"","email":"","website":"","hours":"","brand":"","services":["general_repair"],"shopType":"general_repair"},{"id":"shop-ny-unknown-auto-maxx-automotive","name":"Auto Maxx Automotive","slug":"ny-unknown-auto-maxx-automotive","lat":44.23783,"lng":-76.504324,"state":"NY","city":"","address":"","zip":"","phone":"","email":"","website":"","hours":"","brand":"","services":["general_repair"],"shopType":"general_repair"},{"id":"shop-ny-unknown-kd-auto-service","name":"KD Auto Service","slug":"ny-unknown-kd-auto-service","lat":43.6257192,"lng":-79.7288684,"state":"NY","city":"","address":"","zip":"","phone":"","email":"","website":"","hours":"","brand":"","services":["general_repair"],"shopType":"general_repair"},{"id":"shop-ny-unknown-canadian-tire-auto-centre","name":"Canadian Tire Auto Centre","slug":"ny-unknown-canadian-tire-auto-centre","lat":43.7654954,"lng":-79.4674204,"state":"NY","city":"","address":"","zip":"","phone":"","email":"","website":"https://www.canadiantire.ca/en/store-details/on/dufferin-finch-auto-ctr-on-485.html","hours":"","brand":"Canadian Tire","services":["tires"],"shopType":"tire_shop"},{"id":"shop-ny-town-of-greenburgh-s-j-service-center","name":"S & J Service Center","slug":"ny-town-of-greenburgh-s-j-service-center","lat":41.0128087,"lng":-73.8061349,"state":"NY","city":"Town of Greenburgh","address":"245","zip":"","phone":"","email":"","website":"","hours":"","brand":"","services":["general_repair"],"shopType":"general_repair"},{"id":"shop-ny-unknown-spincam-tirecraft-auto-centre","name":"Spincam Tirecraft Auto Centre","slug":"ny-unknown-spincam-tirecraft-auto-centre","lat":43.9450675,"lng":-79.455494,"state":"NY","city":"","address":"","zip":"","phone":"+1 289-234-8473","email":"","website":"","hours":"","brand":"","services":["tires"],"shopType":"tire_shop"},{"id":"shop-ny-village-of-potsdam-parts-america","name":"Parts America","slug":"ny-village-of-potsdam-parts-america","lat":44.6862047,"lng":-74.9895204,"state":"NY","city":"Village of Potsdam","address":"","zip":"","phone":"","email":"","website":"","hours":"","brand":"","services":["general_repair"],"shopType":"general_repair"},{"id":"shop-ny-unknown-mr-lube-3","name":"Mr. Lube","slug":"ny-unknown-mr-lube-3","lat":43.6267378,"lng":-79.5659189,"state":"NY","city":"","address":"","zip":"","phone":"","email":"","website":"","hours":"","brand":"Mr. Lube","services":["oil_change"],"shopType":"quick_lube"},{"id":"shop-ny-unknown-walsh-s-auto-collision","name":"Walsh's Auto Collision","slug":"ny-unknown-walsh-s-auto-collision","lat":43.6148293,"lng":-79.4981018,"state":"NY","city":"","address":"286 Royal York Road","zip":"","phone":"","email":"","website":"","hours":"","brand":"","services":["body_work"],"shopType":"body_shop"},{"id":"shop-ny-unknown-oaktown-collision","name":"Oaktown Collision","slug":"ny-unknown-oaktown-collision","lat":43.461036,"lng":-79.681573,"state":"NY","city":"","address":"","zip":"","phone":"","email":"","website":"","hours":"","brand":"","services":["body_work"],"shopType":"body_shop"},{"id":"shop-ny-unknown-oakridge-auto-service","name":"Oakridge Auto Service","slug":"ny-unknown-oakridge-auto-service","lat":43.446976,"lng":-79.693605,"state":"NY","city":"","address":"","zip":"","phone":"","email":"","website":"","hours":"","brand":"","services":["general_repair"],"shopType":"general_repair"},{"id":"shop-ny-new-york-bullocks-auto-repair","name":"Bullocks Auto Repair","slug":"ny-new-york-bullocks-auto-repair","lat":40.5789712,"lng":-73.8499771,"state":"NY","city":"New York","address":"","zip":"","phone":"","email":"","website":"","hours":"","brand":"","services":["general_repair"],"shopType":"general_repair"},{"id":"shop-ny-unknown-strong-automotive","name":"Strong Automotive","slug":"ny-unknown-strong-automotive","lat":43.764403,"lng":-79.396649,"state":"NY","city":"","address":"","zip":"","phone":"","email":"","website":"","hours":"","brand":"","services":["general_repair"],"shopType":"general_repair"},{"id":"shop-ny-oshawa-taunton-tires","name":"Taunton Tires","slug":"ny-oshawa-taunton-tires","lat":43.9448635,"lng":-78.8297247,"state":"NY","city":"Oshawa","address":"Townline Road North","zip":"L1H 7K5","phone":"","email":"","website":"","hours":"","brand":"","services":["tires"],"shopType":"tire_shop"},{"id":"shop-ny-unknown-canadian-tire-auto-centre-2","name":"Canadian Tire Auto Centre","slug":"ny-unknown-canadian-tire-auto-centre-2","lat":43.6186059,"lng":-79.5461049,"state":"NY","city":"","address":"1608 The Queensway","zip":"","phone":"","email":"","website":"","hours":"","brand":"Canadian Tire","services":["tires"],"shopType":"tire_shop"},{"id":"shop-ny-unknown-four-star-auto","name":"Four Star Auto","slug":"ny-unknown-four-star-auto","lat":43.815964,"lng":-79.425075,"state":"NY","city":"","address":"","zip":"","phone":"","email":"","website":"","hours":"","brand":"","services":["general_repair"],"shopType":"general_repair"},{"id":"shop-ny-unknown-sal-s-auto-service","name":"Sal's Auto Service","slug":"ny-unknown-sal-s-auto-service","lat":43.5790056,"lng":-79.587157,"state":"NY","city":"","address":"","zip":"","phone":"","email":"","website":"","hours":"","brand":"","services":["general_repair"],"shopType":"general_repair"},{"id":"shop-ny-unknown-supreme-collision-centre","name":"Supreme Collision Centre","slug":"ny-unknown-supreme-collision-centre","lat":43.807525,"lng":-79.421774,"state":"NY","city":"","address":"","zip":"","phone":"","email":"","website":"","hours":"","brand":"","services":["body_work"],"shopType":"body_shop"},{"id":"shop-ny-unknown-thornhill-hyundai-collision-centre","name":"Thornhill Hyundai Collision Centre","slug":"ny-unknown-thornhill-hyundai-collision-centre","lat":43.807204,"lng":-79.412107,"state":"NY","city":"","address":"","zip":"","phone":"","email":"","website":"","hours":"","brand":"","services":["body_work"],"shopType":"body_shop"},{"id":"shop-ny-unknown-collision-centre","name":"Collision Centre","slug":"ny-unknown-collision-centre","lat":43.807066,"lng":-79.412896,"state":"NY","city":"","address":"","zip":"","phone":"","email":"","website":"","hours":"","brand":"","services":["body_work"],"shopType":"body_shop"},{"id":"shop-ny-unknown-cawthra-auto-service","name":"Cawthra Auto Service","slug":"ny-unknown-cawthra-auto-service","lat":43.5702411,"lng":-79.566138,"state":"NY","city":"","address":"","zip":"","phone":"","email":"","website":"","hours":"","brand":"","services":["body_work"],"shopType":"body_shop"},{"id":"shop-ny-unknown-fix-auto-aurora","name":"Fix Auto Aurora","slug":"ny-unknown-fix-auto-aurora","lat":44.001619,"lng":-79.456049,"state":"NY","city":"","address":"","zip":"","phone":"","email":"","website":"","hours":"","brand":"","services":["general_repair"],"shopType":"general_repair"},{"id":"shop-ny-unknown-veer-preet-service-centre","name":"Veer Preet Service Centre","slug":"ny-unknown-veer-preet-service-centre","lat":43.695834,"lng":-79.631255,"state":"NY","city":"","address":"","zip":"","phone":"","email":"","website":"","hours":"","brand":"","services":["general_repair"],"shopType":"general_repair"},{"id":"shop-ny-city-of-syracuse-big-mike-s-auto-service","name":"Big Mike's Auto Service","slug":"ny-city-of-syracuse-big-mike-s-auto-service","lat":43.059371,"lng":-76.1996,"state":"NY","city":"City of Syracuse","address":"","zip":"","phone":"","email":"","website":"","hours":"","brand":"","services":["general_repair"],"shopType":"general_repair"},{"id":"shop-ny-marcellus-warner-s-auto-body","name":"Warner's Auto Body","slug":"ny-marcellus-warner-s-auto-body","lat":42.9791493,"lng":-76.3257777,"state":"NY","city":"Marcellus","address":"2650 Pleasant Valley Road","zip":"13108","phone":"","email":"","website":"","hours":"","brand":"","services":["body_work"],"shopType":"body_shop"},{"id":"shop-ny-unknown-mr-lube-4","name":"Mr. Lube","slug":"ny-unknown-mr-lube-4","lat":43.4651687,"lng":-79.7438098,"state":"NY","city":"","address":"","zip":"","phone":"","email":"","website":"","hours":"","brand":"Mr. Lube","services":["oil_change"],"shopType":"quick_lube"},{"id":"shop-ny-town-of-bethlehem-jiffy-lube","name":"Jiffy Lube","slug":"ny-town-of-bethlehem-jiffy-lube","lat":42.6315761,"lng":-73.8051008,"state":"NY","city":"Town of Bethlehem","address":"","zip":"","phone":"","email":"","website":"","hours":"","brand":"Jiffy Lube","services":["oil_change"],"shopType":"quick_lube"},{"id":"shop-ny-unknown-malfara-s-auto","name":"Malfara's Auto","slug":"ny-unknown-malfara-s-auto","lat":43.6032801,"lng":-79.546268,"state":"NY","city":"","address":"","zip":"","phone":"+1-416-255-5200","email":"","website":"","hours":"","brand":"","services":["general_repair"],"shopType":"general_repair"},{"id":"shop-ny-unknown-autotex-service-centre-limited","name":"AutoTex Service Centre Limited","slug":"ny-unknown-autotex-service-centre-limited","lat":43.5745937,"lng":-79.5615913,"state":"NY","city":"","address":"","zip":"","phone":"+1-905-803-8585","email":"","website":"https://www.autotex.ca/","hours":"","brand":"","services":["general_repair"],"shopType":"general_repair"},{"id":"shop-ny-unknown-rosewood-automotive","name":"Rosewood Automotive","slug":"ny-unknown-rosewood-automotive","lat":43.5728948,"lng":-79.5634856,"state":"NY","city":"","address":"","zip":"","phone":"+1-905-271-8089","email":"","website":"","hours":"","brand":"","services":["general_repair"],"shopType":"general_repair"},{"id":"shop-ny-unknown-russ-drennan-automotive-sales-and-repairs","name":"Russ Drennan Automotive Sales and Repairs","slug":"ny-unknown-russ-drennan-automotive-sales-and-repairs","lat":43.573453,"lng":-79.5628733,"state":"NY","city":"","address":"","zip":"","phone":"","email":"","website":"https://russdrennanauto.com/","hours":"","brand":"","services":["general_repair"],"shopType":"general_repair"},{"id":"shop-ny-unknown-carmen-s","name":"Carmen's","slug":"ny-unknown-carmen-s","lat":43.5660744,"lng":-79.5698282,"state":"NY","city":"","address":"","zip":"","phone":"","email":"","website":"","hours":"","brand":"","services":["general_repair"],"shopType":"general_repair"},{"id":"shop-ny-etobicoke-southside-auto-centre","name":"Southside Auto Centre","slug":"ny-etobicoke-southside-auto-centre","lat":43.5998132,"lng":-79.5083553,"state":"NY","city":"Etobicoke","address":"3021 Lake Shore Boulevard West","zip":"","phone":"+1-416-255-8885","email":"","website":"","hours":"","brand":"","services":["general_repair"],"shopType":"general_repair"},{"id":"shop-ny-unknown-active-green-ross-4","name":"Active Green & Ross","slug":"ny-unknown-active-green-ross-4","lat":43.603619,"lng":-79.5060867,"state":"NY","city":"","address":"","zip":"","phone":"","email":"","website":"https://www.activegreenross.com/","hours":"","brand":"","services":["general_repair"],"shopType":"general_repair"},{"id":"shop-ny-unknown-midas-4","name":"Midas","slug":"ny-unknown-midas-4","lat":43.5314149,"lng":-79.6717644,"state":"NY","city":"","address":"","zip":"","phone":"","email":"","website":"https://www.midas.com/","hours":"","brand":"Midas","services":["general_repair"],"shopType":"general_repair"},{"id":"shop-ny-unknown-speedy-3","name":"Speedy","slug":"ny-unknown-speedy-3","lat":43.5351193,"lng":-79.6687885,"state":"NY","city":"","address":"","zip":"","phone":"","email":"","website":"","hours":"","brand":"Speedy","services":["general_repair"],"shopType":"general_repair"},{"id":"shop-ny-unknown-mr-lube-5","name":"Mr. Lube","slug":"ny-unknown-mr-lube-5","lat":43.5301544,"lng":-79.6727776,"state":"NY","city":"","address":"","zip":"","phone":"","email":"","website":"","hours":"","brand":"Mr. Lube","services":["oil_change"],"shopType":"quick_lube"},{"id":"shop-ny-unknown-master-mechanic-3","name":"Master Mechanic","slug":"ny-unknown-master-mechanic-3","lat":43.5316123,"lng":-79.6715874,"state":"NY","city":"","address":"","zip":"","phone":"","email":"","website":"","hours":"","brand":"Master Mechanic","services":["general_repair"],"shopType":"general_repair"},{"id":"shop-ny-unknown-abm-garage","name":"ABM Garage","slug":"ny-unknown-abm-garage","lat":43.5676672,"lng":-79.5681362,"state":"NY","city":"","address":"","zip":"","phone":"","email":"","website":"","hours":"","brand":"","services":["general_repair"],"shopType":"general_repair"},{"id":"shop-ny-unknown-mr-lube-6","name":"Mr. Lube","slug":"ny-unknown-mr-lube-6","lat":43.4415861,"lng":-79.6938182,"state":"NY","city":"","address":"","zip":"","phone":"","email":"","website":"","hours":"","brand":"Mr. Lube","services":["oil_change"],"shopType":"quick_lube"},{"id":"shop-ny-town-of-clifton-park-firestone","name":"Firestone","slug":"ny-town-of-clifton-park-firestone","lat":42.8597465,"lng":-73.7758566,"state":"NY","city":"Town of Clifton Park","address":"","zip":"","phone":"","email":"","website":"","hours":"","brand":"Firestone","services":["general_repair"],"shopType":"general_repair"},{"id":"shop-ny-town-of-halfmoon-aaa","name":"AAA","slug":"ny-town-of-halfmoon-aaa","lat":42.8579229,"lng":-73.7604932,"state":"NY","city":"Town of Halfmoon","address":"","zip":"","phone":"","email":"","website":"","hours":"","brand":"","services":["general_repair"],"shopType":"general_repair"},{"id":"shop-ny-east-aurora-bruce-s-automotive","name":"Bruce's Automotive","slug":"ny-east-aurora-bruce-s-automotive","lat":42.7682478,"lng":-78.6154605,"state":"NY","city":"East Aurora","address":"","zip":"","phone":"","email":"","website":"","hours":"","brand":"","services":["general_repair"],"shopType":"general_repair"},{"id":"shop-ny-corning-goodyear-auto-service","name":"Goodyear Auto Service","slug":"ny-corning-goodyear-auto-service","lat":42.1422499,"lng":-77.0539226,"state":"NY","city":"Corning","address":"20 Denison Parkway East","zip":"14830","phone":"+1-607-936-8021","email":"","website":"http://www.goodyear.com/en-US/tires/tire-shop/all/000900438/Corning%20NY%2014830-2606%20US/retailer-details","hours":"Mo-Fr 07:00-18:00; Sa 07:30-17:00","brand":"Goodyear","services":["tires"],"shopType":"general_repair"},{"id":"shop-ny-city-of-corning-tire-world-of-corning","name":"Tire World of Corning","slug":"ny-city-of-corning-tire-world-of-corning","lat":42.1437734,"lng":-77.058878,"state":"NY","city":"City of Corning","address":"","zip":"14830","phone":"+1-607-936-9916","email":"corningtire@yahoo.com","website":"http://tireworldofcorning.com","hours":"Mo-Fr 07:00-17:00","brand":"","services":["tires"],"shopType":"tire_shop"},{"id":"shop-ny-town-of-bethlehem-g-and-r-auto","name":"G and R Auto","slug":"ny-town-of-bethlehem-g-and-r-auto","lat":42.6238729,"lng":-73.8352303,"state":"NY","city":"Town of Bethlehem","address":"","zip":"","phone":"","email":"","website":"","hours":"","brand":"","services":["general_repair"],"shopType":"general_repair"},{"id":"shop-ny-nassau-county-s-s-automotive-center","name":"S&S Automotive Center","slug":"ny-nassau-county-s-s-automotive-center","lat":40.7870763,"lng":-73.5030628,"state":"NY","city":"Nassau County","address":"325 South Oyster Bay Road","zip":"11803","phone":"","email":"","website":"","hours":"","brand":"","services":["general_repair"],"shopType":"general_repair"},{"id":"shop-ny-lansing-phoenix-auto-of-ithaca","name":"Phoenix Auto of Ithaca","slug":"ny-lansing-phoenix-auto-of-ithaca","lat":42.5385255,"lng":-76.4946119,"state":"NY","city":"Lansing","address":"119 Auburn Road","zip":"14882","phone":"","email":"","website":"","hours":"","brand":"","services":["general_repair"],"shopType":"general_repair"},{"id":"shop-ny-unknown-active-green-ross-5","name":"Active Green + Ross","slug":"ny-unknown-active-green-ross-5","lat":43.6119507,"lng":-79.5464439,"state":"NY","city":"","address":"","zip":"","phone":"","email":"","website":"https://www.activegreenross.com/","hours":"","brand":"Active Green + Ross","services":["general_repair"],"shopType":"general_repair"},{"id":"shop-ny-unknown-heartland-collision","name":"Heartland Collision","slug":"ny-unknown-heartland-collision","lat":43.608445,"lng":-79.695143,"state":"NY","city":"","address":"875 Plymouth Drive","zip":"","phone":"","email":"","website":"","hours":"","brand":"","services":["body_work"],"shopType":"body_shop"},{"id":"shop-ny-new-york-alfa-motors","name":"Alfa Motors","slug":"ny-new-york-alfa-motors","lat":40.6843919,"lng":-74.0009284,"state":"NY","city":"New York","address":"","zip":"","phone":"+1-718-596-3977","email":"","website":"http://alfamotorsbrooklyn.com","hours":"","brand":"","services":["general_repair"],"shopType":"general_repair","rating":4.2,"reviewCount":38,"yelpMatched":true,"yelpMatchScore":1},{"id":"shop-ny-new-york-luna-s-tire-shop","name":"Luna's Tire Shop","slug":"ny-new-york-luna-s-tire-shop","lat":40.6801173,"lng":-73.9814768,"state":"NY","city":"New York","address":"","zip":"","phone":"+1-718-403-9769","email":"","website":"","hours":"unknown","brand":"","services":["tires"],"shopType":"tire_shop"},{"id":"shop-ny-new-york-r-ferraro-collision","name":"R. Ferraro Collision","slug":"ny-new-york-r-ferraro-collision","lat":40.6723081,"lng":-73.990505,"state":"NY","city":"New York","address":"","zip":"","phone":"+1-718-788-6288","email":"","website":"http://www.ferrarocollision.com","hours":"","brand":"","services":["body_work"],"shopType":"body_shop"},{"id":"shop-ny-new-york-carlos-repair-ridge","name":"Carlos Repair @ Ridge","slug":"ny-new-york-carlos-repair-ridge","lat":40.6780428,"lng":-73.9857985,"state":"NY","city":"New York","address":"264 3rd Avenue","zip":"11215","phone":"+1-718-832-1413","email":"","website":"","hours":"Mo-Fr 07:30-17:00","brand":"","services":["general_repair"],"shopType":"general_repair"},{"id":"shop-ny-new-york-new-xcell-auto-repair","name":"New Xcell Auto Repair","slug":"ny-new-york-new-xcell-auto-repair","lat":40.702026,"lng":-73.9929402,"state":"NY","city":"New York","address":"","zip":"","phone":"+1-718-625-4110","email":"","website":"https://www.yelp.com/biz/new-xcell-auto-repair-brooklyn-2","hours":"","brand":"","services":["general_repair"],"shopType":"general_repair","rating":4.7,"reviewCount":78,"yelpMatched":true,"yelpMatchScore":1},{"id":"shop-ny-toronto-canadian-tire","name":"Canadian Tire","slug":"ny-toronto-canadian-tire","lat":43.6711608,"lng":-79.4720674,"state":"NY","city":"Toronto","address":"2129 St. Clair Avenue West","zip":"","phone":"","email":"","website":"https://www.canadiantire.ca/en/store-details/on/west-toronto-(stockyards)-on-182.html","hours":"","brand":"Canadian Tire","services":["tires"],"shopType":"tire_shop"},{"id":"shop-ny-new-york-pep-boys","name":"Pep Boys","slug":"ny-new-york-pep-boys","lat":40.6259703,"lng":-74.1538513,"state":"NY","city":"New York","address":"1941 Forest Avenue","zip":"10303","phone":"","email":"","website":"","hours":"","brand":"Pep Boys","services":["general_repair"],"shopType":"general_repair"},{"id":"shop-ny-new-york-bp-jamaica-auto-service","name":"BP Jamaica Auto Service","slug":"ny-new-york-bp-jamaica-auto-service","lat":40.6852621,"lng":-73.8817353,"state":"NY","city":"New York","address":"","zip":"","phone":"+1-718-647-2580","email":"","website":"","hours":"","brand":"","services":["general_repair"],"shopType":"general_repair"},{"id":"shop-ny-unknown-active-green-ross-6","name":"Active Green + Ross","slug":"ny-unknown-active-green-ross-6","lat":43.6843212,"lng":-79.3200654,"state":"NY","city":"","address":"","zip":"","phone":"","email":"","website":"","hours":"","brand":"Active Green + Ross","services":["general_repair"],"shopType":"general_repair"},{"id":"shop-ny-new-york-rush-auto-tire-shop","name":"Rush Auto Tire Shop","slug":"ny-new-york-rush-auto-tire-shop","lat":40.6785833,"lng":-73.9487276,"state":"NY","city":"New York","address":"1263 Atlantic Avenue","zip":"11216","phone":"+1-347-533-8054","email":"","website":"","hours":"","brand":"","services":["tires"],"shopType":"tire_shop"},{"id":"shop-ny-brooklyn-meineke","name":"Meineke","slug":"ny-brooklyn-meineke","lat":40.6148266,"lng":-73.9630897,"state":"NY","city":"Brooklyn","address":"1741 Coney Island Avenue","zip":"11230","phone":"+1-718-804-5287","email":"","website":"https://www.meineke.com/locations/ny/brooklyn-303/","hours":"Mo-Fr 07:30-18:00; Sa 07:30-16:00; Su off","brand":"Meineke","services":["car_repair","oil_change","air_conditioning","tyres","tires","brakes","batteries","exhaust"],"shopType":"general_repair"},{"id":"shop-ny-brooklyn-chang-s-auto-repair","name":"Chang's Auto Repair","slug":"ny-brooklyn-chang-s-auto-repair","lat":40.6802844,"lng":-73.9892079,"state":"NY","city":"Brooklyn","address":"293 Bond Street","zip":"11231","phone":"+1-718-858-5845","email":"","website":"","hours":"Mo-Fr 08:30-17:30; Sa 10:00-15:00","brand":"","services":["general_repair"],"shopType":"general_repair"},{"id":"shop-ny-new-york-viva-mexico-tire-shop","name":"Viva Mexico Tire Shop","slug":"ny-new-york-viva-mexico-tire-shop","lat":40.674223,"lng":-73.9996533,"state":"NY","city":"New York","address":"","zip":"","phone":"+1-718-246-7349","email":"","website":"","hours":"Mo-Su 07:00-20:00","brand":"","services":["tires"],"shopType":"tire_shop"},{"id":"shop-ny-new-york-mario-s-auto-repair","name":"Mario's Auto Repair","slug":"ny-new-york-mario-s-auto-repair","lat":40.6800062,"lng":-73.960458,"state":"NY","city":"New York","address":"","zip":"","phone":"+1-718-638-6465","email":"","website":"https://www.yelp.com/biz/marios-auto-repair-corp-brooklyn","hours":"","brand":"","services":["general_repair"],"shopType":"general_repair","rating":4.7,"reviewCount":89,"yelpMatched":true,"yelpMatchScore":1},{"id":"shop-ny-new-york-friendly-auto-repair","name":"Friendly Auto Repair","slug":"ny-new-york-friendly-auto-repair","lat":40.6630833,"lng":-73.9990347,"state":"NY","city":"New York","address":"","zip":"","phone":"+1-929-250-2461","email":"","website":"","hours":"","brand":"","services":["general_repair"],"shopType":"general_repair"},{"id":"shop-ny-new-york-quality-repair-center","name":"Quality Repair Center","slug":"ny-new-york-quality-repair-center","lat":40.6185849,"lng":-74.0295345,"state":"NY","city":"New York","address":"","zip":"","phone":"+1-718-491-6161","email":"","website":"","hours":"","brand":"","services":["general_repair"],"shopType":"general_repair"},{"id":"shop-ny-brooklyn-neptune-auto-parts","name":"Neptune Auto Parts","slug":"ny-brooklyn-neptune-auto-parts","lat":40.5814104,"lng":-73.9631175,"state":"NY","city":"Brooklyn","address":"255 Neptune Avenue","zip":"11235","phone":"+1 718-646-1133","email":"","website":"","hours":"","brand":"","services":["car_repair","oil_change","diagnostics","tires","car_parts","tyres"],"shopType":"general_repair"},{"id":"shop-ny-new-york-67th-st-tire-shop","name":"67th St. Tire Shop","slug":"ny-new-york-67th-st-tire-shop","lat":40.6355271,"lng":-74.0203544,"state":"NY","city":"New York","address":"6702 5th Avenue","zip":"11220","phone":"+1-718-833-6482","email":"","website":"","hours":"","brand":"","services":["tires"],"shopType":"tire_shop"},{"id":"shop-ny-toronto-aml-auto-service","name":"AML Auto Service","slug":"ny-toronto-aml-auto-service","lat":43.7071331,"lng":-79.3623774,"state":"NY","city":"Toronto","address":"126 Laird Drive","zip":"","phone":"+1 416-423-6209","email":"","website":"https://www.yelp.com/biz/aml-auto-service-east-york-6","hours":"","brand":"","services":["general_repair"],"shopType":"general_repair","rating":4.2,"reviewCount":12,"yelpMatched":true,"yelpMatchScore":1},{"id":"shop-ny-toronto-laird-auto-body","name":"Laird Auto Body","slug":"ny-toronto-laird-auto-body","lat":43.7071836,"lng":-79.3619818,"state":"NY","city":"Toronto","address":"123 Laird Drive","zip":"","phone":"","email":"","website":"","hours":"","brand":"","services":["body_work"],"shopType":"body_shop"},{"id":"shop-ny-toronto-direct-repair-collision-centres","name":"Direct Repair Collision Centres","slug":"ny-toronto-direct-repair-collision-centres","lat":43.7069543,"lng":-79.361929,"state":"NY","city":"Toronto","address":"117 Laird Drive","zip":"","phone":"","email":"","website":"","hours":"","brand":"","services":["body_work"],"shopType":"body_shop"},{"id":"shop-ny-new-york-tmb-services","name":"TMB Services","slug":"ny-new-york-tmb-services","lat":40.6260904,"lng":-73.9974514,"state":"NY","city":"New York","address":"1414 62nd Street","zip":"11219","phone":"+1-718-232-1724","email":"","website":"","hours":"","brand":"","services":["general_repair"],"shopType":"general_repair"},{"id":"shop-ny-new-york-los-primos-tire-shop","name":"Los Primos Tire Shop","slug":"ny-new-york-los-primos-tire-shop","lat":40.6391737,"lng":-74.0204703,"state":"NY","city":"New York","address":"6302 4th Avenue","zip":"11220","phone":"+1-718-792-7541","email":"","website":"","hours":"","brand":"","services":["tires"],"shopType":"tire_shop"},{"id":"shop-ny-new-york-automotriz","name":"Automotriz","slug":"ny-new-york-automotriz","lat":40.6454446,"lng":-74.0201517,"state":"NY","city":"New York","address":"212 56th Street","zip":"11220","phone":"+1-646-474-7787","email":"","website":"","hours":"Mo-Fr 08:00-18:00; Sa 08:00-15:00","brand":"","services":["general_repair"],"shopType":"general_repair"},{"id":"shop-ny-brooklyn-genesis-of-brooklyn-service-parts","name":"Genesis of Brooklyn Service & Parts","slug":"ny-brooklyn-genesis-of-brooklyn-service-parts","lat":40.649323,"lng":-74.0190972,"state":"NY","city":"Brooklyn","address":"126 51st Street","zip":"11232","phone":"","email":"","website":"","hours":"","brand":"Genesis","services":["general_repair"],"shopType":"general_repair"},{"id":"shop-ny-new-york-alex-collision-auto-repair","name":"Alex Collision & Auto Repair","slug":"ny-new-york-alex-collision-auto-repair","lat":40.6525702,"lng":-74.0108284,"state":"NY","city":"New York","address":"260 42nd Street","zip":"11232","phone":"+1-718-832-0332","email":"","website":"","hours":"","brand":"","services":["body_work"],"shopType":"body_shop"},{"id":"shop-ny-new-york-a-1st-stop-auto-repair","name":"A 1st Stop Auto Repair","slug":"ny-new-york-a-1st-stop-auto-repair","lat":40.6519663,"lng":-74.0105913,"state":"NY","city":"New York","address":"","zip":"","phone":"+1-929-298-0098","email":"","website":"","hours":"","brand":"","services":["general_repair"],"shopType":"general_repair"},{"id":"shop-ny-new-york-friends-tire-shop","name":"Friends Tire Shop","slug":"ny-new-york-friends-tire-shop","lat":40.6560205,"lng":-74.0029503,"state":"NY","city":"New York","address":"900 4th Avenue","zip":"11232","phone":"","email":"","website":"","hours":"","brand":"","services":["tires"],"shopType":"tire_shop"},{"id":"shop-ny-new-york-chino-s-tire-shop","name":"Chino's Tire Shop","slug":"ny-new-york-chino-s-tire-shop","lat":40.6529918,"lng":-74.0060902,"state":"NY","city":"New York","address":"","zip":"","phone":"+1-646-379-8943","email":"","website":"","hours":"Mo-Su 07:00-23:00","brand":"","services":["tires"],"shopType":"tire_shop"},{"id":"shop-ny-new-york-prospect-auto-glass","name":"Prospect Auto Glass","slug":"ny-new-york-prospect-auto-glass","lat":40.660728,"lng":-74.0005507,"state":"NY","city":"New York","address":"773 3rd Avenue","zip":"11232","phone":"+1-718-499-9080","email":"","website":"https://www.prospectautoglass.com","hours":"","brand":"","services":["general_repair"],"shopType":"general_repair"},{"id":"shop-ny-new-york-kings-fort-hamilton-tires-rims","name":"Kings Fort Hamilton Tires & Rims","slug":"ny-new-york-kings-fort-hamilton-tires-rims","lat":40.6440858,"lng":-73.9887679,"state":"NY","city":"New York","address":"3623 Fort Hamilton Parkway","zip":"11218","phone":"","email":"","website":"","hours":"","brand":"","services":["tires"],"shopType":"tire_shop"},{"id":"shop-ny-new-york-punctual-auto-center","name":"Punctual Auto Center","slug":"ny-new-york-punctual-auto-center","lat":40.6413703,"lng":-73.9824517,"state":"NY","city":"New York","address":"18 Church Avenue","zip":"11218","phone":"+1-718-438-2700","email":"","website":"","hours":"","brand":"","services":["general_repair"],"shopType":"general_repair"},{"id":"shop-ny-new-york-brooklyn-auto-sound-glass","name":"Brooklyn Auto Sound & Glass","slug":"ny-new-york-brooklyn-auto-sound-glass","lat":40.6646794,"lng":-73.9939574,"state":"NY","city":"New York","address":"626 4th Avenue","zip":"11215","phone":"+1-718-369-3030","email":"","website":"","hours":"","brand":"","services":["general_repair"],"shopType":"general_repair"},{"id":"shop-ny-new-york-prospect-auto-repair","name":"Prospect Auto Repair","slug":"ny-new-york-prospect-auto-repair","lat":40.6646011,"lng":-73.9940362,"state":"NY","city":"New York","address":"628 4th Avenue","zip":"11215","phone":"+1-718-788-7683","email":"","website":"","hours":"","brand":"","services":["general_repair"],"shopType":"general_repair"},{"id":"shop-ny-new-york-ultra-service-center","name":"Ultra Service Center","slug":"ny-new-york-ultra-service-center","lat":40.6274635,"lng":-73.9660589,"state":"NY","city":"New York","address":"","zip":"","phone":"","email":"","website":"","hours":"","brand":"","services":["general_repair"],"shopType":"general_repair"},{"id":"shop-ny-toronto-apple-auto-glass","name":"Apple Auto Glass","slug":"ny-toronto-apple-auto-glass","lat":43.7068725,"lng":-79.3613942,"state":"NY","city":"Toronto","address":"121 Laird Drive","zip":"M4G 3T7","phone":"","email":"","website":"https://www.appleautoglass.com/locations/ontario/leaside/121-laird-drive","hours":"","brand":"","services":["general_repair"],"shopType":"general_repair"},{"id":"shop-ny-new-york-kings-plaze-auto-repair","name":"Kings Plaze Auto Repair","slug":"ny-new-york-kings-plaze-auto-repair","lat":40.6148688,"lng":-73.9277694,"state":"NY","city":"New York","address":"","zip":"","phone":"","email":"","website":"","hours":"","brand":"","services":["general_repair"],"shopType":"general_repair"},{"id":"shop-ny-new-york-dub-citi","name":"Dub Citi","slug":"ny-new-york-dub-citi","lat":40.6618632,"lng":-73.9316871,"state":"NY","city":"New York","address":"504 Utica Avenue","zip":"11203","phone":"+1-718-975-8011","email":"","website":"https://dubciticar.com","hours":"","brand":"","services":["general_repair"],"shopType":"general_repair"},{"id":"shop-ny-new-york-10-minute-oil-change","name":"10 Minute Oil Change","slug":"ny-new-york-10-minute-oil-change","lat":40.6617589,"lng":-73.9317345,"state":"NY","city":"New York","address":"504 Utica Avenue","zip":"11203","phone":"","email":"","website":"","hours":"","brand":"","services":["oil_change"],"shopType":"quick_lube"},{"id":"shop-ny-new-york-fts-fama-tire-shop","name":"FTS Fama Tire Shop","slug":"ny-new-york-fts-fama-tire-shop","lat":40.6761275,"lng":-73.891996,"state":"NY","city":"New York","address":"2770 Atlantic Avenue","zip":"11207","phone":"+1-929-368-1563","email":"","website":"","hours":"","brand":"","services":["tires"],"shopType":"tire_shop"},{"id":"shop-ny-new-york-jimmy-s-auto-repair-shop","name":"Jimmy's Auto Repair Shop","slug":"ny-new-york-jimmy-s-auto-repair-shop","lat":40.6761722,"lng":-73.8917308,"state":"NY","city":"New York","address":"","zip":"","phone":"+1-718-647-7150","email":"","website":"","hours":"","brand":"","services":["general_repair"],"shopType":"general_repair"},{"id":"shop-ny-new-york-mufflers-discount-center","name":"Mufflers Discount Center","slug":"ny-new-york-mufflers-discount-center","lat":40.677325,"lng":-73.8970521,"state":"NY","city":"New York","address":"","zip":"","phone":"+1-718-346-0466","email":"","website":"","hours":"","brand":"","services":["exhaust"],"shopType":"general_repair"},{"id":"shop-ny-new-york-k-w-chung","name":"K&W Chung","slug":"ny-new-york-k-w-chung","lat":40.6728398,"lng":-73.91111,"state":"NY","city":"New York","address":"301 Rockaway Avenue","zip":"11233","phone":"+1-718-342-0720","email":"","website":"","hours":"","brand":"","services":["general_repair"],"shopType":"general_repair"},{"id":"shop-ny-new-york-marino-tire-shop","name":"Marino Tire Shop","slug":"ny-new-york-marino-tire-shop","lat":40.6940964,"lng":-73.9432948,"state":"NY","city":"New York","address":"304 Throop Avenue","zip":"11206","phone":"+1-718-404-6004","email":"","website":"","hours":"","brand":"","services":["tires"],"shopType":"tire_shop"},{"id":"shop-ny-new-york-unique-truck-auto","name":"Unique Truck & Auto","slug":"ny-new-york-unique-truck-auto","lat":40.6974528,"lng":-73.9694858,"state":"NY","city":"New York","address":"","zip":"","phone":"+1-718-855-1488","email":"","website":"","hours":"","brand":"","services":["general_repair"],"shopType":"general_repair"},{"id":"shop-ny-brooklyn-tvandnav2go","name":"TVandNav2Go","slug":"ny-brooklyn-tvandnav2go","lat":40.6341767,"lng":-73.9147499,"state":"NY","city":"Brooklyn","address":"7718 Flatlands Avenue","zip":"11236","phone":"+1 718 763 7367","email":"","website":"http://tvandnav2go.com/","hours":"","brand":"","services":["electrical"],"shopType":"general_repair"},{"id":"shop-ny-monroe-county-howard-road-garage","name":"Howard Road Garage","slug":"ny-monroe-county-howard-road-garage","lat":43.1635884,"lng":-77.6915059,"state":"NY","city":"Monroe County","address":"","zip":"","phone":"","email":"","website":"","hours":"","brand":"","services":["general_repair"],"shopType":"general_repair"},{"id":"shop-ny-monroe-county-monro-muffler-brake","name":"Monro Muffler Brake","slug":"ny-monroe-county-monro-muffler-brake","lat":43.1639563,"lng":-77.6915226,"state":"NY","city":"Monroe County","address":"","zip":"","phone":"","email":"","website":"","hours":"","brand":"Monro","services":["exhaust","brakes"],"shopType":"general_repair"},{"id":"shop-ny-mississauga-midas","name":"Midas","slug":"ny-mississauga-midas","lat":43.5081459,"lng":-79.6340155,"state":"NY","city":"Mississauga","address":"2176 Royal Windsor Drive","zip":"","phone":"","email":"","website":"https://www.midas.com/","hours":"","brand":"Midas","services":["general_repair"],"shopType":"general_repair"},{"id":"shop-ny-oakville-tryman-s-transmissions-inc","name":"Tryman's Transmissions Inc","slug":"ny-oakville-tryman-s-transmissions-inc","lat":43.4970146,"lng":-79.6469907,"state":"NY","city":"Oakville","address":"1032 Winston Churchill Boulevard","zip":"","phone":"+1-905-849-3990","email":"","website":"","hours":"Mo-Fr 08:00-17:30; Sa 07:00-12:00","brand":"","services":["transmission"],"shopType":"transmission_shop"},{"id":"shop-ny-oakville-sheridan-auto-service","name":"Sheridan Auto Service","slug":"ny-oakville-sheridan-auto-service","lat":43.4969447,"lng":-79.6468693,"state":"NY","city":"Oakville","address":"1032 Winston Churchill Boulevard","zip":"","phone":"+1-905-845-0585","email":"","website":"","hours":"","brand":"","services":["general_repair"],"shopType":"general_repair"},{"id":"shop-ny-oakville-sil-s-complete-auto-care-centre","name":"Sil's Complete Auto Care Centre","slug":"ny-oakville-sil-s-complete-auto-care-centre","lat":43.4973305,"lng":-79.6475444,"state":"NY","city":"Oakville","address":"1040 Winston Churchill Boulevard","zip":"","phone":"+1-905-823-2626","email":"","website":"http://www.SilsAuto.com","hours":"Mo-Fr 07:30-18:00","brand":"","services":["general_repair"],"shopType":"general_repair"},{"id":"shop-ny-unknown-active-green-ross-7","name":"Active Green + Ross","slug":"ny-unknown-active-green-ross-7","lat":43.8744715,"lng":-79.4240586,"state":"NY","city":"","address":"","zip":"","phone":"","email":"","website":"https://www.activegreenross.com/","hours":"","brand":"Active Green + Ross","services":["general_repair"],"shopType":"general_repair"},{"id":"shop-ny-unknown-active-green-ross-8","name":"Active Green + Ross","slug":"ny-unknown-active-green-ross-8","lat":43.8000812,"lng":-79.4220243,"state":"NY","city":"","address":"","zip":"","phone":"","email":"","website":"https://www.activegreenross.com/","hours":"","brand":"Active Green + Ross","services":["general_repair"],"shopType":"general_repair"},{"id":"shop-ny-unknown-rikki-s-repairs","name":"Rikki's Repairs","slug":"ny-unknown-rikki-s-repairs","lat":44.6728956,"lng":-76.3965359,"state":"NY","city":"","address":"","zip":"","phone":"","email":"","website":"","hours":"","brand":"","services":["general_repair"],"shopType":"general_repair"},{"id":"shop-ny-long-island-city-tire-town-express","name":"Tire Town Express","slug":"ny-long-island-city-tire-town-express","lat":40.7389118,"lng":-73.9341475,"state":"NY","city":"Long Island City","address":"32-49 Gale Avenue","zip":"11101","phone":"+1-718-784-0404","email":"mztiretown@gmail.com","website":"https://www.tiretownexpress.com/","hours":"","brand":"","services":["tires"],"shopType":"tire_shop"},{"id":"shop-ny-unknown-at-tire-wheel-ltd","name":"AT Tire & Wheel Ltd.","slug":"ny-unknown-at-tire-wheel-ltd","lat":43.9989585,"lng":-79.4590208,"state":"NY","city":"","address":"","zip":"","phone":"","email":"","website":"","hours":"","brand":"","services":["tires"],"shopType":"tire_shop"},{"id":"shop-ny-aurora-central-york-automotive","name":"Central York Automotive","slug":"ny-aurora-central-york-automotive","lat":43.998104,"lng":-79.4586393,"state":"NY","city":"Aurora","address":"70 Industrial Parkway South","zip":"","phone":"","email":"","website":"","hours":"","brand":"","services":["general_repair"],"shopType":"general_repair"},{"id":"shop-ny-unknown-canlube","name":"Canlube","slug":"ny-unknown-canlube","lat":43.6930552,"lng":-79.4413046,"state":"NY","city":"","address":"","zip":"","phone":"","email":"","website":"","hours":"","brand":"","services":["oil_change"],"shopType":"quick_lube"},{"id":"shop-ny-unknown-oil-changers","name":"Oil Changers","slug":"ny-unknown-oil-changers","lat":43.6738209,"lng":-79.7252969,"state":"NY","city":"","address":"","zip":"","phone":"","email":"","website":"","hours":"","brand":"Great Canadian Oil Change","services":["oil_change"],"shopType":"quick_lube"},{"id":"shop-ny-unknown-in-tune-auto","name":"In-Tune Auto","slug":"ny-unknown-in-tune-auto","lat":43.9309969,"lng":-78.8859143,"state":"NY","city":"","address":"","zip":"","phone":"","email":"","website":"","hours":"","brand":"","services":["general_repair"],"shopType":"general_repair"},{"id":"shop-ny-unknown-admiral-automotive-service-tire-centre","name":"Admiral Automotive Service & Tire Centre","slug":"ny-unknown-admiral-automotive-service-tire-centre","lat":43.6686678,"lng":-79.4831529,"state":"NY","city":"","address":"","zip":"","phone":"","email":"","website":"","hours":"","brand":"","services":["tires"],"shopType":"tire_shop"},{"id":"shop-ny-unknown-autosonic","name":"Autosonic","slug":"ny-unknown-autosonic","lat":43.6496126,"lng":-79.424188,"state":"NY","city":"","address":"1244 Dundas Street West","zip":"","phone":"+1-416-534-1141","email":"","website":"","hours":"","brand":"","services":["general_repair"],"shopType":"general_repair"},{"id":"shop-ny-toronto-bento-s-auto-tire-centre-limited","name":"Bento's Auto & Tire Centre Limited","slug":"ny-toronto-bento-s-auto-tire-centre-limited","lat":43.6515769,"lng":-79.4458671,"state":"NY","city":"Toronto","address":"2000 Dundas Street West","zip":"","phone":"+1-416-533-2500","email":"","website":"https://www.bentosautotirecentrelimited.com/","hours":"","brand":"","services":["tires"],"shopType":"tire_shop"},{"id":"shop-ny-toronto-decent-auto-repair","name":"Decent Auto Repair","slug":"ny-toronto-decent-auto-repair","lat":43.6569811,"lng":-79.4075026,"state":"NY","city":"Toronto","address":"499 Bathurst Street","zip":"","phone":"","email":"","website":"","hours":"","brand":"","services":["general_repair"],"shopType":"general_repair"},{"id":"shop-ny-unknown-portugal-auto-garage","name":"Portugal Auto Garage","slug":"ny-unknown-portugal-auto-garage","lat":43.6520517,"lng":-79.4030828,"state":"NY","city":"","address":"","zip":"","phone":"","email":"","website":"","hours":"","brand":"","services":["general_repair"],"shopType":"general_repair"},{"id":"shop-ny-unknown-mr-lube-7","name":"Mr. Lube","slug":"ny-unknown-mr-lube-7","lat":43.594451,"lng":-79.6401495,"state":"NY","city":"","address":"","zip":"","phone":"","email":"","website":"","hours":"","brand":"Mr. Lube","services":["tires","oil_change"],"shopType":"quick_lube"},{"id":"shop-ny-unknown-ms-car-care-center","name":"MS Car Care Center","slug":"ny-unknown-ms-car-care-center","lat":43.5780361,"lng":-79.6859456,"state":"NY","city":"","address":"","zip":"","phone":"","email":"","website":"http://www.msccc.ca/","hours":"","brand":"","services":["general_repair"],"shopType":"general_repair"},{"id":"shop-ny-unknown-active-green-ross-9","name":"Active Green + Ross","slug":"ny-unknown-active-green-ross-9","lat":43.625363,"lng":-79.5060365,"state":"NY","city":"","address":"","zip":"","phone":"","email":"","website":"https://www.activegreenross.com/","hours":"","brand":"Active Green + Ross","services":["general_repair"],"shopType":"general_repair"},{"id":"shop-ny-toronto-four-seasons-auto-glass","name":"Four Seasons Auto Glass","slug":"ny-toronto-four-seasons-auto-glass","lat":43.7106949,"lng":-79.3632984,"state":"NY","city":"Toronto","address":"199 Laird Drive","zip":"M4G 3W3","phone":"+1-416-421-7664","email":"","website":"","hours":"","brand":"","services":["general_repair"],"shopType":"general_repair"},{"id":"shop-ny-new-york-prela-enterprises-inc","name":"Prela Enterprises Inc","slug":"ny-new-york-prela-enterprises-inc","lat":40.758632,"lng":-73.7844572,"state":"NY","city":"New York","address":"42-42 Francis Lewis Boulevard","zip":"11361","phone":"","email":"","website":"","hours":"","brand":"","services":["general_repair"],"shopType":"general_repair"},{"id":"shop-ny-maspeth-gotham-city-collision-east","name":"Gotham City Collision East","slug":"ny-maspeth-gotham-city-collision-east","lat":40.7322964,"lng":-73.902037,"state":"NY","city":"Maspeth","address":"64-10 Maurice Avenue","zip":"11378","phone":"+13479476542","email":"","website":"https://www.gothamcitycollision.com","hours":"Mo-Sa 08:00-17:00","brand":"","services":["body_work","body_repair"],"shopType":"body_shop"},{"id":"shop-ny-queens-five-five-auto-repair","name":"Five Five Auto Repair","slug":"ny-queens-five-five-auto-repair","lat":40.7368175,"lng":-73.8954977,"state":"NY","city":"Queens","address":"50-01 69th Street","zip":"11377","phone":"+1-718-478-6588","email":"","website":"","hours":"","brand":"","services":["general_repair"],"shopType":"general_repair"},{"id":"shop-ny-astoria-the-scooter-shop","name":"The Scooter shop","slug":"ny-astoria-the-scooter-shop","lat":40.7704749,"lng":-73.9181191,"state":"NY","city":"Astoria","address":"2922 Hoyt Avenue South","zip":"11102","phone":"","email":"","website":"","hours":"","brand":"","services":["general_repair"],"shopType":"general_repair"},{"id":"shop-ny-unknown-napa-autopro-queensville-service-centre","name":"NAPA Autopro Queensville Service Centre","slug":"ny-unknown-napa-autopro-queensville-service-centre","lat":44.1320371,"lng":-79.4483867,"state":"NY","city":"","address":"","zip":"","phone":"","email":"","website":"","hours":"Mo-Fr 08:00-18:00","brand":"","services":["general_repair"],"shopType":"general_repair"},{"id":"shop-ny-new-york-a-rich-auto-works","name":"A Rich Auto Works","slug":"ny-new-york-a-rich-auto-works","lat":40.686954,"lng":-73.8428199,"state":"NY","city":"New York","address":"97-02 100th Street","zip":"11416","phone":"+1-718-843-0203","email":"","website":"","hours":"","brand":"","services":["general_repair"],"shopType":"general_repair"},{"id":"shop-ny-unknown-midas-5","name":"Midas","slug":"ny-unknown-midas-5","lat":43.9900691,"lng":-79.4656904,"state":"NY","city":"","address":"","zip":"","phone":"","email":"","website":"","hours":"","brand":"Midas","services":["general_repair"],"shopType":"general_repair"},{"id":"shop-ny-jamaica-pro-body-shop","name":"Pro Body Shop","slug":"ny-jamaica-pro-body-shop","lat":40.7052361,"lng":-73.8109472,"state":"NY","city":"Jamaica","address":"144-24 Hillside Avenue","zip":"11435","phone":"+1-718-297-2121","email":"","website":"","hours":"","brand":"","services":["body_work"],"shopType":"body_shop"},{"id":"shop-ny-hastings-on-hudson-straub-auto-repairs","name":"Straub Auto Repairs","slug":"ny-hastings-on-hudson-straub-auto-repairs","lat":40.9925474,"lng":-73.883254,"state":"NY","city":"Hastings on Hudson","address":"477 Warburton Avenue","zip":"10706","phone":"+1-914-478-1177","email":"","website":"","hours":"","brand":"","services":["general_repair"],"shopType":"general_repair"},{"id":"shop-ny-unknown-aurora-transit-auto-glass","name":"Aurora Transit Auto Glass","slug":"ny-unknown-aurora-transit-auto-glass","lat":44.0008359,"lng":-79.4681516,"state":"NY","city":"","address":"","zip":"","phone":"","email":"","website":"","hours":"","brand":"","services":["general_repair"],"shopType":"general_repair"},{"id":"shop-ny-unknown-supreme-collision-centre-2","name":"Supreme Collision Centre","slug":"ny-unknown-supreme-collision-centre-2","lat":44.0009791,"lng":-79.4682403,"state":"NY","city":"","address":"","zip":"","phone":"","email":"","website":"","hours":"","brand":"","services":["body_work"],"shopType":"body_shop"},{"id":"shop-ny-unknown-jiffy-lube-5","name":"Jiffy Lube","slug":"ny-unknown-jiffy-lube-5","lat":43.6603735,"lng":-79.5128338,"state":"NY","city":"","address":"","zip":"","phone":"","email":"","website":"","hours":"","brand":"Jiffy Lube","services":["oil_change"],"shopType":"quick_lube"},{"id":"shop-ny-unknown-carstar","name":"Carstar","slug":"ny-unknown-carstar","lat":43.4591802,"lng":-79.6818109,"state":"NY","city":"","address":"","zip":"","phone":"","email":"","website":"","hours":"","brand":"Carstar","services":["body_work","body_repair"],"shopType":"general_repair"},{"id":"shop-ny-town-of-moriah-port-henry-village-public-works","name":"Port Henry Village Public Works","slug":"ny-town-of-moriah-port-henry-village-public-works","lat":44.0473715,"lng":-73.4603354,"state":"NY","city":"Town of Moriah","address":"","zip":"","phone":"","email":"","website":"","hours":"","brand":"","services":["general_repair"],"shopType":"general_repair"},{"id":"shop-ny-town-of-moriah-champ2000-com-inc","name":"Champ2000.com Inc.","slug":"ny-town-of-moriah-champ2000-com-inc","lat":44.045257,"lng":-73.4600769,"state":"NY","city":"Town of Moriah","address":"","zip":"","phone":"","email":"","website":"","hours":"","brand":"","services":["general_repair"],"shopType":"general_repair"},{"id":"shop-ny-town-of-moriah-sleeper-s-automotive","name":"Sleeper's Automotive","slug":"ny-town-of-moriah-sleeper-s-automotive","lat":44.043063,"lng":-73.459401,"state":"NY","city":"Town of Moriah","address":"","zip":"","phone":"","email":"","website":"","hours":"","brand":"","services":["general_repair"],"shopType":"general_repair"},{"id":"shop-ny-town-of-moriah-moriah-buildings-and-grounds","name":"Moriah Buildings and Grounds","slug":"ny-town-of-moriah-moriah-buildings-and-grounds","lat":44.0380538,"lng":-73.45924,"state":"NY","city":"Town of Moriah","address":"","zip":"","phone":"","email":"","website":"","hours":"","brand":"","services":["general_repair"],"shopType":"general_repair"},{"id":"shop-ny-town-of-moriah-port-henry-service-center","name":"Port Henry Service Center","slug":"ny-town-of-moriah-port-henry-service-center","lat":44.0334876,"lng":-73.4622334,"state":"NY","city":"Town of Moriah","address":"","zip":"","phone":"","email":"","website":"","hours":"","brand":"","services":["general_repair"],"shopType":"general_repair"},{"id":"shop-ny-town-of-moriah-jim-s-body-shop","name":"Jim's Body Shop","slug":"ny-town-of-moriah-jim-s-body-shop","lat":44.0493133,"lng":-73.4659241,"state":"NY","city":"Town of Moriah","address":"","zip":"","phone":"","email":"","website":"","hours":"","brand":"","services":["body_work"],"shopType":"body_shop"},{"id":"shop-ny-town-of-moriah-sleeper-s","name":"Sleeper's","slug":"ny-town-of-moriah-sleeper-s","lat":44.0610564,"lng":-73.5090594,"state":"NY","city":"Town of Moriah","address":"","zip":"","phone":"","email":"","website":"","hours":"","brand":"","services":["general_repair"],"shopType":"general_repair"},{"id":"shop-ny-town-of-moriah-leroy-s","name":"Leroy's","slug":"ny-town-of-moriah-leroy-s","lat":44.0472081,"lng":-73.4747003,"state":"NY","city":"Town of Moriah","address":"","zip":"","phone":"","email":"","website":"","hours":"","brand":"","services":["general_repair"],"shopType":"general_repair"},{"id":"shop-ny-city-of-plattsburgh-yipes-stripes","name":"Yipes Stripes","slug":"ny-city-of-plattsburgh-yipes-stripes","lat":44.6811406,"lng":-73.4519444,"state":"NY","city":"City of Plattsburgh","address":"","zip":"","phone":"","email":"","website":"","hours":"","brand":"","services":["general_repair"],"shopType":"general_repair"},{"id":"shop-ny-city-of-plattsburgh-windshield-world","name":"Windshield World","slug":"ny-city-of-plattsburgh-windshield-world","lat":44.6977569,"lng":-73.4796892,"state":"NY","city":"City of Plattsburgh","address":"","zip":"","phone":"","email":"","website":"","hours":"","brand":"","services":["general_repair"],"shopType":"general_repair"},{"id":"shop-ny-city-of-plattsburgh-bailey-ford-of-plattsburgh-parts","name":"Bailey Ford of Plattsburgh Parts","slug":"ny-city-of-plattsburgh-bailey-ford-of-plattsburgh-parts","lat":44.6976921,"lng":-73.479201,"state":"NY","city":"City of Plattsburgh","address":"","zip":"","phone":"","email":"","website":"","hours":"","brand":"Ford","services":["general_repair"],"shopType":"general_repair"},{"id":"shop-ny-town-of-moriah-h-b-repair","name":"H & B Repair","slug":"ny-town-of-moriah-h-b-repair","lat":44.1070285,"lng":-73.5175762,"state":"NY","city":"Town of Moriah","address":"","zip":"","phone":"","email":"","website":"","hours":"","brand":"","services":["general_repair"],"shopType":"general_repair"},{"id":"shop-ny-unknown-tri-star-service-centre","name":"Tri-Star Service Centre","slug":"ny-unknown-tri-star-service-centre","lat":43.7322699,"lng":-79.2888182,"state":"NY","city":"","address":"","zip":"","phone":"+1-416-751-2892","email":"","website":"","hours":"","brand":"","services":["general_repair"],"shopType":"general_repair"},{"id":"shop-ny-oakville-carstar-collision-and-glass-service","name":"Carstar Collision and Glass Service","slug":"ny-oakville-carstar-collision-and-glass-service","lat":43.4950387,"lng":-79.6444283,"state":"NY","city":"Oakville","address":"916 Winston Churchill Boulevard","zip":"","phone":"","email":"","website":"","hours":"","brand":"Carstar","services":["body_work","body_repair"],"shopType":"body_shop"},{"id":"shop-ny-toronto-algrave-auto-clinic","name":"Algrave Auto Clinic","slug":"ny-toronto-algrave-auto-clinic","lat":43.6652748,"lng":-79.4810279,"state":"NY","city":"Toronto","address":"3327 Dundas Street West","zip":"","phone":"","email":"","website":"","hours":"","brand":"","services":["general_repair"],"shopType":"general_repair"},{"id":"shop-ny-city-of-saratoga-springs-h-v-collision-center","name":"H&V Collision Center","slug":"ny-city-of-saratoga-springs-h-v-collision-center","lat":43.0372922,"lng":-73.8250927,"state":"NY","city":"City of Saratoga Springs","address":"2202 New York 50","zip":"12866","phone":"","email":"","website":"handvcollision.com","hours":"","brand":"","services":["body_work"],"shopType":"body_shop"},{"id":"shop-ny-unknown-mechaniq","name":"MechaniQ","slug":"ny-unknown-mechaniq","lat":43.5247319,"lng":-79.6831647,"state":"NY","city":"","address":"","zip":"","phone":"","email":"","website":"","hours":"Mo-Fr 08:00-17:00","brand":"","services":["general_repair"],"shopType":"general_repair"},{"id":"shop-ny-unknown-mister-transmission-2","name":"Mister Transmission","slug":"ny-unknown-mister-transmission-2","lat":43.8881528,"lng":-78.9450855,"state":"NY","city":"","address":"","zip":"","phone":"","email":"","website":"","hours":"","brand":"Mister Transmission","services":["transmission"],"shopType":"transmission_shop"},{"id":"shop-ny-unknown-bowtie-automotive","name":"Bowtie Automotive","slug":"ny-unknown-bowtie-automotive","lat":43.4105604,"lng":-79.732599,"state":"NY","city":"","address":"","zip":"","phone":"","email":"","website":"","hours":"","brand":"","services":["general_repair"],"shopType":"general_repair"},{"id":"shop-ny-unknown-gene-conway-autobody","name":"Gene Conway Autobody","slug":"ny-unknown-gene-conway-autobody","lat":44.1088912,"lng":-79.278795,"state":"NY","city":"","address":"","zip":"","phone":"+1-905-473-3206","email":"","website":"","hours":"","brand":"","services":["body_work"],"shopType":"body_shop"},{"id":"shop-ny-unknown-mr-lube-8","name":"Mr. Lube","slug":"ny-unknown-mr-lube-8","lat":43.9546607,"lng":-79.2754581,"state":"NY","city":"","address":"","zip":"","phone":"","email":"","website":"","hours":"","brand":"Mr. Lube","services":["oil_change"],"shopType":"quick_lube"},{"id":"shop-ny-unknown-midas-6","name":"Midas","slug":"ny-unknown-midas-6","lat":43.8617795,"lng":-79.30563,"state":"NY","city":"","address":"","zip":"","phone":"","email":"","website":"https://www.midas.com/","hours":"","brand":"Midas","services":["general_repair"],"shopType":"general_repair"},{"id":"shop-ny-unknown-main-street-auto-service","name":"Main Street Auto Service","slug":"ny-unknown-main-street-auto-service","lat":43.9744837,"lng":-79.2315646,"state":"NY","city":"","address":"","zip":"","phone":"","email":"","website":"","hours":"","brand":"","services":["general_repair"],"shopType":"general_repair"},{"id":"shop-ny-endicott-auto-smart-llc","name":"Auto Smart, LLC","slug":"ny-endicott-auto-smart-llc","lat":42.0694341,"lng":-76.1225306,"state":"NY","city":"Endicott","address":"8767 State Route 17C","zip":"13760","phone":"","email":"","website":"","hours":"Mo-Fr 09:00-18:00; Sa-Su \"on appointment\"","brand":"","services":["used_car_sales"],"shopType":"general_repair"},{"id":"shop-ny-queensbury-midas","name":"Midas","slug":"ny-queensbury-midas","lat":43.3323564,"lng":-73.6433125,"state":"NY","city":"Queensbury","address":"333 Quaker Road","zip":"12804","phone":"","email":"","website":"https://www.midas.com/albany-ny/store.aspx?shopnum=6842&dmanum=20001","hours":"","brand":"Midas","services":["general_repair"],"shopType":"general_repair"},{"id":"shop-ny-town-of-east-fishkill-clove-branch-muffler-brake","name":"Clove Branch Muffler & Brake","slug":"ny-town-of-east-fishkill-clove-branch-muffler-brake","lat":41.5961941,"lng":-73.7941348,"state":"NY","city":"Town of East Fishkill","address":"","zip":"","phone":"","email":"","website":"","hours":"","brand":"","services":["exhaust","brakes"],"shopType":"general_repair"},{"id":"shop-ny-gormley-unique-auto-service","name":"Unique Auto Service","slug":"ny-gormley-unique-auto-service","lat":44.0048943,"lng":-79.3932901,"state":"NY","city":"Gormley","address":"14806 Woodbine Avenue","zip":"L0H 1G0","phone":"","email":"","website":"","hours":"","brand":"","services":["general_repair"],"shopType":"general_repair"},{"id":"shop-ny-unknown-mr-lube-9","name":"Mr. Lube","slug":"ny-unknown-mr-lube-9","lat":44.067185,"lng":-79.4863005,"state":"NY","city":"","address":"","zip":"","phone":"","email":"","website":"","hours":"","brand":"Mr. Lube","services":["oil_change"],"shopType":"quick_lube"},{"id":"shop-ny-unknown-minute-muffler","name":"Minute Muffler","slug":"ny-unknown-minute-muffler","lat":43.7504738,"lng":-79.5514325,"state":"NY","city":"","address":"","zip":"","phone":"","email":"","website":"","hours":"","brand":"","services":["exhaust"],"shopType":"general_repair"},{"id":"shop-ny-ithaca-trombley-tire-auto-service","name":"Trombley Tire & Auto Service","slug":"ny-ithaca-trombley-tire-auto-service","lat":42.4394667,"lng":-76.5127799,"state":"NY","city":"Ithaca","address":"917 West State Street","zip":"14850","phone":"+1-607-273-2236","email":"","website":"https://www.trombleytireandauto.com/locations/mode/d/locationid/4.aspx","hours":"Mo-Fr 07:30-17:30; Sa 07:30-13:00","brand":"","services":["tires"],"shopType":"tire_shop"},{"id":"shop-ny-town-of-moriah-mike-s-auto-detailing","name":"Mike's Auto Detailing","slug":"ny-town-of-moriah-mike-s-auto-detailing","lat":44.0351049,"lng":-73.4621167,"state":"NY","city":"Town of Moriah","address":"","zip":"","phone":"","email":"","website":"","hours":"","brand":"","services":["general_repair"],"shopType":"general_repair"},{"id":"shop-ny-unknown-b-c-service-centre","name":"B&C Service Centre","slug":"ny-unknown-b-c-service-centre","lat":44.0578149,"lng":-79.4787651,"state":"NY","city":"","address":"","zip":"","phone":"","email":"","website":"","hours":"","brand":"","services":["general_repair"],"shopType":"general_repair"},{"id":"shop-ny-unknown-tom-s-modern-alignment","name":"Tom's Modern Alignment","slug":"ny-unknown-tom-s-modern-alignment","lat":44.0579461,"lng":-79.4788035,"state":"NY","city":"","address":"","zip":"","phone":"","email":"","website":"","hours":"","brand":"","services":["alignment"],"shopType":"general_repair"},{"id":"shop-ny-oshawa-apex-auto-centre","name":"Apex Auto Centre","slug":"ny-oshawa-apex-auto-centre","lat":43.8995538,"lng":-78.8570426,"state":"NY","city":"Oshawa","address":"190 King Street East","zip":"","phone":"+1-905-436-3000","email":"","website":"","hours":"Mo-Fr 08:00-18:00; Sa 08:00-14:00; Su closed","brand":"","services":["general_repair"],"shopType":"general_repair"},{"id":"shop-ny-unknown-fisher-auto-parts","name":"Fisher Auto Parts","slug":"ny-unknown-fisher-auto-parts","lat":44.247638,"lng":-76.486857,"state":"NY","city":"","address":"","zip":"","phone":"","email":"","website":"","hours":"","brand":"","services":["general_repair"],"shopType":"general_repair"},{"id":"shop-ny-unknown-king-street-auto-centre","name":"King Street Auto Centre","slug":"ny-unknown-king-street-auto-centre","lat":44.2188108,"lng":-76.5696155,"state":"NY","city":"","address":"","zip":"","phone":"","email":"","website":"","hours":"","brand":"","services":["general_repair"],"shopType":"general_repair"},{"id":"shop-ny-unknown-nicholls-exhaust","name":"Nicholls Exhaust","slug":"ny-unknown-nicholls-exhaust","lat":43.9663391,"lng":-78.7360263,"state":"NY","city":"","address":"","zip":"","phone":"","email":"","website":"","hours":"","brand":"","services":["exhaust"],"shopType":"general_repair"},{"id":"shop-ny-unknown-jrod-automotive","name":"Jrod Automotive","slug":"ny-unknown-jrod-automotive","lat":43.8559038,"lng":-78.8730968,"state":"NY","city":"","address":"","zip":"","phone":"","email":"","website":"","hours":"","brand":"","services":["general_repair"],"shopType":"general_repair"},