[{"id":"shop-oh-west-jefferson-ramey-s-tire-auto-service","name":"Ramey's Tire & Auto Service","slug":"oh-west-jefferson-ramey-s-tire-auto-service","lat":39.9456738,"lng":-83.2663821,"state":"OH","city":"West Jefferson","address":"96 East Town Street","zip":"43162","phone":"+1-614-879-5962","email":"","website":"","hours":"","brand":"","services":["tires"],"shopType":"tire_shop"},{"id":"shop-oh-loveland-honest-1-auto-care","name":"Honest-1 Auto Care","slug":"oh-loveland-honest-1-auto-care","lat":39.2538446,"lng":-84.2966844,"state":"OH","city":"Loveland","address":"10659 Loveland Madeira Road","zip":"45140","phone":"","email":"","website":"https://www.honest1loveland.com/","hours":"Mo-Fr 07:00-18:00","brand":"","services":["general_repair"],"shopType":"general_repair"},{"id":"shop-oh-centerville-centerville-service-center","name":"Centerville Service Center","slug":"oh-centerville-centerville-service-center","lat":39.6321885,"lng":-84.1583905,"state":"OH","city":"Centerville","address":"140 Far Hills Avenue","zip":"45459","phone":"","email":"","website":"","hours":"","brand":"","services":["general_repair"],"shopType":"general_repair"},{"id":"shop-oh-unknown-stienke-s-marathon","name":"Stienke's Marathon","slug":"oh-unknown-stienke-s-marathon","lat":40.4676145,"lng":-84.1819265,"state":"OH","city":"","address":"","zip":"","phone":"","email":"","website":"","hours":"","brand":"","services":["general_repair"],"shopType":"general_repair"},{"id":"shop-oh-unknown-maverick-motors","name":"Maverick Motors","slug":"oh-unknown-maverick-motors","lat":39.9564443,"lng":-82.6955701,"state":"OH","city":"","address":"11091 National Road","zip":"43062","phone":"","email":"","website":"https://www.maverickmotorsauto.com/","hours":"","brand":"","services":["general_repair"],"shopType":"general_repair"},{"id":"shop-oh-ashvile-shope-s-tire-svc","name":"Shope's Tire Svc","slug":"oh-ashvile-shope-s-tire-svc","lat":39.7143901,"lng":-82.9612004,"state":"OH","city":"Ashvile","address":"280 West Main Street","zip":"43103","phone":"+1-740-983-8009","email":"","website":"","hours":"","brand":"","services":["tires"],"shopType":"tire_shop"},{"id":"shop-oh-unknown-central-tire","name":"Central Tire","slug":"oh-unknown-central-tire","lat":39.9632688,"lng":-83.0391233,"state":"OH","city":"","address":"","zip":"","phone":"","email":"","website":"","hours":"","brand":"","services":["tires"],"shopType":"tire_shop"},{"id":"shop-oh-blacklick-tuffy","name":"Tuffy","slug":"oh-blacklick-tuffy","lat":39.9866272,"lng":-82.7917391,"state":"OH","city":"Blacklick","address":"65 North Waggoner Road","zip":"43004","phone":"","email":"","website":"","hours":"Mo-Fr 07:30-18:00; Sa 08:00-16:00; Su off","brand":"Tuffy","services":["general_repair"],"shopType":"general_repair"},{"id":"shop-oh-reynoldsburg-central-garage","name":"Central Garage","slug":"oh-reynoldsburg-central-garage","lat":39.9571083,"lng":-82.7305222,"state":"OH","city":"Reynoldsburg","address":"13000 National Road Southwest","zip":"43068","phone":"+1-740-964-0031","email":"","website":"","hours":"Mo-Fr 08:00-17:00; Sa,Su closed","brand":"","services":["general_repair"],"shopType":"general_repair"},{"id":"shop-oh-eaton-josh-s-garage","name":"Josh's Garage","slug":"oh-eaton-josh-s-garage","lat":39.7436987,"lng":-84.6329278,"state":"OH","city":"Eaton","address":"301 East Main Street","zip":"45320","phone":"+19373361278","email":"","website":"","hours":"","brand":"","services":["general_repair"],"shopType":"general_repair"},{"id":"shop-oh-columbus-tong-da-auto-body","name":"Tong Da Auto Body","slug":"oh-columbus-tong-da-auto-body","lat":40.0479809,"lng":-82.9995123,"state":"OH","city":"Columbus","address":"4100 Indianola Avenue","zip":"43214","phone":"+1-614-297-7997","email":"","website":"","hours":"","brand":"","services":["body_work"],"shopType":"body_shop"},{"id":"shop-oh-unknown-goodyear-tire-service","name":"Goodyear Tire & Service","slug":"oh-unknown-goodyear-tire-service","lat":40.0640974,"lng":-83.0198468,"state":"OH","city":"","address":"","zip":"","phone":"","email":"","website":"","hours":"","brand":"Goodyear","services":["tires"],"shopType":"tire_shop"},{"id":"shop-oh-columbus-luke-s-automotive","name":"Luke's Automotive","slug":"oh-columbus-luke-s-automotive","lat":40.0753434,"lng":-82.9986324,"state":"OH","city":"Columbus","address":"5410 Byers Circle East","zip":"43229","phone":"","email":"","website":"","hours":"","brand":"","services":["general_repair"],"shopType":"general_repair"},{"id":"shop-oh-galloway-rollz-auto-service","name":"Rollz Auto Service","slug":"oh-galloway-rollz-auto-service","lat":39.9500628,"lng":-83.1731126,"state":"OH","city":"Galloway","address":"6467 West Broad Street","zip":"43119","phone":"+1-614-870-7900","email":"","website":"","hours":"Mo-Fr 09:00-17:00","brand":"","services":["general_repair"],"shopType":"general_repair"},{"id":"shop-oh-unknown-auto-salon-of-montgomery","name":"Auto Salon of Montgomery","slug":"oh-unknown-auto-salon-of-montgomery","lat":39.2249991,"lng":-84.3560266,"state":"OH","city":"","address":"","zip":"","phone":"","email":"","website":"http://autosaloncin.blogspot.com/","hours":"","brand":"","services":["general_repair"],"shopType":"general_repair"},{"id":"shop-oh-richmond-demartin-s-auto-body","name":"DeMartin's Auto Body","slug":"oh-richmond-demartin-s-auto-body","lat":40.4572762,"lng":-80.8000467,"state":"OH","city":"Richmond","address":"1493 Township Road 219","zip":"43944","phone":"+1-740-765-5215","email":"","website":"http://demartinsautobody.com","hours":"","brand":"","services":["body_work"],"shopType":"body_shop"},{"id":"shop-oh-cincinnati-esterkamp-automotive-alignment","name":"Esterkamp Automotive & Alignment","slug":"oh-cincinnati-esterkamp-automotive-alignment","lat":39.1263953,"lng":-84.6163191,"state":"OH","city":"Cincinnati","address":"5350 Sidney Road","zip":"45238","phone":"+1-513-451-6300","email":"","website":"http://www.esterkampauto.com","hours":"","brand":"","services":["alignment"],"shopType":"general_repair"},{"id":"shop-oh-wintersville-1-snyder","name":"#1 Snyder","slug":"oh-wintersville-1-snyder","lat":40.3760572,"lng":-80.7129018,"state":"OH","city":"Wintersville","address":"401 Cadiz Road","zip":"43953","phone":"","email":"","website":"","hours":"","brand":"","services":["tires"],"shopType":"general_repair"},{"id":"shop-oh-unknown-tire-discounters","name":"Tire Discounters","slug":"oh-unknown-tire-discounters","lat":40.1410908,"lng":-83.0928466,"state":"OH","city":"","address":"","zip":"","phone":"","email":"","website":"","hours":"","brand":"Tire Discounters","services":["tires"],"shopType":"tire_shop"},{"id":"shop-oh-steubenville-monroe-muffler-brake","name":"Monroe Muffler & Brake","slug":"oh-steubenville-monroe-muffler-brake","lat":40.3734859,"lng":-80.679426,"state":"OH","city":"Steubenville","address":"4321 Sunset Boulevard","zip":"43952","phone":"","email":"","website":"","hours":"","brand":"Monro","services":["exhaust","brakes"],"shopType":"general_repair"},{"id":"shop-oh-unknown-bob-sumerel","name":"Bob Sumerel","slug":"oh-unknown-bob-sumerel","lat":39.2510281,"lng":-84.5998295,"state":"OH","city":"","address":"","zip":"","phone":"","email":"","website":"","hours":"","brand":"","services":["general_repair"],"shopType":"general_repair"},{"id":"shop-oh-cincinnati-john-hall-body-shop-inc","name":"John Hall Body Shop Inc.","slug":"oh-cincinnati-john-hall-body-shop-inc","lat":39.1588356,"lng":-84.5412443,"state":"OH","city":"Cincinnati","address":"1632 Hoffner Street","zip":"45223","phone":"","email":"","website":"","hours":"08:00-17:00","brand":"","services":["body_work"],"shopType":"body_shop"},{"id":"shop-oh-delaware-walmart-tire-lube","name":"Walmart Tire & Lube","slug":"oh-delaware-walmart-tire-lube","lat":40.2664459,"lng":-83.0738044,"state":"OH","city":"Delaware","address":"1760 Columbus Pike","zip":"43015","phone":"+1-740-369-0225","email":"","website":"https://www.walmart.com/store/1990/delaware-oh/whats-new","hours":"","brand":"","services":["tires","oil_change"],"shopType":"quick_lube"},{"id":"shop-oh-marysville-walmart-tire-lube","name":"Walmart Tire & Lube","slug":"oh-marysville-walmart-tire-lube","lat":40.2308463,"lng":-83.3466296,"state":"OH","city":"Marysville","address":"555 Colemans Crossing Boulevard","zip":"43040","phone":"+1-937-642-3702","email":"","website":"https://www.walmart.com/store/1595/marysville-oh/whats-new","hours":"","brand":"","services":["tires","oil_change"],"shopType":"quick_lube"},{"id":"shop-oh-dublin-walmart-tire-lube","name":"Walmart Tire & Lube","slug":"oh-dublin-walmart-tire-lube","lat":40.0747732,"lng":-83.1377533,"state":"OH","city":"Dublin","address":"5900 Britton Parkway","zip":"43016","phone":"+1-614-717-9644","email":"","website":"https://www.walmart.com/store/2471/dublin-oh/whats-new","hours":"","brand":"","services":["tires","oil_change"],"shopType":"quick_lube"},{"id":"shop-oh-columbus-walmart-tire-lube","name":"Walmart Tire & Lube","slug":"oh-columbus-walmart-tire-lube","lat":40.060766,"lng":-82.9140061,"state":"OH","city":"Columbus","address":"3900 Morse Road","zip":"43219","phone":"+1-614-476-2284","email":"","website":"https://www.walmart.com/store/2098-columbus-oh","hours":"24/7","brand":"","services":["tires","oil_change"],"shopType":"quick_lube"},{"id":"shop-oh-bellefontaine-walmart-tire-lube","name":"Walmart Tire & Lube","slug":"oh-bellefontaine-walmart-tire-lube","lat":40.3277538,"lng":-83.7568774,"state":"OH","city":"Bellefontaine","address":"2281 United States Highway 68","zip":"43311","phone":"+1-937-592-3065","email":"","website":"https://www.walmart.com/store/1264/bellefontaine-oh/whats-new","hours":"","brand":"","services":["tires","oil_change"],"shopType":"quick_lube"},{"id":"shop-oh-unknown-waldo-tire","name":"Waldo Tire","slug":"oh-unknown-waldo-tire","lat":40.4592152,"lng":-83.0774727,"state":"OH","city":"","address":"","zip":"","phone":"","email":"","website":"","hours":"","brand":"","services":["tires"],"shopType":"tire_shop"},{"id":"shop-oh-beavercreek-alpha-performance","name":"Alpha Performance","slug":"oh-beavercreek-alpha-performance","lat":39.7129283,"lng":-84.0209769,"state":"OH","city":"Beavercreek","address":"2275 Whitey Marshall Drive","zip":"45434","phone":"","email":"","website":"","hours":"Mo-Fr 09:00-17:00","brand":"","services":["car_repair","brakes","oil_change"],"shopType":"general_repair"},{"id":"shop-oh-columbus-cleveland-ave-auto-works","name":"Cleveland Ave Auto Works","slug":"oh-columbus-cleveland-ave-auto-works","lat":40.0487351,"lng":-82.9549554,"state":"OH","city":"Columbus","address":"3919 Cleveland Avenue","zip":"43224","phone":"","email":"","website":"","hours":"","brand":"","services":["general_repair"],"shopType":"general_repair"},{"id":"shop-oh-unknown-beechwold-automotive","name":"Beechwold Automotive","slug":"oh-unknown-beechwold-automotive","lat":40.0379651,"lng":-82.9985654,"state":"OH","city":"","address":"","zip":"","phone":"","email":"","website":"","hours":"","brand":"","services":["general_repair"],"shopType":"general_repair"},{"id":"shop-oh-troy-bushong-auto-service","name":"Bushong Auto Service","slug":"oh-troy-bushong-auto-service","lat":40.0358193,"lng":-84.1978856,"state":"OH","city":"Troy","address":"100 E Race St","zip":"45373","phone":"+1 937-339-2110","email":"","website":"https://www.bushongautooh.com/","hours":"","brand":"","services":["general_repair"],"shopType":"general_repair"},{"id":"shop-oh-columbus-j-e-electronics","name":"J&E Electronics","slug":"oh-columbus-j-e-electronics","lat":39.9560941,"lng":-82.8847968,"state":"OH","city":"Columbus","address":"4252 East Main Street","zip":"43213","phone":"+1-614-237-3215","email":"","website":"https://www.jandeelectronics.net/","hours":"Mo-Fr 10:00-18:00; Sa 10:00-17:00","brand":"","services":["general_repair"],"shopType":"general_repair"},{"id":"shop-oh-springfield-hooten-automotive","name":"Hooten Automotive","slug":"oh-springfield-hooten-automotive","lat":39.9343157,"lng":-83.7745521,"state":"OH","city":"Springfield","address":"2229 Larch Street","zip":"45503","phone":"+1-937-325-1116","email":"","website":"http://hootenauto.com","hours":"Mo-Fr 08:00-17:00; Sa 08:00-12:00","brand":"","services":["general_repair"],"shopType":"general_repair"},{"id":"shop-oh-cincinnati-bear-car-care","name":"Bear Car Care","slug":"oh-cincinnati-bear-car-care","lat":39.1970563,"lng":-84.599702,"state":"OH","city":"Cincinnati","address":"5700 Cheviot Road","zip":"45247","phone":"+1-513-922-6594","email":"","website":"https://www.bearcarcare.com","hours":"Mo-Fr 07:30-17:00","brand":"","services":["general_repair"],"shopType":"general_repair"},{"id":"shop-oh-unknown-u-n-auto-tech-inc","name":"U N Auto Tech Inc","slug":"oh-unknown-u-n-auto-tech-inc","lat":40.0750163,"lng":-82.9985858,"state":"OH","city":"","address":"5400 Byers Circle East","zip":"","phone":"","email":"","website":"","hours":"","brand":"","services":["general_repair"],"shopType":"general_repair"},{"id":"shop-oh-forest-park-meineke","name":"Meineke","slug":"oh-forest-park-meineke","lat":39.2819999,"lng":-84.4950918,"state":"OH","city":"Forest Park","address":"606 Northland Boulevard","zip":"45240","phone":"+1 513-401-7592","email":"","website":"https://www.meineke.com/locations/oh/forest-park-791/","hours":"","brand":"Meineke","services":["exhaust"],"shopType":"general_repair"},{"id":"shop-oh-unknown-gerber-collision-glass","name":"Gerber Collision & Glass","slug":"oh-unknown-gerber-collision-glass","lat":39.9721944,"lng":-83.0425646,"state":"OH","city":"","address":"1046 Dublin Road","zip":"43215","phone":"","email":"","website":"","hours":"","brand":"Gerber Collision & Glass","services":["glass","body_work","body_repair"],"shopType":"body_shop"},{"id":"shop-oh-unknown-j-s-auto-repair","name":"J’s Auto Repair","slug":"oh-unknown-j-s-auto-repair","lat":39.3092929,"lng":-84.3835319,"state":"OH","city":"","address":"","zip":"","phone":"+1-513-445-8698","email":"","website":"","hours":"","brand":"","services":["general_repair"],"shopType":"general_repair"},{"id":"shop-oh-unknown-aura-auto-body-glass","name":"Aura Auto Body & Glass","slug":"oh-unknown-aura-auto-body-glass","lat":39.3321206,"lng":-84.3508736,"state":"OH","city":"","address":"","zip":"","phone":"","email":"","website":"","hours":"","brand":"","services":["glass","body_work","body_repair"],"shopType":"general_repair"},{"id":"shop-oh-unknown-grismer-tire-and-auto-service-center","name":"Grismer Tire and Auto Service Center","slug":"oh-unknown-grismer-tire-and-auto-service-center","lat":39.6738499,"lng":-84.245718,"state":"OH","city":"","address":"470 E Dixie Drive","zip":"","phone":"+1-937-847-0900","email":"","website":"https://www.grismertire.com/","hours":"Mo-Sa 07:30-18:00; PH closed","brand":"","services":["tires"],"shopType":"tire_shop"},{"id":"shop-oh-columbus-jim-s-automotive-electric-service-co","name":"Jim's Automotive Electric Service Co","slug":"oh-columbus-jim-s-automotive-electric-service-co","lat":39.9839995,"lng":-82.9801922,"state":"OH","city":"Columbus","address":"931 Saint Clair Avenue","zip":"43201","phone":"+1-614-291-5153","email":"","website":"https://www.jaeservice.com/","hours":"","brand":"","services":["electrical"],"shopType":"general_repair"},{"id":"shop-oh-unknown-midas","name":"Midas","slug":"oh-unknown-midas","lat":39.7016817,"lng":-84.1213351,"state":"OH","city":"","address":"2316 East Dorothy Lane","zip":"","phone":"","email":"","website":"","hours":"Mo-Sa 07:30-18:00","brand":"Midas","services":["general_repair"],"shopType":"general_repair"},{"id":"shop-oh-unknown-jamie-s-tire-and-service","name":"Jamie's Tire and Service","slug":"oh-unknown-jamie-s-tire-and-service","lat":39.7575126,"lng":-84.0766378,"state":"OH","city":"","address":"Grange Hall Road","zip":"","phone":"+1-937-878-3612","email":"","website":"","hours":"Mo-Fr 07:00-17:30; Sa 08:00-15:00","brand":"","services":["tires"],"shopType":"tire_shop"},{"id":"shop-oh-unknown-tire-discounters-2","name":"Tire Discounters","slug":"oh-unknown-tire-discounters-2","lat":39.5235956,"lng":-83.4593452,"state":"OH","city":"","address":"","zip":"","phone":"","email":"","website":"","hours":"","brand":"Tire Discounters","services":["tires"],"shopType":"tire_shop"},{"id":"shop-oh-unknown-valvoline","name":"Valvoline","slug":"oh-unknown-valvoline","lat":40.1110198,"lng":-83.1876388,"state":"OH","city":"","address":"","zip":"","phone":"","email":"","website":"https://store.vioc.com/oh/plaincity/oil-change-060086.html","hours":"","brand":"Valvoline","services":["oil_change"],"shopType":"quick_lube"},{"id":"shop-oh-unknown-aaa-tire-auto-service","name":"AAA Tire & Auto Service","slug":"oh-unknown-aaa-tire-auto-service","lat":39.7569591,"lng":-84.0766679,"state":"OH","city":"","address":"3870 Kemp Road","zip":"","phone":"","email":"","website":"","hours":"","brand":"","services":["tires"],"shopType":"tire_shop"},{"id":"shop-oh-unknown-grismer-tire-auto-service","name":"Grismer Tire & Auto Service","slug":"oh-unknown-grismer-tire-auto-service","lat":39.7246422,"lng":-84.0592519,"state":"OH","city":"","address":"","zip":"","phone":"","email":"","website":"","hours":"","brand":"","services":["tires"],"shopType":"tire_shop"},{"id":"shop-oh-unknown-bill-martin-auto-center","name":"Bill Martin Auto Center","slug":"oh-unknown-bill-martin-auto-center","lat":39.2914272,"lng":-83.9870376,"state":"OH","city":"","address":"","zip":"","phone":"+1-937-783-2441","email":"","website":"","hours":"","brand":"","services":["general_repair"],"shopType":"general_repair"},{"id":"shop-oh-unknown-dowap-rod-custom","name":"DoWap Rod & Custom","slug":"oh-unknown-dowap-rod-custom","lat":39.2977449,"lng":-83.9925449,"state":"OH","city":"","address":"","zip":"","phone":"+1-937-783-4563","email":"","website":"","hours":"","brand":"","services":["general_repair"],"shopType":"general_repair"},{"id":"shop-oh-unknown-aaa-tire-auto-service-2","name":"AAA Tire & Auto Service","slug":"oh-unknown-aaa-tire-auto-service-2","lat":39.7598311,"lng":-84.1876938,"state":"OH","city":"","address":"","zip":"","phone":"+19372282144","email":"","website":"http://www.AAA.com","hours":"Mo-Fr 07:30-18:00; Sa 08:00-13:00; PH closed","brand":"","services":["tires"],"shopType":"tire_shop"},{"id":"shop-oh-unknown-webb-s-automotive","name":"Webb's Automotive","slug":"oh-unknown-webb-s-automotive","lat":40.3069931,"lng":-82.6932206,"state":"OH","city":"","address":"","zip":"","phone":"","email":"","website":"","hours":"","brand":"","services":["general_repair"],"shopType":"general_repair"},{"id":"shop-oh-unknown-ziebart","name":"Ziebart","slug":"oh-unknown-ziebart","lat":39.8022727,"lng":-84.0346063,"state":"OH","city":"","address":"","zip":"","phone":"+19378789135","email":"","website":"http://www.ziebart.com","hours":"Mo-Fr 08:00-17:30; Sa 09:00-15:00; PH closed","brand":"","services":["general_repair"],"shopType":"general_repair"},{"id":"shop-oh-unknown-colerain-collision","name":"Colerain Collision","slug":"oh-unknown-colerain-collision","lat":39.2199094,"lng":-84.5885334,"state":"OH","city":"","address":"","zip":"","phone":"","email":"","website":"","hours":"","brand":"","services":["body_work"],"shopType":"body_shop"},{"id":"shop-oh-unknown-firestone","name":"Firestone","slug":"oh-unknown-firestone","lat":39.6445767,"lng":-84.1512571,"state":"OH","city":"","address":"","zip":"","phone":"","email":"","website":"","hours":"","brand":"Firestone","services":["general_repair"],"shopType":"general_repair"},{"id":"shop-oh-unknown-national-tire-and-battery","name":"National Tire and Battery","slug":"oh-unknown-national-tire-and-battery","lat":39.6383983,"lng":-84.1094312,"state":"OH","city":"","address":"","zip":"","phone":"","email":"","website":"https://www.ntb.com/store/oh/bellbrook/4460-state-route-725-45305/4331","hours":"","brand":"National Tire and Battery","services":["tires"],"shopType":"tire_shop"},{"id":"shop-oh-unknown-boyd-s-tire-service","name":"Boyd's Tire & Service","slug":"oh-unknown-boyd-s-tire-service","lat":40.0329222,"lng":-83.1389811,"state":"OH","city":"","address":"","zip":"","phone":"","email":"","website":"","hours":"","brand":"","services":["tires"],"shopType":"tire_shop"},{"id":"shop-oh-unknown-tuffy","name":"Tuffy","slug":"oh-unknown-tuffy","lat":39.9535532,"lng":-83.1132651,"state":"OH","city":"","address":"","zip":"","phone":"","email":"","website":"","hours":"","brand":"Tuffy","services":["general_repair"],"shopType":"general_repair"},{"id":"shop-oh-unknown-valvoline-2","name":"Valvoline","slug":"oh-unknown-valvoline-2","lat":40.0724996,"lng":-82.8631862,"state":"OH","city":"","address":"","zip":"","phone":"","email":"","website":"https://store.vioc.com/oh/columbus/oil-change-060094.html","hours":"","brand":"Valvoline","services":["oil_change"],"shopType":"quick_lube"},{"id":"shop-oh-unknown-buckeye-complete-auto","name":"Buckeye Complete Auto","slug":"oh-unknown-buckeye-complete-auto","lat":40.0423036,"lng":-82.9776795,"state":"OH","city":"","address":"3701 Karl Road","zip":"43224","phone":"+1-614-262-0721","email":"shop@Buckeyecompleteauto.com","website":"https://buckeyecompleteauto.com/","hours":"Mo-Fr 07:00-18:00","brand":"","services":["general_repair"],"shopType":"general_repair"},{"id":"shop-oh-columbus-big-boys-auto-repair","name":"Big Boys Auto Repair","slug":"oh-columbus-big-boys-auto-repair","lat":40.0321816,"lng":-82.9883234,"state":"OH","city":"Columbus","address":"967 Oakland Park Avenue","zip":"43224","phone":"+1 614-447-8183","email":"","website":"","hours":"Mo-Fr 08:30-17:30; Sa 08:30-16:00; PH closed","brand":"","services":["general_repair"],"shopType":"general_repair"},{"id":"shop-oh-unknown-car-care-center","name":"Car Care Center","slug":"oh-unknown-car-care-center","lat":39.6891511,"lng":-84.1447666,"state":"OH","city":"","address":"","zip":"","phone":"","email":"","website":"","hours":"","brand":"","services":["general_repair"],"shopType":"general_repair"},{"id":"shop-oh-unknown-dealers-choice","name":"Dealers Choice","slug":"oh-unknown-dealers-choice","lat":39.6890391,"lng":-84.1431995,"state":"OH","city":"","address":"","zip":"","phone":"+1-937-293-5555","email":"","website":"https://dealerschoiceohio.com/","hours":"","brand":"","services":["general_repair"],"shopType":"dealership"},{"id":"shop-oh-unknown-beavercreek-service-center","name":"Beavercreek Service Center","slug":"oh-unknown-beavercreek-service-center","lat":39.7363802,"lng":-84.0777589,"state":"OH","city":"","address":"","zip":"","phone":"","email":"","website":"","hours":"","brand":"","services":["general_repair"],"shopType":"general_repair"},{"id":"shop-oh-unknown-murphy-s-auto-care","name":"Murphy's Auto Care","slug":"oh-unknown-murphy-s-auto-care","lat":39.7354586,"lng":-84.0765837,"state":"OH","city":"","address":"","zip":"","phone":"+1 937-426-2886","email":"","website":"","hours":"","brand":"","services":["general_repair"],"shopType":"general_repair"},{"id":"shop-oh-unknown-bob-s-auto-service","name":"Bob's Auto Service","slug":"oh-unknown-bob-s-auto-service","lat":39.7325861,"lng":-84.0640124,"state":"OH","city":"","address":"","zip":"","phone":"+1 937-427-0600","email":"","website":"","hours":"","brand":"","services":["general_repair"],"shopType":"general_repair"},{"id":"shop-oh-unknown-restoration-works","name":"Restoration Works","slug":"oh-unknown-restoration-works","lat":39.7327114,"lng":-84.064047,"state":"OH","city":"","address":"","zip":"","phone":"+1 937-256-5778","email":"","website":"","hours":"","brand":"","services":["general_repair"],"shopType":"general_repair"},{"id":"shop-oh-unknown-brownie-s-independent-transmission","name":"Brownie's Independent Transmission","slug":"oh-unknown-brownie-s-independent-transmission","lat":39.7324515,"lng":-84.0640279,"state":"OH","city":"","address":"","zip":"","phone":"+1 937-427-4000","email":"","website":"","hours":"","brand":"","services":["transmission"],"shopType":"transmission_shop"},{"id":"shop-oh-unknown-mr-tire","name":"Mr. Tire","slug":"oh-unknown-mr-tire","lat":39.9564327,"lng":-82.9216971,"state":"OH","city":"","address":"","zip":"","phone":"","email":"","website":"","hours":"","brand":"Mr. Tire","services":["tires"],"shopType":"tire_shop"},{"id":"shop-oh-unknown-howell-s-body-shop","name":"Howell's Body Shop","slug":"oh-unknown-howell-s-body-shop","lat":40.4371093,"lng":-84.1670197,"state":"OH","city":"","address":"","zip":"","phone":"","email":"","website":"","hours":"","brand":"","services":["body_work"],"shopType":"body_shop"},{"id":"shop-oh-unknown-roy-s-automotive","name":"Roy's Automotive","slug":"oh-unknown-roy-s-automotive","lat":39.7986853,"lng":-84.1302523,"state":"OH","city":"","address":"","zip":"","phone":"","email":"","website":"","hours":"","brand":"","services":["general_repair"],"shopType":"general_repair"},{"id":"shop-oh-columbus-tire-guys-and-service","name":"Tire Guys and Service","slug":"oh-columbus-tire-guys-and-service","lat":39.9315203,"lng":-83.0496445,"state":"OH","city":"Columbus","address":"1313 Harrisburg Pike","zip":"43223","phone":"+1 614 824 4749","email":"","website":"","hours":"Mo-Sa 09:00-18:00","brand":"","services":["engine_repair","body_repair","wheels","muffler","repairs","brakes","tyres","alignment","truck_repair","air_conditioning","body_work","tires","exhausts","car_repair","electrical","oil_change","diagnostics","batteries","inspection","exhaust","mechanics"],"shopType":"general_repair"},{"id":"shop-oh-unknown-m-h-service-center","name":"M & H Service Center","slug":"oh-unknown-m-h-service-center","lat":39.8009941,"lng":-84.3118397,"state":"OH","city":"","address":"","zip":"","phone":"","email":"","website":"","hours":"","brand":"","services":["general_repair"],"shopType":"general_repair"},{"id":"shop-oh-columbus-victorian-village-auto-service","name":"Victorian Village Auto Service","slug":"oh-columbus-victorian-village-auto-service","lat":39.9875545,"lng":-83.0058007,"state":"OH","city":"Columbus","address":"1233 North High Street","zip":"43201","phone":"","email":"","website":"","hours":"","brand":"","services":["general_repair"],"shopType":"general_repair"},{"id":"shop-oh-unknown-dave-s-auto-detailing","name":"Dave's Auto Detailing","slug":"oh-unknown-dave-s-auto-detailing","lat":40.0549462,"lng":-84.1251651,"state":"OH","city":"","address":"","zip":"","phone":"","email":"","website":"","hours":"","brand":"","services":["general_repair"],"shopType":"general_repair"},{"id":"shop-oh-unknown-valvoline-3","name":"Valvoline","slug":"oh-unknown-valvoline-3","lat":39.7290687,"lng":-84.0569654,"state":"OH","city":"","address":"","zip":"","phone":"","email":"","website":"https://store.vioc.com/oh/beavercreek/oil-change-040088.html","hours":"","brand":"Valvoline","services":["oil_change"],"shopType":"quick_lube"},{"id":"shop-oh-unknown-muffler-brothers","name":"Muffler Brothers","slug":"oh-unknown-muffler-brothers","lat":39.7290561,"lng":-84.058114,"state":"OH","city":"","address":"","zip":"","phone":"","email":"","website":"","hours":"","brand":"","services":["exhaust"],"shopType":"general_repair"},{"id":"shop-oh-unknown-tint-masters","name":"Tint Masters","slug":"oh-unknown-tint-masters","lat":39.7294228,"lng":-84.058183,"state":"OH","city":"","address":"","zip":"","phone":"","email":"","website":"","hours":"Mo-Fr 08:00-20:00; Sa 08:00-16:00; Su off","brand":"","services":["general_repair"],"shopType":"general_repair"},{"id":"shop-oh-marietta-autoplus-auto-parts-marietta-ignition-machine-shop","name":"AutoPlus Auto Parts - Marietta Ignition Machine Shop","slug":"oh-marietta-autoplus-auto-parts-marietta-ignition-machine-shop","lat":39.4158844,"lng":-81.4560776,"state":"OH","city":"Marietta","address":"","zip":"45750","phone":"","email":"","website":"","hours":"","brand":"","services":["general_repair"],"shopType":"general_repair"},{"id":"shop-oh-unknown-aaa-grandview","name":"AAA Grandview","slug":"oh-unknown-aaa-grandview","lat":39.9712562,"lng":-83.0453518,"state":"OH","city":"","address":"","zip":"","phone":"","email":"","website":"","hours":"","brand":"","services":["general_repair"],"shopType":"general_repair"},{"id":"shop-oh-unknown-valvoline-express-care","name":"Valvoline Express Care","slug":"oh-unknown-valvoline-express-care","lat":39.4495126,"lng":-83.8044922,"state":"OH","city":"","address":"","zip":"","phone":"","email":"","website":"https://locations.expresscare.com/oh/wilmington/0000420740/","hours":"","brand":"Valvoline","services":["oil_change"],"shopType":"quick_lube"},{"id":"shop-oh-unknown-valvoline-4","name":"Valvoline","slug":"oh-unknown-valvoline-4","lat":40.1488469,"lng":-82.9763822,"state":"OH","city":"","address":"","zip":"","phone":"","email":"","website":"https://store.vioc.com/oh/delaware/oil-change-060030.html","hours":"","brand":"Valvoline","services":["oil_change"],"shopType":"quick_lube"},{"id":"shop-oh-unknown-firestone-2","name":"Firestone","slug":"oh-unknown-firestone-2","lat":39.7685483,"lng":-84.120747,"state":"OH","city":"","address":"","zip":"","phone":"","email":"","website":"","hours":"","brand":"Firestone","services":["general_repair"],"shopType":"general_repair"},{"id":"shop-oh-marietta-mahone-tire-service","name":"Mahone Tire Service","slug":"oh-marietta-mahone-tire-service","lat":39.4115928,"lng":-81.453242,"state":"OH","city":"Marietta","address":"155 Front Street","zip":"45750","phone":"+1-740-373-7761","email":"","website":"https://www.mahonetire.com/","hours":"Mo-Fr 07:45-17:00","brand":"","services":["tires"],"shopType":"tire_shop"},{"id":"shop-oh-marietta-murray-s-glass-automotive-paint","name":"Murray's Glass & Automotive Paint","slug":"oh-marietta-murray-s-glass-automotive-paint","lat":39.411506,"lng":-81.453153,"state":"OH","city":"Marietta","address":"151 Front Street","zip":"45750","phone":"+1-740-373-7538","email":"","website":"https://www.murraysglass.com","hours":"Mo-Fr 08:00-17:00","brand":"","services":["painting","glass","body_work"],"shopType":"general_repair"},{"id":"shop-oh-unknown-redemption-auto-tech-llc","name":"Redemption Auto Tech LLC","slug":"oh-unknown-redemption-auto-tech-llc","lat":39.4183212,"lng":-84.4777288,"state":"OH","city":"","address":"","zip":"","phone":"","email":"","website":"","hours":"","brand":"","services":["general_repair"],"shopType":"general_repair"},{"id":"shop-oh-zanesville-y-city-automotive","name":"Y-City Automotive","slug":"oh-zanesville-y-city-automotive","lat":39.9463277,"lng":-82.0195837,"state":"OH","city":"Zanesville","address":"1040 Jackson Street","zip":"43701","phone":"+1 740-487-3240","email":"ycityautomotive@gmail.com","website":"https://www.ycityautodetail.com/Auto-Repair/","hours":"","brand":"","services":["car_repair","brakes","oil_change"],"shopType":"general_repair"},{"id":"shop-oh-cincinnati-meineke-car-care-center","name":"Meineke Car Care Center","slug":"oh-cincinnati-meineke-car-care-center","lat":39.2030398,"lng":-84.4548188,"state":"OH","city":"Cincinnati","address":"7760 Reading Road","zip":"45237","phone":"+1-513-823-9240","email":"","website":"https://meineke.com/locations/oh/cincinnati-325/","hours":"Mo-Fr 08:00-18:00; Sa 08:00-17:00","brand":"Meineke","services":["exhaust"],"shopType":"general_repair"},{"id":"shop-oh-dayton-take-5-oil-change","name":"Take 5 Oil Change","slug":"oh-dayton-take-5-oil-change","lat":39.7596955,"lng":-84.1198629,"state":"OH","city":"Dayton","address":"4941 Burkhardt Road","zip":"45431","phone":"","email":"","website":"","hours":"","brand":"Take 5","services":["oil_change"],"shopType":"quick_lube"},{"id":"shop-oh-waldo-miley-mechanical-service-llc","name":"Miley Mechanical Service LLC","slug":"oh-waldo-miley-mechanical-service-llc","lat":40.471811,"lng":-83.0083797,"state":"OH","city":"Waldo","address":"3000 County Road 146","zip":"43356","phone":"+1-740-272-7327","email":"","website":"https://mileymechanicalservice.com","hours":"Mo-Fr 08:00-18:00; Sa 08:00-14:00","brand":"","services":["general_repair"],"shopType":"general_repair"},{"id":"shop-oh-unknown-discount-tire","name":"Discount Tire","slug":"oh-unknown-discount-tire","lat":40.1490496,"lng":-82.925798,"state":"OH","city":"","address":"","zip":"","phone":"","email":"","website":"","hours":"","brand":"Discount Tire","services":["tires"],"shopType":"tire_shop"},{"id":"shop-oh-columbus-tuffy-service-center","name":"Tuffy Service Center","slug":"oh-columbus-tuffy-service-center","lat":40.1101465,"lng":-82.9498681,"state":"OH","city":"Columbus","address":"6853 Cleveland Avenue","zip":"43229","phone":"","email":"","website":"","hours":"","brand":"Tuffy","services":["general_repair"],"shopType":"general_repair"},{"id":"shop-oh-unknown-sharon-woods-auto-care","name":"Sharon Woods Auto Care","slug":"oh-unknown-sharon-woods-auto-care","lat":39.2741394,"lng":-84.4117834,"state":"OH","city":"","address":"","zip":"","phone":"+1-513-733-8607","email":"","website":"https://www.sharonwoodsauto.com/","hours":"","brand":"","services":["oil_change","air_conditioning","tires","fleet_vehicle_maintenance","brakes","tyres"],"shopType":"general_repair"},{"id":"shop-oh-unknown-all-pro-engine-service","name":"All Pro Engine Service","slug":"oh-unknown-all-pro-engine-service","lat":39.2740791,"lng":-84.4117914,"state":"OH","city":"","address":"","zip":"","phone":"+1-513-769-0222","email":"","website":"","hours":"","brand":"","services":["engine_repair"],"shopType":"general_repair"},{"id":"shop-oh-columbus-discount-tires-plus","name":"Discount Tires Plus","slug":"oh-columbus-discount-tires-plus","lat":40.105013,"lng":-82.9774227,"state":"OH","city":"Columbus","address":"1455 Schrock Road","zip":"43229","phone":"","email":"","website":"","hours":"","brand":"Discount Tire","services":["tires"],"shopType":"tire_shop"},{"id":"shop-oh-unknown-valley-auto-care","name":"Valley Auto Care","slug":"oh-unknown-valley-auto-care","lat":39.1941469,"lng":-84.479762,"state":"OH","city":"","address":"","zip":"","phone":"","email":"","website":"","hours":"","brand":"","services":["general_repair"],"shopType":"general_repair"},{"id":"shop-oh-marietta-river-city-tire-auto-service","name":"River City Tire & Auto Service","slug":"oh-marietta-river-city-tire-auto-service","lat":39.3923242,"lng":-81.4041749,"state":"OH","city":"Marietta","address":"1415 Pike Street","zip":"45750-5106","phone":"+1-855-904-0883","email":"","website":"https://rivercitytireoh.com/","hours":"","brand":"","services":["car_repair","electrical","oil_change","tyres","diagnostics","tires","car_parts","transmission","muffler","batteries","exhaust"],"shopType":"general_repair"},{"id":"shop-oh-springfield-ace-body-shop","name":"Ace Body Shop","slug":"oh-springfield-ace-body-shop","lat":39.9254528,"lng":-83.8338441,"state":"OH","city":"Springfield","address":"1405 West Main Street","zip":"","phone":"","email":"","website":"","hours":"","brand":"","services":["body_work","body_repair"],"shopType":"body_shop"},{"id":"shop-oh-uhrichsville-wade-auto-repair-and-performance","name":"Wade Auto Repair and Performance","slug":"oh-uhrichsville-wade-auto-repair-and-performance","lat":40.3932226,"lng":-81.346552,"state":"OH","city":"Uhrichsville","address":"505 North Water Street","zip":"44683","phone":"+1-740-922-0163","email":"","website":"","hours":"","brand":"","services":["repair","oil_change","bearings","chassis","tires","engine_repair","brakes","cv_axles","tyres","alignment"],"shopType":"general_repair"},{"id":"shop-oh-zanesville-k-j-auto-repair","name":"K & J Auto Repair","slug":"oh-zanesville-k-j-auto-repair","lat":39.9401794,"lng":-82.0220799,"state":"OH","city":"Zanesville","address":"1302 West Main Street","zip":"43701","phone":"+1 740-297-4991","email":"","website":"","hours":"","brand":"","services":["general_repair"],"shopType":"general_repair"},{"id":"shop-oh-unknown-oxford-automotive","name":"Oxford Automotive","slug":"oh-unknown-oxford-automotive","lat":40.0885554,"lng":-82.9259942,"state":"OH","city":"","address":"","zip":"","phone":"","email":"","website":"","hours":"Mo-Fr 08:00-17:00","brand":"","services":["general_repair"],"shopType":"general_repair"},{"id":"shop-oh-unknown-westerville-automotive","name":"Westerville Automotive","slug":"oh-unknown-westerville-automotive","lat":40.0869884,"lng":-82.9274967,"state":"OH","city":"","address":"","zip":"","phone":"","email":"","website":"","hours":"","brand":"","services":["general_repair"],"shopType":"general_repair"},{"id":"shop-oh-unknown-buckeye-complete-auto-care","name":"Buckeye Complete Auto Care","slug":"oh-unknown-buckeye-complete-auto-care","lat":40.0861873,"lng":-82.9278227,"state":"OH","city":"","address":"","zip":"","phone":"","email":"","website":"","hours":"Mo-Fr 08:00-12:00,13:00-17:30","brand":"","services":["general_repair"],"shopType":"general_repair"},{"id":"shop-oh-unknown-brogan-folz","name":"Brogan & Folz","slug":"oh-unknown-brogan-folz","lat":39.1574022,"lng":-84.6281962,"state":"OH","city":"","address":"","zip":"","phone":"","email":"","website":"","hours":"","brand":"","services":["general_repair"],"shopType":"general_repair"},{"id":"shop-oh-zanesville-dt-automotive","name":"DT Automotive","slug":"oh-zanesville-dt-automotive","lat":39.9309045,"lng":-82.0046089,"state":"OH","city":"Zanesville","address":"521 Muskingum Avenue","zip":"43701","phone":"+1 740-868-4065","email":"","website":"","hours":"","brand":"","services":["general_repair"],"shopType":"general_repair"},{"id":"shop-oh-hilliard-discount-auto-repair","name":"Discount Auto Repair","slug":"oh-hilliard-discount-auto-repair","lat":40.0177724,"lng":-83.1375272,"state":"OH","city":"Hilliard","address":"4557 Scioto Darby Road","zip":"43026","phone":"+1-614-850-0000","email":"","website":"http://www.discountautorepairllc.com/","hours":"","brand":"","services":["general_repair"],"shopType":"general_repair"},{"id":"shop-oh-cincinnati-smyth-imported-car-service-inc-authorized-independent-bentle","name":"Smyth Imported Car Service Inc Authorized Independent Bentley Motor Car Workshop","slug":"oh-cincinnati-smyth-imported-car-service-inc-authorized-independent-bentle","lat":39.2266456,"lng":-84.3264128,"state":"OH","city":"Cincinnati","address":"8773 Glendale Milford Rd","zip":"45242","phone":"+1-513-793-0434","email":"","website":"https://smythimports.com","hours":"Mo-Fr 09:00-17:00, Sa 12:00-13:00","brand":"","services":["general_repair"],"shopType":"general_repair"},{"id":"shop-oh-unknown-caliber-collision","name":"Caliber Collision","slug":"oh-unknown-caliber-collision","lat":39.2812271,"lng":-84.3626851,"state":"OH","city":"","address":"","zip":"","phone":"","email":"","website":"","hours":"","brand":"Caliber Collision","services":["body_work"],"shopType":"body_shop"},{"id":"shop-oh-montgomery-don-s-auto-repair","name":"Don’s Auto Repair","slug":"oh-montgomery-don-s-auto-repair","lat":39.2270259,"lng":-84.3558086,"state":"OH","city":"Montgomery","address":"9393 Shelly Lane","zip":"45242","phone":"","email":"","website":"","hours":"","brand":"","services":["general_repair"],"shopType":"general_repair"},{"id":"shop-oh-cincinnati-bob-sumerel-tire-service","name":"Bob Sumerel Tire & Service","slug":"oh-cincinnati-bob-sumerel-tire-service","lat":39.1469145,"lng":-84.4250514,"state":"OH","city":"Cincinnati","address":"3872 Paxton Avenue","zip":"45209","phone":"","email":"","website":"","hours":"","brand":"","services":["tires","car_repair","tyres"],"shopType":"general_repair"},{"id":"shop-oh-unknown-firestone-3","name":"Firestone","slug":"oh-unknown-firestone-3","lat":39.2805778,"lng":-84.4993139,"state":"OH","city":"","address":"","zip":"","phone":"","email":"","website":"","hours":"","brand":"Firestone","services":["general_repair"],"shopType":"general_repair"},{"id":"shop-oh-unknown-alternative-auto-repair","name":"Alternative Auto Repair","slug":"oh-unknown-alternative-auto-repair","lat":39.9876165,"lng":-83.0091299,"state":"OH","city":"","address":"","zip":"","phone":"","email":"","website":"","hours":"","brand":"","services":["general_repair"],"shopType":"general_repair"},{"id":"shop-oh-cincinnati-rnr-tire-express","name":"RNR Tire Express","slug":"oh-cincinnati-rnr-tire-express","lat":39.0932994,"lng":-84.2681834,"state":"OH","city":"Cincinnati","address":"4394 Eastgate Square Drive","zip":"45245","phone":"","email":"","website":"https://rnrtires.com/location/ohio-cincinnati-oh/","hours":"","brand":"","services":["tires"],"shopType":"tire_shop"},{"id":"shop-oh-sharonville-rivian-service-center","name":"Rivian Service Center","slug":"oh-sharonville-rivian-service-center","lat":39.2927187,"lng":-84.4076314,"state":"OH","city":"Sharonville","address":"11935 Tramway Drive","zip":"45241","phone":"","email":"","website":"","hours":"","brand":"Rivian","services":["general_repair"],"shopType":"general_repair"},{"id":"shop-oh-groveport-rivian-service-center","name":"Rivian Service Center","slug":"oh-groveport-rivian-service-center","lat":39.8589067,"lng":-82.9011737,"state":"OH","city":"Groveport","address":"5740 Green Pointe Drive North","zip":"43125","phone":"","email":"","website":"","hours":"","brand":"Rivian","services":["general_repair"],"shopType":"general_repair"},{"id":"shop-oh-hamilton-midas","name":"Midas","slug":"oh-hamilton-midas","lat":39.3786241,"lng":-84.5501612,"state":"OH","city":"Hamilton","address":"1761 South Erie Highway","zip":"45011","phone":"","email":"","website":"https://www.dollargeneral.com/store-directory/oh/hamilton/23244","hours":"","brand":"Midas","services":["general_repair"],"shopType":"general_repair"},{"id":"shop-oh-unknown-detailer","name":"Detailer","slug":"oh-unknown-detailer","lat":39.9848993,"lng":-83.0425924,"state":"OH","city":"","address":"","zip":"","phone":"","email":"","website":"","hours":"","brand":"","services":["general_repair"],"shopType":"general_repair"},{"id":"shop-oh-zanesville-take-5-oil-change","name":"Take 5 Oil Change","slug":"oh-zanesville-take-5-oil-change","lat":39.978134,"lng":-82.0168513,"state":"OH","city":"Zanesville","address":"3065 Maple Avenue","zip":"43701","phone":"+1 740-617-1766","email":"","website":"https://www.take5.com/locations/oil-change/ohio/zanesville/30833/","hours":"Mo-Sa 07:00-20:00, Su 09:00-17:00","brand":"Take 5","services":["oil_change"],"shopType":"quick_lube"},{"id":"shop-oh-unknown-honest-speed-shop-auto-sales","name":"Honest Speed Shop Auto Sales","slug":"oh-unknown-honest-speed-shop-auto-sales","lat":39.9827455,"lng":-83.1349459,"state":"OH","city":"","address":"","zip":"","phone":"","email":"","website":"","hours":"","brand":"","services":["general_repair"],"shopType":"general_repair"},{"id":"shop-oh-westerville-joe-s-service-station","name":"Joe's Service Station","slug":"oh-westerville-joe-s-service-station","lat":40.1281053,"lng":-82.9321606,"state":"OH","city":"Westerville","address":"80 North State Street","zip":"43081","phone":"+1-614-882-9965","email":"","website":"https://www.joesservicestationoh.com","hours":"Mo-Th 07:30-17:00; Fr 07:30-16:00; Sa-Su off","brand":"","services":["tires"],"shopType":"general_repair"},{"id":"shop-oh-unknown-dale-s-auto-service-center","name":"Dale's Auto Service Center","slug":"oh-unknown-dale-s-auto-service-center","lat":39.9595877,"lng":-84.1844461,"state":"OH","city":"","address":"","zip":"","phone":"","email":"","website":"","hours":"","brand":"Goodyear","services":["general_repair"],"shopType":"general_repair"},{"id":"shop-oh-unknown-lee-s-garage","name":"Lee's Garage","slug":"oh-unknown-lee-s-garage","lat":39.9621646,"lng":-84.1949349,"state":"OH","city":"","address":"","zip":"","phone":"","email":"","website":"","hours":"","brand":"","services":["general_repair"],"shopType":"general_repair"},{"id":"shop-oh-unknown-warrior-racing-automotive","name":"Warrior Racing & Automotive","slug":"oh-unknown-warrior-racing-automotive","lat":39.9637211,"lng":-84.1905897,"state":"OH","city":"","address":"","zip":"","phone":"+1-937-667-6418","email":"","website":"","hours":"Mo-Fr 08:00-19:00","brand":"","services":["general_repair"],"shopType":"general_repair"},{"id":"shop-oh-huber-heights-muffler-brothers","name":"Muffler Brothers","slug":"oh-huber-heights-muffler-brothers","lat":39.8289229,"lng":-84.1216529,"state":"OH","city":"Huber Heights","address":"5210 Brandt Pike","zip":"45424","phone":"","email":"","website":"","hours":"","brand":"","services":["muffler","exhaust"],"shopType":"general_repair"},{"id":"shop-oh-unknown-catanzaro-cycles","name":"Catanzaro Cycles","slug":"oh-unknown-catanzaro-cycles","lat":39.9258407,"lng":-83.8587942,"state":"OH","city":"","address":"","zip":"","phone":"","email":"","website":"","hours":"","brand":"","services":["general_repair"],"shopType":"general_repair"},{"id":"shop-oh-fairborn-w-w-auto-tech","name":"W&W Auto Tech","slug":"oh-fairborn-w-w-auto-tech","lat":39.8540407,"lng":-83.9765075,"state":"OH","city":"Fairborn","address":"8500 Dayton Road","zip":"45324","phone":"+1-937-864-7380","email":"","website":"","hours":"Mo-Fr 08:00-18:00","brand":"","services":["general_repair"],"shopType":"general_repair"},{"id":"shop-oh-unknown-foreign-exchange-import-auto-repair","name":"Foreign Exchange Import Auto Repair","slug":"oh-unknown-foreign-exchange-import-auto-repair","lat":39.5570539,"lng":-84.2359627,"state":"OH","city":"","address":"","zip":"","phone":"","email":"","website":"","hours":"","brand":"","services":["general_repair"],"shopType":"general_repair"},{"id":"shop-oh-unknown-sexton-s-automotive","name":"Sexton's Automotive","slug":"oh-unknown-sexton-s-automotive","lat":39.7938397,"lng":-84.0276559,"state":"OH","city":"","address":"103 West Dayton Yellow Springs Road","zip":"45324","phone":"+1-937-879-5003","email":"","website":"http://sextonautomotive.com","hours":"","brand":"","services":["general_repair"],"shopType":"general_repair"},{"id":"shop-oh-columbus-old-fashion-detailing","name":"Old Fashion Detailing","slug":"oh-columbus-old-fashion-detailing","lat":39.9646206,"lng":-83.0014869,"state":"OH","city":"Columbus","address":"111 North High Street","zip":"43215","phone":"","email":"","website":"","hours":"Mo-Sa 10:00-17:00","brand":"","services":["detailing"],"shopType":"general_repair"},{"id":"shop-oh-kettering-grace-tire-auto-service","name":"Grace Tire & Auto Service","slug":"oh-kettering-grace-tire-auto-service","lat":39.6985198,"lng":-84.122557,"state":"OH","city":"Kettering","address":"3128 Woodman Drive","zip":"45420","phone":"+1-937-813-1010","email":"","website":"","hours":"Mo-Fr 07:00-18:00; Sa 07:00-12:00; Su off","brand":"","services":["tires","oil_change"],"shopType":"general_repair"},{"id":"shop-oh-kettering-jamie-s-tire-service","name":"Jamie's Tire & Service","slug":"oh-kettering-jamie-s-tire-service","lat":39.7002566,"lng":-84.1223431,"state":"OH","city":"Kettering","address":"3050 Woodman Drive","zip":"45420","phone":"+1-937-906-2661","email":"","website":"","hours":"Mo-Fr 08:00-17:00; Sa 08:00-15:00","brand":"","services":["hoses","timing_belts","tuning","engine_repair","differentials","computer_diagnostics","cooling_systems","clutch","carburetor","brakes","check_engine_light","glass","driveshafts","air_conditioning","tires","engine","transmission","starters","axles","coolant","steering","filters","electrical","emissions","lights","suspension","belts","batteries","inspection"],"shopType":"general_repair"},{"id":"shop-oh-west-alexandria-logan-s-auto-repair","name":"Logan's Auto Repair","slug":"oh-west-alexandria-logan-s-auto-repair","lat":39.7442348,"lng":-84.5309559,"state":"OH","city":"West Alexandria","address":"24 East Dayton Street","zip":"45381","phone":"+1-937-839-7122","email":"","website":"","hours":"","brand":"","services":["general_repair"],"shopType":"general_repair"},{"id":"shop-oh-pataskala-reliable-auto-care","name":"Reliable Auto Care","slug":"oh-pataskala-reliable-auto-care","lat":39.9974874,"lng":-82.7035754,"state":"OH","city":"Pataskala","address":"330 Jefferson Park Drive","zip":"43062","phone":"+1-740-919-0383","email":"reliableautocare740@gmail.com","website":"https://reliableautocareohio.com/","hours":"Mo-Fr 09:30-18:00","brand":"","services":["oil_change","air_conditioning","tires","suspension","brakes","tire_repair","mechanics"],"shopType":"general_repair"},{"id":"shop-oh-cincinnati-ron-s-complete-auto-body","name":"Ron’s Complete Auto Body","slug":"oh-cincinnati-ron-s-complete-auto-body","lat":39.1247173,"lng":-84.5625099,"state":"OH","city":"Cincinnati","address":"2308 Quebec Road","zip":"45214","phone":"+1-513-921-5573","email":"ronscompleteautobody@gmail.com","website":"https://www.ronscompleteautobody.com/","hours":"Sa-Su off; Mo-Fr 08:30-17:00","brand":"","services":["painting","glass","body_work","body_repair"],"shopType":"general_repair"},{"id":"shop-oh-plain-city-tapout-tuning","name":"Tapout Tuning","slug":"oh-plain-city-tapout-tuning","lat":40.12592,"lng":-83.2096434,"state":"OH","city":"Plain City","address":"8430 Estates Court","zip":"43064","phone":"+1-614-504-6024","email":"sales@tapouttuning.com","website":"https://www.tapouttuning.com/","hours":"Mo-Fr 09:00-17:30","brand":"","services":["tuning"],"shopType":"general_repair"},{"id":"shop-oh-columbus-madina-truck-and-trailer-repair","name":"Madina Truck and Trailer Repair","slug":"oh-columbus-madina-truck-and-trailer-repair","lat":39.9266361,"lng":-83.0574842,"state":"OH","city":"Columbus","address":"1515 Harrisburg Pike","zip":"43223-3609","phone":"+1-614-668-6076","email":"","website":"","hours":"Tu-Sa 09:00-18:00; Mo 10:00-18:00","brand":"","services":["truck_repair"],"shopType":"general_repair"},{"id":"shop-oh-johnstown-thorpe-garage","name":"Thorpe Garage","slug":"oh-johnstown-thorpe-garage","lat":40.1522508,"lng":-82.6803502,"state":"OH","city":"Johnstown","address":"81 East College Avenue","zip":"43031-1367","phone":"+1-740-966-5239","email":"","website":"http://www.thorpegarageohio.com/","hours":"","brand":"","services":["general_repair"],"shopType":"general_repair"},{"id":"shop-oh-moraine-take-5-oil-change","name":"Take 5 Oil Change","slug":"oh-moraine-take-5-oil-change","lat":39.6732812,"lng":-84.2180825,"state":"OH","city":"Moraine","address":"2755 West Alexandersville Bellbrook Road","zip":"45459","phone":"","email":"","website":"","hours":"","brand":"Take 5","services":["oil_change"],"shopType":"quick_lube"},{"id":"shop-oh-moraine-true-care-auto-repair","name":"True Care Auto Repair","slug":"oh-moraine-true-care-auto-repair","lat":39.6823978,"lng":-84.2216915,"state":"OH","city":"Moraine","address":"5295 North Springboro Pike","zip":"45439","phone":"+1-937-299-9902","email":"","website":"","hours":"Mo-Fr 08:00-17:00","brand":"","services":["general_repair"],"shopType":"general_repair"},{"id":"shop-oh-zanesville-custom-rv-services-and-repairs","name":"Custom RV Services And Repairs","slug":"oh-zanesville-custom-rv-services-and-repairs","lat":39.8994058,"lng":-82.0315622,"state":"OH","city":"Zanesville","address":"2487 Maysville Pike","zip":"43701","phone":"+1-740-255-2207","email":"","website":"https://mobilervservice.com/locations/custom-rv-services-and-repair","hours":"Mo-Fr 09:00-17:00","brand":"","services":["repairs","rv_repair"],"shopType":"general_repair"},{"id":"shop-oh-fairfield-pacos-autoclinicas","name":"Pacos Autoclinicas","slug":"oh-fairfield-pacos-autoclinicas","lat":39.3322753,"lng":-84.5231826,"state":"OH","city":"Fairfield","address":"5515 Dixie Highway","zip":"45014","phone":"+1 513-875-7246","email":"pago@pagotopia.com","website":"https://pacosautoclinicasoh.com/","hours":"","brand":"","services":["general_repair"],"shopType":"general_repair"},{"id":"shop-oh-unknown-grismer-tire-and-auto-service","name":"Grismer Tire and Auto Service","slug":"oh-unknown-grismer-tire-and-auto-service","lat":39.3466209,"lng":-84.3285164,"state":"OH","city":"","address":"800 Reading Road","zip":"45040","phone":"+1-513-466-8230","email":"","website":"https://grismertire.com","hours":"Mo-Fr 07:30-18:00; Sa 07:30-15:00","brand":"","services":["tires"],"shopType":"tire_shop"},{"id":"shop-oh-loveland-ken-marcotte-professional-auto","name":"Ken Marcotte Professional Auto","slug":"oh-loveland-ken-marcotte-professional-auto","lat":39.2664688,"lng":-84.265691,"state":"OH","city":"Loveland","address":"219 Loveland","zip":"45140","phone":"","email":"","website":"","hours":"","brand":"Firestone","services":["general_repair"],"shopType":"general_repair"},{"id":"shop-oh-unknown-abra","name":"Abra","slug":"oh-unknown-abra","lat":39.255684,"lng":-84.2799377,"state":"OH","city":"","address":"1505 Loveland Madeira Road","zip":"","phone":"","email":"","website":"https://abraauto.com/abra-auto-location/1434-loveland-oh","hours":"","brand":"","services":["glass_repair","body_work","body_repair"],"shopType":"general_repair"},{"id":"shop-oh-loveland-elsen-s-autohaus","name":"Elsen’s Autohaus","slug":"oh-loveland-elsen-s-autohaus","lat":39.2532609,"lng":-84.2937693,"state":"OH","city":"Loveland","address":"10682 Loveland Madeira Road","zip":"45140","phone":"","email":"","website":"https://elsensautohaus.com/","hours":"","brand":"","services":["general_repair"],"shopType":"general_repair"},{"id":"shop-oh-unknown-valvoline-5","name":"Valvoline","slug":"oh-unknown-valvoline-5","lat":39.2877656,"lng":-84.3055246,"state":"OH","city":"","address":"9191 Union Cemetery Road","zip":"","phone":"","email":"","website":"https://store.vioc.com/oh/cincinnati/oil-change-040081.html","hours":"","brand":"Valvoline","services":["oil_change"],"shopType":"quick_lube"},{"id":"shop-oh-unknown-jiffy-lube","name":"Jiffy Lube","slug":"oh-unknown-jiffy-lube","lat":39.290548,"lng":-84.3007895,"state":"OH","city":"","address":"9435 Fields Ertel Road","zip":"","phone":"","email":"","website":"","hours":"Mo-Fr 08:00-19:00; Sa 08:00-18:00; Su 09:00-17:00","brand":"Jiffy Lube","services":["oil_change"],"shopType":"quick_lube"},{"id":"shop-oh-unknown-bob-sumerel-tire-service","name":"Bob Sumerel Tire & Service","slug":"oh-unknown-bob-sumerel-tire-service","lat":39.2883343,"lng":-84.3058829,"state":"OH","city":"","address":"9167 Union Cemetery Road","zip":"","phone":"","email":"","website":"","hours":"","brand":"Bob Sumerel Tire & Service","services":["tires","tyres"],"shopType":"general_repair"},{"id":"shop-oh-unknown-tire-choice-auto-service-centers","name":"Tire Choice Auto Service Centers","slug":"oh-unknown-tire-choice-auto-service-centers","lat":40.0302062,"lng":-83.1170221,"state":"OH","city":"","address":"","zip":"","phone":"","email":"","website":"","hours":"","brand":"","services":["tires"],"shopType":"tire_shop"},{"id":"shop-oh-unknown-discount-tire-2","name":"Discount Tire","slug":"oh-unknown-discount-tire-2","lat":40.0272414,"lng":-83.112564,"state":"OH","city":"","address":"","zip":"","phone":"","email":"","website":"","hours":"","brand":"Discount Tire","services":["tires"],"shopType":"tire_shop"},{"id":"shop-oh-unknown-fine-line-auto-body","name":"Fine Line Auto Body","slug":"oh-unknown-fine-line-auto-body","lat":39.9801271,"lng":-83.1512865,"state":"OH","city":"","address":"","zip":"","phone":"","email":"","website":"","hours":"","brand":"","services":["body_work"],"shopType":"body_shop"},{"id":"shop-oh-sharonville-river-city-body-company","name":"River City Body Company","slug":"oh-sharonville-river-city-body-company","lat":39.2904022,"lng":-84.418819,"state":"OH","city":"Sharonville","address":"2660 Commerce Boulevard","zip":"45241","phone":"+1-513-772-9317","email":"","website":"https://rivercitybody.com/","hours":"","brand":"","services":["body_work","body_repair"],"shopType":"general_repair"},{"id":"shop-oh-unknown-carstar-collision-care-of-kings","name":"Carstar Collision Care of Kings","slug":"oh-unknown-carstar-collision-care-of-kings","lat":39.3068102,"lng":-84.2808702,"state":"OH","city":"","address":"","zip":"","phone":"","email":"","website":"https://www.carstar.com/locations/oh/cincinnati-15283/","hours":"","brand":"Carstar Collision Care","services":["body_work"],"shopType":"body_shop"},{"id":"shop-oh-unknown-faslube","name":"Faslube","slug":"oh-unknown-faslube","lat":39.9739771,"lng":-83.1509912,"state":"OH","city":"","address":"","zip":"","phone":"","email":"","website":"","hours":"","brand":"","services":["oil_change"],"shopType":"quick_lube"},{"id":"shop-oh-unknown-monro-muffler-brake","name":"Monro Muffler Brake","slug":"oh-unknown-monro-muffler-brake","lat":39.2350359,"lng":-84.3512781,"state":"OH","city":"","address":"","zip":"","phone":"","email":"","website":"https://www.monro.com/local/home/oh/cincinnati/839","hours":"","brand":"Monro","services":["exhaust","brakes"],"shopType":"general_repair"},{"id":"shop-oh-loveland-wards-corner-collision","name":"Wards Corner Collision","slug":"oh-loveland-wards-corner-collision","lat":39.2237533,"lng":-84.2796252,"state":"OH","city":"Loveland","address":"507 Justice Court","zip":"45140","phone":"","email":"","website":"https://sites.google.com/site/wardscornercollision/","hours":"","brand":"","services":["body_work","body_repair"],"shopType":"body_shop"},{"id":"shop-oh-unknown-tire-discounters-3","name":"Tire Discounters","slug":"oh-unknown-tire-discounters-3","lat":39.1973777,"lng":-84.3810691,"state":"OH","city":"","address":"","zip":"","phone":"","email":"","website":"","hours":"","brand":"Tire Discounters","services":["tires"],"shopType":"tire_shop"},{"id":"shop-oh-unknown-firestone-4","name":"Firestone","slug":"oh-unknown-firestone-4","lat":39.1979864,"lng":-84.3799201,"state":"OH","city":"","address":"","zip":"","phone":"","email":"","website":"","hours":"","brand":"Firestone","services":["general_repair"],"shopType":"general_repair"},{"id":"shop-oh-montgomery-meineke","name":"Meineke","slug":"oh-montgomery-meineke","lat":39.1978802,"lng":-84.3822217,"state":"OH","city":"Montgomery","address":"7784 Montgomery Road","zip":"45236-4202","phone":"","email":"","website":"https://www.meineke.com/Center/269.aspx","hours":"","brand":"Meineke","services":["exhaust"],"shopType":"general_repair"},{"id":"shop-oh-unknown-bob-sumerel-tire-service-2","name":"Bob Sumerel Tire & Service","slug":"oh-unknown-bob-sumerel-tire-service-2","lat":39.2027039,"lng":-84.5216478,"state":"OH","city":"","address":"","zip":"","phone":"","email":"","website":"","hours":"","brand":"Bob Sumerel","services":["tires"],"shopType":"tire_shop"},{"id":"shop-oh-unknown-bob-sumerel-tire-service-3","name":"Bob Sumerel Tire & Service","slug":"oh-unknown-bob-sumerel-tire-service-3","lat":39.2267295,"lng":-84.3780434,"state":"OH","city":"","address":"","zip":"","phone":"","email":"","website":"https://www.bobsumereltireandservice.com/about/StoreDetails?id=BS131","hours":"","brand":"Bob Sumerel","services":["tires","tyres","brakes"],"shopType":"general_repair"},{"id":"shop-oh-unknown-goodyear","name":"Goodyear","slug":"oh-unknown-goodyear","lat":39.2275042,"lng":-84.377004,"state":"OH","city":"","address":"","zip":"","phone":"","email":"","website":"","hours":"","brand":"Goodyear","services":["general_repair"],"shopType":"general_repair"},{"id":"shop-oh-unknown-blue-ash-shell","name":"Blue Ash Shell","slug":"oh-unknown-blue-ash-shell","lat":39.2511757,"lng":-84.3758424,"state":"OH","city":"","address":"","zip":"","phone":"","email":"","website":"https://www.blueashshell.com/","hours":"","brand":"","services":["general_repair"],"shopType":"general_repair"},{"id":"shop-oh-unknown-evan-s-auto-care","name":"Evan’s Auto Care","slug":"oh-unknown-evan-s-auto-care","lat":39.2265496,"lng":-84.3937174,"state":"OH","city":"","address":"","zip":"","phone":"","email":"","website":"https://www.evansautocare.com/","hours":"","brand":"","services":["general_repair"],"shopType":"general_repair"},{"id":"shop-oh-blue-ash-parr-public-safety-equipment","name":"Parr Public Safety Equipment","slug":"oh-blue-ash-parr-public-safety-equipment","lat":39.2709318,"lng":-84.3566412,"state":"OH","city":"Blue Ash","address":"11326 Tamarco Drive","zip":"45242","phone":"+1-419-834-7135","email":"info@parrpse.com","website":"https://parrpse.com/","hours":"Mo-Fr 08:00-16:30","brand":"","services":["general_repair"],"shopType":"general_repair"},{"id":"shop-oh-lewis-center-tuffy-auto-services-center","name":"Tuffy Auto Services Center","slug":"oh-lewis-center-tuffy-auto-services-center","lat":40.1575575,"lng":-83.0164286,"state":"OH","city":"Lewis Center","address":"210 Hornbeam Lane","zip":"","phone":"","email":"","website":"","hours":"","brand":"","services":["general_repair"],"shopType":"general_repair"},{"id":"shop-oh-lewis-center-midas-lewis-center","name":"Midas Lewis Center","slug":"oh-lewis-center-midas-lewis-center","lat":40.1575025,"lng":-83.0158289,"state":"OH","city":"Lewis Center","address":"216 Hornbeam Lane","zip":"","phone":"","email":"","website":"","hours":"","brand":"Midas","services":["general_repair"],"shopType":"general_repair"},{"id":"shop-oh-lewis-center-discount-tire","name":"Discount Tire","slug":"oh-lewis-center-discount-tire","lat":40.1575844,"lng":-83.0170408,"state":"OH","city":"Lewis Center","address":"190 Hornbeam Lane","zip":"","phone":"","email":"","website":"","hours":"","brand":"Discount Tire","services":["tires"],"shopType":"tire_shop"},{"id":"shop-oh-unknown-car-x","name":"Car-X","slug":"oh-unknown-car-x","lat":39.2113571,"lng":-84.448731,"state":"OH","city":"","address":"","zip":"","phone":"","email":"","website":"","hours":"","brand":"","services":["general_repair"],"shopType":"general_repair"},{"id":"shop-oh-unknown-montgomery-transmission","name":"Montgomery Transmission","slug":"oh-unknown-montgomery-transmission","lat":39.2264675,"lng":-84.3256698,"state":"OH","city":"","address":"","zip":"","phone":"+1-513-793-3800","email":"","website":"","hours":"","brand":"","services":["transmission"],"shopType":"transmission_shop"},{"id":"shop-oh-unknown-sam-smyth","name":"Sam Smyth","slug":"oh-unknown-sam-smyth","lat":39.2266417,"lng":-84.3264106,"state":"OH","city":"","address":"","zip":"","phone":"","email":"","website":"","hours":"","brand":"","services":["general_repair"],"shopType":"general_repair"},{"id":"shop-oh-unknown-bennett-s-auto-service","name":"Bennett’s Auto Service","slug":"oh-unknown-bennett-s-auto-service","lat":39.2272537,"lng":-84.3257541,"state":"OH","city":"","address":"","zip":"","phone":"","email":"","website":"","hours":"","brand":"Valvoline","services":["oil_change"],"shopType":"quick_lube"},{"id":"shop-oh-unknown-tires-plus","name":"Tires Plus","slug":"oh-unknown-tires-plus","lat":39.2504694,"lng":-84.5968447,"state":"OH","city":"","address":"","zip":"","phone":"","email":"","website":"","hours":"","brand":"Tires Plus","services":["tires"],"shopType":"tire_shop"},{"id":"shop-oh-unknown-midas-2","name":"Midas","slug":"oh-unknown-midas-2","lat":39.2351494,"lng":-84.5911476,"state":"OH","city":"","address":"","zip":"","phone":"","email":"","website":"","hours":"","brand":"Midas","services":["general_repair"],"shopType":"general_repair"},{"id":"shop-oh-unknown-tire-discounters-4","name":"Tire Discounters","slug":"oh-unknown-tire-discounters-4","lat":39.2054911,"lng":-84.58327,"state":"OH","city":"","address":"","zip":"","phone":"","email":"","website":"","hours":"","brand":"Tire Discounters","services":["tires"],"shopType":"tire_shop"},{"id":"shop-oh-unknown-jake-sweeney-mitsubishi","name":"Jake Sweeney Mitsubishi","slug":"oh-unknown-jake-sweeney-mitsubishi","lat":39.2837708,"lng":-84.4748102,"state":"OH","city":"","address":"","zip":"","phone":"","email":"","website":"","hours":"","brand":"","services":["general_repair"],"shopType":"general_repair"},{"id":"shop-oh-unknown-princeton-tire","name":"Princeton Tire","slug":"oh-unknown-princeton-tire","lat":39.2860522,"lng":-84.4678082,"state":"OH","city":"","address":"","zip":"","phone":"","email":"","website":"","hours":"","brand":"","services":["tires"],"shopType":"tire_shop"},{"id":"shop-oh-unknown-midas-3","name":"Midas","slug":"oh-unknown-midas-3","lat":39.3047246,"lng":-84.4868513,"state":"OH","city":"","address":"","zip":"","phone":"","email":"","website":"","hours":"","brand":"Midas","services":["general_repair"],"shopType":"general_repair"},{"id":"shop-oh-unknown-jeff-wyler-collision-center","name":"Jeff Wyler Collision Center","slug":"oh-unknown-jeff-wyler-collision-center","lat":39.3009167,"lng":-84.5264115,"state":"OH","city":"","address":"","zip":"","phone":"","email":"","website":"","hours":"","brand":"","services":["body_work"],"shopType":"body_shop"},{"id":"shop-oh-unknown-tire-discounters-5","name":"Tire Discounters","slug":"oh-unknown-tire-discounters-5","lat":39.3028988,"lng":-84.524947,"state":"OH","city":"","address":"","zip":"","phone":"","email":"","website":"","hours":"","brand":"Tire Discounters","services":["tires"],"shopType":"tire_shop"},{"id":"shop-oh-unknown-ohio-automotive","name":"Ohio Automotive","slug":"oh-unknown-ohio-automotive","lat":39.2943323,"lng":-84.2950752,"state":"OH","city":"","address":"","zip":"","phone":"","email":"","website":"","hours":"","brand":"","services":["general_repair"],"shopType":"general_repair"},{"id":"shop-oh-cincinnati-medina-auto-repair-and-body","name":"Medina Auto Repair and Body","slug":"oh-cincinnati-medina-auto-repair-and-body","lat":39.1138221,"lng":-84.5233394,"state":"OH","city":"Cincinnati","address":"412 West Liberty Street","zip":"45214","phone":"+1-513-442-6983","email":"","website":"","hours":"","brand":"","services":["body_work"],"shopType":"body_shop"},{"id":"shop-oh-cincinnati-the-brothers-auto-tires","name":"The Brothers Auto Tires","slug":"oh-cincinnati-the-brothers-auto-tires","lat":39.119377,"lng":-84.524163,"state":"OH","city":"Cincinnati","address":"2020 Central Parkway","zip":"45214","phone":"+1-513-381-8473","email":"","website":"","hours":"","brand":"","services":["tires"],"shopType":"tire_shop"},{"id":"shop-oh-cincinnati-jerry-ernst-auto-body","name":"Jerry Ernst Auto Body","slug":"oh-cincinnati-jerry-ernst-auto-body","lat":39.1030362,"lng":-84.4339396,"state":"OH","city":"Cincinnati","address":"4167 Kellogg Avenue","zip":"45226","phone":"","email":"","website":"https://jerryernst.com/","hours":"","brand":"","services":["body_work","body_repair"],"shopType":"general_repair"},{"id":"shop-oh-cincinnati-monro-bakes","name":"Monro Bakes","slug":"oh-cincinnati-monro-bakes","lat":39.0722979,"lng":-84.3353349,"state":"OH","city":"Cincinnati","address":"7955 Beechmont Avenue","zip":"45255","phone":"","email":"","website":"","hours":"","brand":"Monro","services":["tires","muffler","exhaust","brakes"],"shopType":"general_repair"},{"id":"shop-oh-unknown-goodyear-2","name":"Goodyear","slug":"oh-unknown-goodyear-2","lat":39.3560424,"lng":-84.4603312,"state":"OH","city":"","address":"","zip":"","phone":"","email":"","website":"","hours":"","brand":"Goodyear","services":["general_repair"],"shopType":"general_repair"},{"id":"shop-oh-cincinnati-caliber-collision","name":"Caliber Collision","slug":"oh-cincinnati-caliber-collision","lat":39.0680676,"lng":-84.295407,"state":"OH","city":"Cincinnati","address":"3995 Commercial Boulevard","zip":"45245","phone":"","email":"","website":"https://www.caliber.com/find-a-location/cincinnati-beechmont","hours":"","brand":"Caliber Collision","services":["body_work","body_repair"],"shopType":"body_shop"},{"id":"shop-oh-loveland-dave-lay-automotive-service","name":"Dave Lay Automotive Service","slug":"oh-loveland-dave-lay-automotive-service","lat":39.2064064,"lng":-84.2180791,"state":"OH","city":"Loveland","address":"1320 State Route 28","zip":"45140","phone":"+1-513-575-3122","email":"","website":"","hours":"","brand":"","services":["general_repair"],"shopType":"general_repair"},{"id":"shop-oh-milford-tire-discounters","name":"Tire Discounters","slug":"oh-milford-tire-discounters","lat":39.1948565,"lng":-84.2337574,"state":"OH","city":"Milford","address":"1107 State Route 28","zip":"45150","phone":"+1-513-575-5500","email":"","website":"","hours":"","brand":"Tire Discounters","services":["tires"],"shopType":"tire_shop"},{"id":"shop-oh-unknown-national-tire-and-battery-2","name":"National Tire and Battery","slug":"oh-unknown-national-tire-and-battery-2","lat":40.0594564,"lng":-82.9097168,"state":"OH","city":"","address":"","zip":"","phone":"","email":"","website":"","hours":"","brand":"National Tire and Battery","services":["tires"],"shopType":"tire_shop"},{"id":"shop-oh-unknown-discount-tire-3","name":"Discount Tire","slug":"oh-unknown-discount-tire-3","lat":40.054481,"lng":-82.9191632,"state":"OH","city":"","address":"","zip":"","phone":"","email":"","website":"","hours":"","brand":"Discount Tire","services":["tires"],"shopType":"tire_shop"},{"id":"shop-oh-cincinnati-general-auto-repair","name":"General Auto Repair","slug":"oh-cincinnati-general-auto-repair","lat":39.1260389,"lng":-84.4954878,"state":"OH","city":"Cincinnati","address":"659 East McMillan Street","zip":"45206","phone":"","email":"","website":"","hours":"","brand":"","services":["general_repair"],"shopType":"general_repair"},{"id":"shop-oh-mariemont-avid-autocare","name":"Avid Autocare","slug":"oh-mariemont-avid-autocare","lat":39.1377095,"lng":-84.3967826,"state":"OH","city":"Mariemont","address":"5591 Wooster Pike","zip":"45227","phone":"","email":"","website":"https://www.avidautocare.com/","hours":"","brand":"","services":["general_repair"],"shopType":"general_repair"},{"id":"shop-oh-fairfax-precision-motorcars","name":"Precision Motorcars","slug":"oh-fairfax-precision-motorcars","lat":39.1489378,"lng":-84.3983979,"state":"OH","city":"Fairfax","address":"5565 Murray Avenue","zip":"45227","phone":"","email":"","website":"https://www.mercedescarsrepaircincinnati.com/","hours":"","brand":"","services":["general_repair"],"shopType":"general_repair"},{"id":"shop-oh-cincinnati-cobb-s-car-care","name":"Cobb's Car Care","slug":"oh-cincinnati-cobb-s-car-care","lat":39.1501929,"lng":-84.4080029,"state":"OH","city":"Cincinnati","address":"3965 Rosslyn Drive","zip":"45209","phone":"","email":"","website":"","hours":"","brand":"","services":["general_repair"],"shopType":"general_repair"},{"id":"shop-oh-columbia-township-tire-discounters","name":"Tire Discounters","slug":"oh-columbia-township-tire-discounters","lat":39.140462,"lng":-84.3570792,"state":"OH","city":"Columbia Township","address":"7525 Wooster Pike","zip":"45227","phone":"","email":"","website":"https://tirediscounters.com/pages/locations/wooster-pike-oh","hours":"","brand":"Tire Discounters","services":["tires"],"shopType":"tire_shop"},{"id":"shop-oh-unknown-uci-midwest-dayton","name":"Uci Midwest Dayton","slug":"oh-unknown-uci-midwest-dayton","lat":39.7884545,"lng":-84.1701518,"state":"OH","city":"","address":"Troy Pike","zip":"","phone":"","email":"","website":"","hours":"","brand":"","services":["general_repair"],"shopType":"general_repair"},{"id":"shop-oh-unknown-donovan-s-auto-center","name":"Donovan’s Auto Center","slug":"oh-unknown-donovan-s-auto-center","lat":39.1741323,"lng":-84.4272971,"state":"OH","city":"","address":"","zip":"","phone":"","email":"","website":"","hours":"","brand":"","services":["general_repair"],"shopType":"general_repair"},{"id":"shop-oh-cincinnati-eurauto","name":"Eurauto","slug":"oh-cincinnati-eurauto","lat":39.1520786,"lng":-84.3936274,"state":"OH","city":"Cincinnati","address":"5904 Bramble Avenue","zip":"45227","phone":"","email":"","website":"","hours":"","brand":"","services":["general_repair"],"shopType":"general_repair"},{"id":"shop-oh-cincinnati-whitie-s-car-care","name":"Whitie's Car Care","slug":"oh-cincinnati-whitie-s-car-care","lat":39.1294762,"lng":-84.4745158,"state":"OH","city":"Cincinnati","address":"1701 Madison Road","zip":"45206","phone":"+1-513-221-1666","email":"","website":"","hours":"","brand":"","services":["general_repair"],"shopType":"general_repair"},{"id":"shop-oh-cincinnati-elmer-searles","name":"Elmer Searles","slug":"oh-cincinnati-elmer-searles","lat":39.1396048,"lng":-84.4744463,"state":"OH","city":"Cincinnati","address":"3385 Montgomery Road","zip":"45207","phone":"","email":"","website":"","hours":"","brand":"","services":["general_repair"],"shopType":"general_repair"},{"id":"shop-oh-cincinnati-uptowne-tire-company","name":"Uptowne Tire Company","slug":"oh-cincinnati-uptowne-tire-company","lat":39.1399749,"lng":-84.4739416,"state":"OH","city":"Cincinnati","address":"3401 Montgomery Road","zip":"45207","phone":"+1-513-281-3155","email":"","website":"","hours":"","brand":"","services":["tires"],"shopType":"tire_shop"},{"id":"shop-oh-unknown-tire-discounters-6","name":"Tire Discounters","slug":"oh-unknown-tire-discounters-6","lat":39.5629643,"lng":-84.2584497,"state":"OH","city":"","address":"","zip":"","phone":"","email":"","website":"","hours":"","brand":"Tire Discounters","services":["tires"],"shopType":"tire_shop"},{"id":"shop-oh-unknown-voss-auto-network-body-shop","name":"Voss Auto Network Body Shop","slug":"oh-unknown-voss-auto-network-body-shop","lat":39.6503674,"lng":-84.1536221,"state":"OH","city":"","address":"","zip":"","phone":"","email":"","website":"","hours":"","brand":"","services":["body_work"],"shopType":"body_shop"},{"id":"shop-oh-unknown-tire-discounters-7","name":"Tire Discounters","slug":"oh-unknown-tire-discounters-7","lat":39.4920511,"lng":-84.3277264,"state":"OH","city":"","address":"","zip":"","phone":"","email":"","website":"","hours":"","brand":"Tire Discounters","services":["tires"],"shopType":"tire_shop"},{"id":"shop-oh-unknown-bob-sumerel-tire-service-4","name":"Bob Sumerel Tire & Service","slug":"oh-unknown-bob-sumerel-tire-service-4","lat":39.4963878,"lng":-84.3344321,"state":"OH","city":"","address":"","zip":"","phone":"","email":"","website":"","hours":"","brand":"","services":["tires"],"shopType":"tire_shop"},{"id":"shop-oh-unknown-jiffy-lube-2","name":"Jiffy Lube","slug":"oh-unknown-jiffy-lube-2","lat":39.4927007,"lng":-84.3330125,"state":"OH","city":"","address":"","zip":"","phone":"","email":"","website":"","hours":"","brand":"Jiffy Lube","services":["oil_change"],"shopType":"quick_lube"},{"id":"shop-oh-loveland-day-heights-auto-service","name":"Day Heights Auto Service","slug":"oh-loveland-day-heights-auto-service","lat":39.2546857,"lng":-84.2930709,"state":"OH","city":"Loveland","address":"10732 Loveland Madeira Road","zip":"45140","phone":"+1-513-774-1685","email":"","website":"https://dayheightsautoservice.com/loveland","hours":"","brand":"","services":["general_repair"],"shopType":"general_repair"},{"id":"shop-oh-west-chester-bob-sumerel-tire-service","name":"Bob Sumerel Tire & Service","slug":"oh-west-chester-bob-sumerel-tire-service","lat":39.3522258,"lng":-84.3622089,"state":"OH","city":"West Chester","address":"7889 Tylersville Road","zip":"45069","phone":"","email":"","website":"","hours":"","brand":"","services":["tires","car_repair","oil_change"],"shopType":"general_repair"},{"id":"shop-oh-unknown-big-o-tires","name":"Big O Tires","slug":"oh-unknown-big-o-tires","lat":39.3915315,"lng":-84.5102673,"state":"OH","city":"","address":"","zip":"","phone":"","email":"","website":"","hours":"","brand":"Big O Tires","services":["tires"],"shopType":"tire_shop"},{"id":"shop-oh-unknown-tire-discounters-8","name":"Tire Discounters","slug":"oh-unknown-tire-discounters-8","lat":39.3914598,"lng":-84.5089009,"state":"OH","city":"","address":"","zip":"","phone":"","email":"","website":"","hours":"","brand":"Tire Discounters","services":["tires"],"shopType":"tire_shop"},{"id":"shop-oh-unknown-car-x-2","name":"Car-X","slug":"oh-unknown-car-x-2","lat":39.3591448,"lng":-84.2783541,"state":"OH","city":"","address":"","zip":"","phone":"","email":"","website":"","hours":"","brand":"Car-X","services":["car_repair"],"shopType":"general_repair"},{"id":"shop-oh-unknown-tire-discounters-9","name":"Tire Discounters","slug":"oh-unknown-tire-discounters-9","lat":39.4333951,"lng":-84.1905646,"state":"OH","city":"","address":"","zip":"","phone":"","email":"","website":"","hours":"","brand":"Tire Discounters","services":["tires"],"shopType":"tire_shop"},{"id":"shop-oh-unknown-tires-plus-2","name":"Tires Plus","slug":"oh-unknown-tires-plus-2","lat":39.2970383,"lng":-84.5247718,"state":"OH","city":"","address":"","zip":"","phone":"","email":"","website":"","hours":"","brand":"Tires Plus","services":["tires"],"shopType":"tire_shop"},{"id":"shop-oh-cincinnati-andrew-mallicoat-s-automotive","name":"Andrew Mallicoat’s Automotive","slug":"oh-cincinnati-andrew-mallicoat-s-automotive","lat":39.2937027,"lng":-84.5236039,"state":"OH","city":"Cincinnati","address":"1190 Kemper Meadow Drive","zip":"45240","phone":"+1-513-407-7157","email":"","website":"","hours":"","brand":"","services":["car_repair"],"shopType":"general_repair"},{"id":"shop-oh-miamisburg-ziebart","name":"Ziebart","slug":"oh-miamisburg-ziebart","lat":39.6305775,"lng":-84.2203913,"state":"OH","city":"Miamisburg","address":"8919 Kingsridge Drive","zip":"45458","phone":"","email":"","website":"","hours":"","brand":"","services":["general_repair"],"shopType":"general_repair"},{"id":"shop-oh-unknown-east-david-automotive","name":"East David Automotive","slug":"oh-unknown-east-david-automotive","lat":39.6802017,"lng":-84.1347321,"state":"OH","city":"","address":"","zip":"","phone":"","email":"","website":"","hours":"","brand":"","services":["general_repair"],"shopType":"general_repair"},{"id":"shop-oh-sidney-howard-s-tire-services","name":"Howard's Tire Services","slug":"oh-sidney-howard-s-tire-services","lat":40.2864814,"lng":-84.1584756,"state":"OH","city":"Sidney","address":"129 North West Avenue","zip":"45365","phone":"","email":"","website":"","hours":"","brand":"","services":["tires"],"shopType":"tire_shop"},{"id":"shop-oh-goshen-steve-s-classic-cars-llc","name":"Steve's Classic Cars LLC","slug":"oh-goshen-steve-s-classic-cars-llc","lat":39.2332512,"lng":-84.1623137,"state":"OH","city":"Goshen","address":"1843 Main Street","zip":"45122","phone":"","email":"","website":"","hours":"","brand":"","services":["general_repair"],"shopType":"general_repair"},{"id":"shop-oh-unknown-firestone-5","name":"Firestone","slug":"oh-unknown-firestone-5","lat":39.248884,"lng":-84.5945683,"state":"OH","city":"","address":"","zip":"","phone":"","email":"","website":"","hours":"","brand":"Firestone","services":["general_repair"],"shopType":"general_repair"},{"id":"shop-oh-unknown-ntb","name":"NTB","slug":"oh-unknown-ntb","lat":39.8136893,"lng":-84.130656,"state":"OH","city":"","address":"2901 Harshman Road","zip":"","phone":"+1-937-912-1579","email":"","website":"https://www.mavis.com/locations/dayton-oh/","hours":"","brand":"NTB","services":["tires"],"shopType":"general_repair"},{"id":"shop-oh-huber-heights-tire-discounters","name":"Tire Discounters","slug":"oh-huber-heights-tire-discounters","lat":39.816621,"lng":-84.1292552,"state":"OH","city":"Huber Heights","address":"4414 Brandt Pike","zip":"45424","phone":"+1-937-435-2102","email":"","website":"https://locations.tirediscounters.com/oh/dayton-4414-brandt-pike","hours":"","brand":"Tire Discounters","services":["tires"],"shopType":"tire_shop"},{"id":"shop-oh-unknown-monro-muffler-brake-2","name":"Monro Muffler Brake","slug":"oh-unknown-monro-muffler-brake-2","lat":39.3213956,"lng":-84.4305974,"state":"OH","city":"","address":"","zip":"","phone":"","email":"","website":"","hours":"","brand":"Monro","services":["exhaust","brakes"],"shopType":"general_repair"},{"id":"shop-oh-unknown-jiffy-lube-3","name":"Jiffy Lube","slug":"oh-unknown-jiffy-lube-3","lat":39.69661,"lng":-84.1054629,"state":"OH","city":"","address":"","zip":"","phone":"","email":"","website":"","hours":"","brand":"Jiffy Lube","services":["oil_change"],"shopType":"quick_lube"},{"id":"shop-oh-unknown-goodyear-3","name":"Goodyear","slug":"oh-unknown-goodyear-3","lat":39.8251338,"lng":-84.1978362,"state":"OH","city":"","address":"6104 North Dixie Drive","zip":"","phone":"","email":"","website":"","hours":"","brand":"Goodyear","services":["general_repair"],"shopType":"general_repair"},{"id":"shop-oh-cincinnati-jiffy-lube","name":"Jiffy Lube","slug":"oh-cincinnati-jiffy-lube","lat":39.1303919,"lng":-84.4306081,"state":"OH","city":"Cincinnati","address":"3151 Linwood Avenue","zip":"45208","phone":"","email":"","website":"https://www.jiffylube.com/locations/oh/cincinnati/1554","hours":"","brand":"Jiffy Lube","services":["oil_change"],"shopType":"quick_lube"},{"id":"shop-oh-unknown-valvoline-6","name":"Valvoline","slug":"oh-unknown-valvoline-6","lat":39.1871558,"lng":-84.6030904,"state":"OH","city":"","address":"","zip":"","phone":"","email":"","website":"https://store.vioc.com/oh/cincinnati/oil-change-040039.html","hours":"","brand":"Valvoline","services":["oil_change"],"shopType":"quick_lube"},{"id":"shop-oh-milford-valvoline","name":"Valvoline","slug":"oh-milford-valvoline","lat":39.195553,"lng":-84.2332716,"state":"OH","city":"Milford","address":"1109 State Route 28","zip":"45150","phone":"+1-513-575-1817","email":"","website":"https://store.vioc.com/oh/milford/oil-change-040099.html","hours":"","brand":"Valvoline","services":["oil_change"],"shopType":"quick_lube"},{"id":"shop-oh-huber-heights-valvoline","name":"Valvoline","slug":"oh-huber-heights-valvoline","lat":39.8170068,"lng":-84.1289337,"state":"OH","city":"Huber Heights","address":"4430 Brandt Pike","zip":"45424","phone":"+1-937-235-3489","email":"","website":"https://store.vioc.com/oh/dayton/oil-change-040120.html","hours":"","brand":"Valvoline","services":["oil_change"],"shopType":"quick_lube"},{"id":"shop-oh-cincinnati-t-q-auto-works","name":"T Q Auto Works","slug":"oh-cincinnati-t-q-auto-works","lat":39.054951,"lng":-84.2593196,"state":"OH","city":"Cincinnati","address":"1065 Ohio Pike","zip":"45245","phone":"","email":"","website":"","hours":"","brand":"","services":["general_repair"],"shopType":"general_repair"},{"id":"shop-oh-cincinnati-caliber-collision-2","name":"Caliber Collision","slug":"oh-cincinnati-caliber-collision-2","lat":39.096074,"lng":-84.2816593,"state":"OH","city":"Cincinnati","address":"4425 Aicholtz Road","zip":"45245","phone":"","email":"","website":"","hours":"","brand":"Caliber Collision","services":["body_work","body_repair"],"shopType":"body_shop"},{"id":"shop-oh-cincinnati-oil-express","name":"Oil Express","slug":"oh-cincinnati-oil-express","lat":39.0976828,"lng":-84.2624198,"state":"OH","city":"Cincinnati","address":"4468 Glen Este-Withamsville Road","zip":"45245","phone":"","email":"","website":"","hours":"","brand":"","services":["general_repair"],"shopType":"general_repair"},{"id":"shop-oh-cincinnati-brock-s-auto-service","name":"Brock's Auto Service","slug":"oh-cincinnati-brock-s-auto-service","lat":39.1547209,"lng":-84.542098,"state":"OH","city":"Cincinnati","address":"3719 Spring Grove Avenue","zip":"45223","phone":"+1-513-542-6500","email":"","website":"http://brocksasc.com/","hours":"Mo-Fr 08:00-17:00","brand":"","services":["general_repair"],"shopType":"general_repair"},{"id":"shop-oh-unknown-tire-discounters-10","name":"Tire Discounters","slug":"oh-unknown-tire-discounters-10","lat":39.6597692,"lng":-84.1078397,"state":"OH","city":"","address":"","zip":"","phone":"","email":"","website":"","hours":"","brand":"Tire Discounters","services":["tires"],"shopType":"tire_shop"},{"id":"shop-oh-unknown-grismer-tire-auto-service-center","name":"Grismer Tire & Auto Service Center","slug":"oh-unknown-grismer-tire-auto-service-center","lat":39.6384019,"lng":-84.1049826,"state":"OH","city":"","address":"","zip":"","phone":"","email":"","website":"","hours":"","brand":"","services":["tires"],"shopType":"tire_shop"},{"id":"shop-oh-unknown-charlies-auto","name":"Charlies Auto","slug":"oh-unknown-charlies-auto","lat":40.0722818,"lng":-83.5486645,"state":"OH","city":"","address":"","zip":"","phone":"","email":"","website":"","hours":"","brand":"","services":["general_repair"],"shopType":"general_repair"},{"id":"shop-oh-maineville-tire-discounters","name":"Tire Discounters","slug":"oh-maineville-tire-discounters","lat":39.3397176,"lng":-84.2204706,"state":"OH","city":"Maineville","address":"6525 Ohio 48","zip":"45039","phone":"","email":"","website":"","hours":"","brand":"Tire Discounters","services":["tires"],"shopType":"tire_shop"},{"id":"shop-oh-unknown-mr-mechanic","name":"Mr Mechanic","slug":"oh-unknown-mr-mechanic","lat":39.3514155,"lng":-84.3673965,"state":"OH","city":"","address":"","zip":"","phone":"+1-513-777-3211","email":"","website":"http://www.mrmechanicoh.com/","hours":"","brand":"","services":["general_repair"],"shopType":"general_repair"},{"id":"shop-oh-sharonville-gem-city-tire-services-center","name":"Gem City Tire & Services Center","slug":"oh-sharonville-gem-city-tire-services-center","lat":39.2928685,"lng":-84.424881,"state":"OH","city":"Sharonville","address":"77 Partnership Way","zip":"45241","phone":"+1-513-769-0007","email":"","website":"http://gemcitytire.com","hours":"","brand":"","services":["tires","tyres"],"shopType":"general_repair"},{"id":"shop-oh-cincinnati-firestone","name":"Firestone","slug":"oh-cincinnati-firestone","lat":39.1040378,"lng":-84.2742195,"state":"OH","city":"Cincinnati","address":"4625 Eastgate Boulevard","zip":"45245","phone":"+1-513-370-2315","email":"","website":"https://www.firestonecompleteautocare.com/ohio/cincinnati/4625-eastgate-blvd/","hours":"","brand":"Firestone","services":["general_repair"],"shopType":"general_repair"},{"id":"shop-oh-unknown-valvoline-7","name":"Valvoline","slug":"oh-unknown-valvoline-7","lat":39.2518676,"lng":-84.5987767,"state":"OH","city":"","address":"","zip":"","phone":"","email":"","website":"https://store.vioc.com/oh/colerain/oil-change-040117.html","hours":"","brand":"Valvoline","services":["oil_change"],"shopType":"quick_lube"},{"id":"shop-oh-unknown-discount-tire-4","name":"Discount Tire","slug":"oh-unknown-discount-tire-4","lat":39.2410376,"lng":-84.5946899,"state":"OH","city":"","address":"","zip":"","phone":"","email":"","website":"","hours":"","brand":"Discount Tire","services":["tires"],"shopType":"tire_shop"},{"id":"shop-oh-unknown-midas-4","name":"Midas","slug":"oh-unknown-midas-4","lat":39.7692696,"lng":-84.1217099,"state":"OH","city":"","address":"","zip":"","phone":"","email":"","website":"","hours":"","brand":"Midas","services":["general_repair"],"shopType":"general_repair"},{"id":"shop-oh-unknown-five-star-detail","name":"Five Star Detail","slug":"oh-unknown-five-star-detail","lat":39.7696744,"lng":-84.1216931,"state":"OH","city":"","address":"","zip":"","phone":"","email":"","website":"","hours":"","brand":"","services":["general_repair"],"shopType":"general_repair"},{"id":"shop-oh-unknown-monro-muffler-brake-3","name":"Monro Muffler Brake","slug":"oh-unknown-monro-muffler-brake-3","lat":39.7586171,"lng":-84.1197308,"state":"OH","city":"","address":"","zip":"","phone":"","email":"","website":"","hours":"","brand":"Monro","services":["exhaust","brakes"],"shopType":"general_repair"},{"id":"shop-oh-milford-day-heights-auto-service","name":"Day Heights Auto Service","slug":"oh-milford-day-heights-auto-service","lat":39.1764515,"lng":-84.2279973,"state":"OH","city":"Milford","address":"1236 State Route 131","zip":"45150","phone":"","email":"","website":"https://dayheightsautoservice.com/milford","hours":"","brand":"","services":["struts","tires","towing","brakes","shock_absorbers","tyres"],"shopType":"general_repair"},{"id":"shop-oh-beavercreek-tire-choice-auto-service-center","name":"Tire Choice Auto Service Center","slug":"oh-beavercreek-tire-choice-auto-service-center","lat":39.7273298,"lng":-84.053693,"state":"OH","city":"Beavercreek","address":"3198 Dayton-Xenia Road","zip":"45432","phone":"+1-937-427-0050","email":"","website":"","hours":"Mo-Fr 07:30-19:00; Sa 07:30-18:00; Su 09:00-17:00","brand":"","services":["tires"],"shopType":"tire_shop"},{"id":"shop-oh-unknown-monro-muffler-brake-4","name":"Monro Muffler Brake","slug":"oh-unknown-monro-muffler-brake-4","lat":39.5098915,"lng":-84.7514059,"state":"OH","city":"","address":"","zip":"","phone":"","email":"","website":"","hours":"","brand":"Monro","services":["exhaust","brakes"],"shopType":"general_repair"},{"id":"shop-oh-unknown-firestone-6","name":"Firestone","slug":"oh-unknown-firestone-6","lat":39.3213138,"lng":-84.3145916,"state":"OH","city":"","address":"","zip":"","phone":"","email":"","website":"","hours":"","brand":"Firestone","services":["general_repair"],"shopType":"general_repair"},{"id":"shop-oh-brookville-hatmaker-service-center","name":"Hatmaker Service Center","slug":"oh-brookville-hatmaker-service-center","lat":39.8354785,"lng":-84.4138929,"state":"OH","city":"Brookville","address":"7 South Wolf Creek Street","zip":"45309","phone":"","email":"","website":"","hours":"","brand":"","services":["general_repair"],"shopType":"general_repair"},{"id":"shop-oh-unknown-midas-5","name":"Midas","slug":"oh-unknown-midas-5","lat":39.4996401,"lng":-84.3517879,"state":"OH","city":"","address":"","zip":"","phone":"","email":"","website":"","hours":"","brand":"Midas","services":["general_repair"],"shopType":"general_repair"},{"id":"shop-oh-unknown-integrity-auto-service","name":"Integrity Auto Service","slug":"oh-unknown-integrity-auto-service","lat":39.5003257,"lng":-84.3516522,"state":"OH","city":"","address":"","zip":"","phone":"","email":"","website":"","hours":"","brand":"","services":["general_repair"],"shopType":"general_repair"},{"id":"shop-oh-unknown-tire-discounters-11","name":"Tire Discounters","slug":"oh-unknown-tire-discounters-11","lat":39.4391859,"lng":-84.3312371,"state":"OH","city":"","address":"","zip":"","phone":"","email":"","website":"","hours":"","brand":"Tire Discounters","services":["tires"],"shopType":"tire_shop"},{"id":"shop-oh-fairborn-john-pierce-auto-care","name":"John Pierce Auto Care","slug":"oh-fairborn-john-pierce-auto-care","lat":39.8134254,"lng":-84.0218277,"state":"OH","city":"Fairborn","address":"808 South Central Avenue","zip":"45324","phone":"+1937-878-3601","email":"","website":"http://www.johnpierceautocare.com/","hours":"","brand":"","services":["general_repair"],"shopType":"general_repair"},{"id":"shop-oh-unknown-grismer-auto-service-center","name":"Grismer Auto Service Center","slug":"oh-unknown-grismer-auto-service-center","lat":39.6363334,"lng":-84.2247122,"state":"OH","city":"","address":"","zip":"","phone":"","email":"","website":"","hours":"","brand":"","services":["general_repair"],"shopType":"general_repair"},{"id":"shop-oh-unknown-tire-discounters-12","name":"Tire Discounters","slug":"oh-unknown-tire-discounters-12","lat":39.6349168,"lng":-84.2262231,"state":"OH","city":"","address":"","zip":"","phone":"","email":"","website":"","hours":"","brand":"Tire Discounters","services":["tires"],"shopType":"tire_shop"},{"id":"shop-oh-unknown-midas-6","name":"Midas","slug":"oh-unknown-midas-6","lat":39.6328856,"lng":-84.2057099,"state":"OH","city":"","address":"","zip":"","phone":"","email":"","website":"","hours":"","brand":"Midas","services":["general_repair"],"shopType":"general_repair"},{"id":"shop-oh-unknown-solomons-garage","name":"Solomons Garage","slug":"oh-unknown-solomons-garage","lat":40.2514482,"lng":-83.7563622,"state":"OH","city":"","address":"","zip":"","phone":"","email":"","website":"","hours":"","brand":"","services":["general_repair"],"shopType":"general_repair"},{"id":"shop-oh-milford-tug-s-auto-works-towing","name":"Tug’s Auto Works Towing","slug":"oh-milford-tug-s-auto-works-towing","lat":39.1330135,"lng":-84.2291281,"state":"OH","city":"Milford","address":"1339 US 50","zip":"45150","phone":"","email":"","website":"","hours":"","brand":"","services":["towing","car_repair"],"shopType":"general_repair"},{"id":"shop-oh-unknown-jiffy-lube-4","name":"Jiffy Lube","slug":"oh-unknown-jiffy-lube-4","lat":39.8766012,"lng":-84.1375265,"state":"OH","city":"","address":"","zip":"","phone":"","email":"","website":"","hours":"","brand":"Jiffy Lube","services":["oil_change"],"shopType":"quick_lube"},{"id":"shop-oh-unknown-a-auto","name":"A Auto","slug":"oh-unknown-a-auto","lat":39.2014767,"lng":-84.5184074,"state":"OH","city":"","address":"","zip":"","phone":"+1-513-242-2560","email":"","website":"","hours":"","brand":"","services":["heater","electrical","air_conditioning"],"shopType":"general_repair"},{"id":"shop-oh-dayton-grismer-tire-and-auto","name":"Grismer Tire and Auto","slug":"oh-dayton-grismer-tire-and-auto","lat":39.7475387,"lng":-84.1910287,"state":"OH","city":"Dayton","address":"815 South Patterson Boulevard","zip":"45402","phone":"+1-937-223-3244","email":"","website":"https://www.grismertire.com/","hours":"Mo-Fr 07:30-18:00; Sa 07:30-16:00","brand":"","services":["tires"],"shopType":"tire_shop"},{"id":"shop-oh-dayton-x-treme-auto-sports","name":"X-treme Auto Sports","slug":"oh-dayton-x-treme-auto-sports","lat":39.7493453,"lng":-84.1864082,"state":"OH","city":"Dayton","address":"331 Warren Street","zip":"45410","phone":"","email":"","website":"","hours":"","brand":"","services":["general_repair"],"shopType":"general_repair"},{"id":"shop-oh-dayton-all-tune-lube","name":"All Tune & Lube","slug":"oh-dayton-all-tune-lube","lat":39.7600985,"lng":-84.1858615,"state":"OH","city":"Dayton","address":"400 East 3rd Street","zip":"45402","phone":"+1-937-222-7768","email":"","website":"https://www.atldayton.com/","hours":"","brand":"","services":["oil_change","car_repair"],"shopType":"quick_lube"},{"id":"shop-oh-unknown-aamco-transmissions","name":"AAMCO Transmissions","slug":"oh-unknown-aamco-transmissions","lat":39.7069361,"lng":-84.019277,"state":"OH","city":"","address":"","zip":"","phone":"","email":"","website":"","hours":"","brand":"AAMCO","services":["transmission"],"shopType":"transmission_shop"},{"id":"shop-oh-unknown-valvoline-8","name":"Valvoline","slug":"oh-unknown-valvoline-8","lat":39.3556623,"lng":-84.3955355,"state":"OH","city":"","address":"","zip":"","phone":"","email":"","website":"https://store.vioc.com/oh/westchester/oil-change-040080.html","hours":"","brand":"Valvoline","services":["oil_change"],"shopType":"quick_lube"},{"id":"shop-oh-amelia-carstar","name":"CARSTAR","slug":"oh-amelia-carstar","lat":39.0236077,"lng":-84.2125717,"state":"OH","city":"Amelia","address":"100 East Main Street","zip":"45102","phone":"","email":"","website":"","hours":"","brand":"Carstar","services":["body_work","body_repair"],"shopType":"general_repair"},{"id":"shop-oh-batavia-king-s-kustoms-motorcycles","name":"King's Kustoms Motorcycles","slug":"oh-batavia-king-s-kustoms-motorcycles","lat":39.0111788,"lng":-84.1732013,"state":"OH","city":"Batavia","address":"3325 State Route 222","zip":"45103","phone":"","email":"","website":"","hours":"","brand":"","services":["general_repair"],"shopType":"general_repair"},{"id":"shop-oh-amelia-brads-glass","name":"Brads Glass","slug":"oh-amelia-brads-glass","lat":39.0074602,"lng":-84.1654137,"state":"OH","city":"Amelia","address":"2164 State Route 125","zip":"45102","phone":"","email":"","website":"","hours":"","brand":"","services":["glass","glass_repair"],"shopType":"general_repair"},{"id":"shop-oh-amelia-fugi-s-diesel","name":"Fugi's Diesel","slug":"oh-amelia-fugi-s-diesel","lat":39.0067434,"lng":-84.1599234,"state":"OH","city":"Amelia","address":"2280 State Route 125","zip":"45102","phone":"","email":"","website":"","hours":"","brand":"","services":["diesel"],"shopType":"general_repair"},{"id":"shop-oh-bethel-bethel-tire","name":"Bethel Tire","slug":"oh-bethel-bethel-tire","lat":38.9636702,"lng":-84.090066,"state":"OH","city":"Bethel","address":"3100 State Route 232","zip":"45106","phone":"","email":"","website":"","hours":"","brand":"","services":["tires"],"shopType":"tire_shop"},{"id":"shop-oh-unknown-valvoline-9","name":"Valvoline","slug":"oh-unknown-valvoline-9","lat":39.3913952,"lng":-84.5097854,"state":"OH","city":"","address":"","zip":"","phone":"","email":"","website":"","hours":"","brand":"Valvoline","services":["oil_change"],"shopType":"quick_lube"},{"id":"shop-oh-unknown-firestone-7","name":"Firestone","slug":"oh-unknown-firestone-7","lat":39.3906763,"lng":-84.5138774,"state":"OH","city":"","address":"","zip":"","phone":"","email":"","website":"","hours":"","brand":"Firestone","services":["general_repair"],"shopType":"general_repair"},{"id":"shop-oh-unknown-car-x-3","name":"Car-X","slug":"oh-unknown-car-x-3","lat":39.2410503,"lng":-84.5935222,"state":"OH","city":"","address":"","zip":"","phone":"","email":"","website":"","hours":"","brand":"Car-X","services":["general_repair"],"shopType":"general_repair"},{"id":"shop-oh-unknown-blust-motor-service","name":"Blust Motor Service","slug":"oh-unknown-blust-motor-service","lat":39.2377258,"lng":-84.5922952,"state":"OH","city":"","address":"","zip":"","phone":"","email":"","website":"","hours":"","brand":"","services":["general_repair"],"shopType":"general_repair"},{"id":"shop-oh-unknown-auto-glass","name":"Auto Glass","slug":"oh-unknown-auto-glass","lat":39.2406098,"lng":-84.5934843,"state":"OH","city":"","address":"","zip":"","phone":"","email":"","website":"","hours":"","brand":"","services":["general_repair"],"shopType":"general_repair"},{"id":"shop-oh-unknown-grismer-auto-service-center-2","name":"Grismer Auto Service Center","slug":"oh-unknown-grismer-auto-service-center-2","lat":39.889955,"lng":-84.214615,"state":"OH","city":"","address":"","zip":"","phone":"","email":"","website":"","hours":"","brand":"","services":["general_repair"],"shopType":"general_repair"},{"id":"shop-oh-unknown-knab-auto-body","name":"Knab Auto Body","slug":"oh-unknown-knab-auto-body","lat":39.206356,"lng":-84.5825238,"state":"OH","city":"","address":"","zip":"","phone":"","email":"","website":"","hours":"","brand":"","services":["body_work"],"shopType":"body_shop"},{"id":"shop-oh-unknown-goodyear-4","name":"Goodyear","slug":"oh-unknown-goodyear-4","lat":39.2152316,"lng":-84.5855667,"state":"OH","city":"","address":"","zip":"","phone":"","email":"","website":"","hours":"","brand":"Goodyear","services":["general_repair"],"shopType":"general_repair"},{"id":"shop-oh-unknown-meineke","name":"Meineke","slug":"oh-unknown-meineke","lat":39.2146658,"lng":-84.5846145,"state":"OH","city":"","address":"","zip":"","phone":"","email":"","website":"","hours":"","brand":"Meineke","services":["exhaust"],"shopType":"general_repair"},{"id":"shop-oh-unknown-colerain-auto-service","name":"Colerain Auto Service","slug":"oh-unknown-colerain-auto-service","lat":39.2180494,"lng":-84.5861404,"state":"OH","city":"","address":"","zip":"","phone":"","email":"","website":"","hours":"","brand":"","services":["general_repair"],"shopType":"general_repair"},{"id":"shop-oh-williamsburg-auto-truck-of-williamsburg","name":"Auto & Truck of Williamsburg","slug":"oh-williamsburg-auto-truck-of-williamsburg","lat":39.053434,"lng":-84.0511569,"state":"OH","city":"Williamsburg","address":"138 West Main Street","zip":"45176","phone":"","email":"","website":"","hours":"","brand":"","services":["truck_repair","car_repair"],"shopType":"general_repair"},{"id":"shop-oh-unknown-valvoline-10","name":"Valvoline","slug":"oh-unknown-valvoline-10","lat":39.645213,"lng":-84.1100914,"state":"OH","city":"","address":"","zip":"","phone":"","email":"","website":"https://store.vioc.com/oh/centerville/oil-change-040089.html","hours":"","brand":"Valvoline","services":["oil_change"],"shopType":"quick_lube"},{"id":"shop-oh-centerville-c-s-autohaus","name":"C's Autohaus","slug":"oh-centerville-c-s-autohaus","lat":39.6510513,"lng":-84.1257534,"state":"OH","city":"Centerville","address":"1690 Thomas Paine Parkway","zip":"45459","phone":"+1 937 428 6040","email":"","website":"https://csautohaus.com/","hours":"Mo-Th 07:00-17:30","brand":"","services":["general_repair"],"shopType":"general_repair"},{"id":"shop-oh-unknown-valvoline-11","name":"Valvoline","slug":"oh-unknown-valvoline-11","lat":39.2860194,"lng":-84.447867,"state":"OH","city":"","address":"","zip":"","phone":"","email":"","website":"https://store.vioc.com/oh/cincinnati/oil-change-040037.html","hours":"","brand":"Valvoline","services":["oil_change"],"shopType":"quick_lube"},