[{"id":"shop-oh-west-jefferson-ramey-s-tire-auto-service","name":"Ramey's Tire & Auto Service","slug":"oh-west-jefferson-ramey-s-tire-auto-service","lat":39.9456738,"lng":-83.2663821,"state":"OH","city":"West Jefferson","address":"96 East Town Street","zip":"43162","phone":"+1-614-879-5962","email":"","website":"","hours":"","brand":"","services":["tires"],"shopType":"tire_shop"},{"id":"shop-oh-loveland-honest-1-auto-care","name":"Honest-1 Auto Care","slug":"oh-loveland-honest-1-auto-care","lat":39.2538446,"lng":-84.2966844,"state":"OH","city":"Loveland","address":"10659 Loveland Madeira Road","zip":"45140","phone":"","email":"","website":"https://www.honest1loveland.com/","hours":"Mo-Fr 07:00-18:00","brand":"","services":["general_repair"],"shopType":"general_repair"},{"id":"shop-oh-centerville-centerville-service-center","name":"Centerville Service Center","slug":"oh-centerville-centerville-service-center","lat":39.6321885,"lng":-84.1583905,"state":"OH","city":"Centerville","address":"140 Far Hills Avenue","zip":"45459","phone":"","email":"","website":"","hours":"","brand":"","services":["general_repair"],"shopType":"general_repair"},{"id":"shop-oh-blacklick-tuffy","name":"Tuffy","slug":"oh-blacklick-tuffy","lat":39.9866272,"lng":-82.7917391,"state":"OH","city":"Blacklick","address":"65 North Waggoner Road","zip":"43004","phone":"","email":"","website":"","hours":"Mo-Fr 07:30-18:00; Sa 08:00-16:00; Su off","brand":"Tuffy","services":["general_repair"],"shopType":"general_repair"},{"id":"shop-oh-columbus-tong-da-auto-body","name":"Tong Da Auto Body","slug":"oh-columbus-tong-da-auto-body","lat":40.0479809,"lng":-82.9995123,"state":"OH","city":"Columbus","address":"4100 Indianola Avenue","zip":"43214","phone":"+1-614-297-7997","email":"","website":"","hours":"","brand":"","services":["body_work"],"shopType":"body_shop"},{"id":"shop-oh-galloway-rollz-auto-service","name":"Rollz Auto Service","slug":"oh-galloway-rollz-auto-service","lat":39.9500628,"lng":-83.1731126,"state":"OH","city":"Galloway","address":"6467 West Broad Street","zip":"43119","phone":"+1-614-870-7900","email":"","website":"","hours":"Mo-Fr 09:00-17:00","brand":"","services":["general_repair"],"shopType":"general_repair"},{"id":"shop-oh-richmond-demartin-s-auto-body","name":"DeMartin's Auto Body","slug":"oh-richmond-demartin-s-auto-body","lat":40.4572762,"lng":-80.8000467,"state":"OH","city":"Richmond","address":"1493 Township Road 219","zip":"43944","phone":"+1-740-765-5215","email":"","website":"http://demartinsautobody.com","hours":"","brand":"","services":["body_work"],"shopType":"body_shop"},{"id":"shop-oh-cincinnati-esterkamp-automotive-alignment","name":"Esterkamp Automotive & Alignment","slug":"oh-cincinnati-esterkamp-automotive-alignment","lat":39.1263953,"lng":-84.6163191,"state":"OH","city":"Cincinnati","address":"5350 Sidney Road","zip":"45238","phone":"+1-513-451-6300","email":"","website":"http://www.esterkampauto.com","hours":"","brand":"","services":["alignment"],"shopType":"general_repair"},{"id":"shop-oh-wintersville-1-snyder","name":"#1 Snyder","slug":"oh-wintersville-1-snyder","lat":40.3760572,"lng":-80.7129018,"state":"OH","city":"Wintersville","address":"401 Cadiz Road","zip":"43953","phone":"","email":"","website":"","hours":"","brand":"","services":["tires"],"shopType":"general_repair"},{"id":"shop-oh-steubenville-monroe-muffler-brake","name":"Monroe Muffler & Brake","slug":"oh-steubenville-monroe-muffler-brake","lat":40.3734859,"lng":-80.679426,"state":"OH","city":"Steubenville","address":"4321 Sunset Boulevard","zip":"43952","phone":"","email":"","website":"","hours":"","brand":"Monro","services":["exhaust","brakes"],"shopType":"general_repair"},{"id":"shop-oh-delaware-walmart-tire-lube","name":"Walmart Tire & Lube","slug":"oh-delaware-walmart-tire-lube","lat":40.2664459,"lng":-83.0738044,"state":"OH","city":"Delaware","address":"1760 Columbus Pike","zip":"43015","phone":"+1-740-369-0225","email":"","website":"https://www.walmart.com/store/1990/delaware-oh/whats-new","hours":"","brand":"","services":["tires","oil_change"],"shopType":"quick_lube"},{"id":"shop-oh-marysville-walmart-tire-lube","name":"Walmart Tire & Lube","slug":"oh-marysville-walmart-tire-lube","lat":40.2308463,"lng":-83.3466296,"state":"OH","city":"Marysville","address":"555 Colemans Crossing Boulevard","zip":"43040","phone":"+1-937-642-3702","email":"","website":"https://www.walmart.com/store/1595/marysville-oh/whats-new","hours":"","brand":"","services":["tires","oil_change"],"shopType":"quick_lube"},{"id":"shop-oh-dublin-walmart-tire-lube","name":"Walmart Tire & Lube","slug":"oh-dublin-walmart-tire-lube","lat":40.0747732,"lng":-83.1377533,"state":"OH","city":"Dublin","address":"5900 Britton Parkway","zip":"43016","phone":"+1-614-717-9644","email":"","website":"https://www.walmart.com/store/2471/dublin-oh/whats-new","hours":"","brand":"","services":["tires","oil_change"],"shopType":"quick_lube"},{"id":"shop-oh-columbus-walmart-tire-lube","name":"Walmart Tire & Lube","slug":"oh-columbus-walmart-tire-lube","lat":40.060766,"lng":-82.9140061,"state":"OH","city":"Columbus","address":"3900 Morse Road","zip":"43219","phone":"+1-614-476-2284","email":"","website":"https://www.walmart.com/store/2098-columbus-oh","hours":"24/7","brand":"","services":["tires","oil_change"],"shopType":"quick_lube"},{"id":"shop-oh-bellefontaine-walmart-tire-lube","name":"Walmart Tire & Lube","slug":"oh-bellefontaine-walmart-tire-lube","lat":40.3277538,"lng":-83.7568774,"state":"OH","city":"Bellefontaine","address":"2281 United States Highway 68","zip":"43311","phone":"+1-937-592-3065","email":"","website":"https://www.walmart.com/store/1264/bellefontaine-oh/whats-new","hours":"","brand":"","services":["tires","oil_change"],"shopType":"quick_lube"},{"id":"shop-oh-beavercreek-alpha-performance","name":"Alpha Performance","slug":"oh-beavercreek-alpha-performance","lat":39.7129283,"lng":-84.0209769,"state":"OH","city":"Beavercreek","address":"2275 Whitey Marshall Drive","zip":"45434","phone":"","email":"","website":"","hours":"Mo-Fr 09:00-17:00","brand":"","services":["car_repair","brakes","oil_change"],"shopType":"general_repair"},{"id":"shop-oh-columbus-cleveland-ave-auto-works","name":"Cleveland Ave Auto Works","slug":"oh-columbus-cleveland-ave-auto-works","lat":40.0487351,"lng":-82.9549554,"state":"OH","city":"Columbus","address":"3919 Cleveland Avenue","zip":"43224","phone":"","email":"","website":"","hours":"","brand":"","services":["general_repair"],"shopType":"general_repair"},{"id":"shop-oh-troy-bushong-auto-service","name":"Bushong Auto Service","slug":"oh-troy-bushong-auto-service","lat":40.0358193,"lng":-84.1978856,"state":"OH","city":"Troy","address":"100 E Race St","zip":"45373","phone":"+1 937-339-2110","email":"","website":"https://www.bushongautooh.com/","hours":"","brand":"","services":["general_repair"],"shopType":"general_repair"},{"id":"shop-oh-columbus-j-e-electronics","name":"J&E Electronics","slug":"oh-columbus-j-e-electronics","lat":39.9560941,"lng":-82.8847968,"state":"OH","city":"Columbus","address":"4252 East Main Street","zip":"43213","phone":"+1-614-237-3215","email":"","website":"https://www.jandeelectronics.net/","hours":"Mo-Fr 10:00-18:00; Sa 10:00-17:00","brand":"","services":["general_repair"],"shopType":"general_repair"},{"id":"shop-oh-springfield-hooten-automotive","name":"Hooten Automotive","slug":"oh-springfield-hooten-automotive","lat":39.9343157,"lng":-83.7745521,"state":"OH","city":"Springfield","address":"2229 Larch Street","zip":"45503","phone":"+1-937-325-1116","email":"","website":"http://hootenauto.com","hours":"Mo-Fr 08:00-17:00; Sa 08:00-12:00","brand":"","services":["general_repair"],"shopType":"general_repair"},{"id":"shop-oh-cincinnati-bear-car-care","name":"Bear Car Care","slug":"oh-cincinnati-bear-car-care","lat":39.1970563,"lng":-84.599702,"state":"OH","city":"Cincinnati","address":"5700 Cheviot Road","zip":"45247","phone":"+1-513-922-6594","email":"","website":"https://www.bearcarcare.com","hours":"Mo-Fr 07:30-17:00","brand":"","services":["general_repair"],"shopType":"general_repair"},{"id":"shop-oh-forest-park-meineke","name":"Meineke","slug":"oh-forest-park-meineke","lat":39.2819999,"lng":-84.4950918,"state":"OH","city":"Forest Park","address":"606 Northland Boulevard","zip":"45240","phone":"+1 513-401-7592","email":"","website":"https://www.meineke.com/locations/oh/forest-park-791/","hours":"","brand":"Meineke","services":["exhaust"],"shopType":"general_repair"},{"id":"shop-oh-columbus-jim-s-automotive-electric-service-co","name":"Jim's Automotive Electric Service Co","slug":"oh-columbus-jim-s-automotive-electric-service-co","lat":39.9839995,"lng":-82.9801922,"state":"OH","city":"Columbus","address":"931 Saint Clair Avenue","zip":"43201","phone":"+1-614-291-5153","email":"","website":"https://www.jaeservice.com/","hours":"","brand":"","services":["electrical"],"shopType":"general_repair"},{"id":"shop-oh-unknown-buckeye-complete-auto","name":"Buckeye Complete Auto","slug":"oh-unknown-buckeye-complete-auto","lat":40.0423036,"lng":-82.9776795,"state":"OH","city":"","address":"3701 Karl Road","zip":"43224","phone":"+1-614-262-0721","email":"shop@Buckeyecompleteauto.com","website":"https://buckeyecompleteauto.com/","hours":"Mo-Fr 07:00-18:00","brand":"","services":["general_repair"],"shopType":"general_repair"},{"id":"shop-oh-columbus-big-boys-auto-repair","name":"Big Boys Auto Repair","slug":"oh-columbus-big-boys-auto-repair","lat":40.0321816,"lng":-82.9883234,"state":"OH","city":"Columbus","address":"967 Oakland Park Avenue","zip":"43224","phone":"+1 614-447-8183","email":"","website":"","hours":"Mo-Fr 08:30-17:30; Sa 08:30-16:00; PH closed","brand":"","services":["general_repair"],"shopType":"general_repair"},{"id":"shop-oh-columbus-tire-guys-and-service","name":"Tire Guys and Service","slug":"oh-columbus-tire-guys-and-service","lat":39.9315203,"lng":-83.0496445,"state":"OH","city":"Columbus","address":"1313 Harrisburg Pike","zip":"43223","phone":"+1 614 824 4749","email":"","website":"","hours":"Mo-Sa 09:00-18:00","brand":"","services":["engine_repair","body_repair","wheels","muffler","repairs","brakes","tyres","alignment","truck_repair","air_conditioning","body_work","tires","exhausts","car_repair","electrical","oil_change","diagnostics","batteries","inspection","exhaust","mechanics"],"shopType":"general_repair"},{"id":"shop-oh-columbus-victorian-village-auto-service","name":"Victorian Village Auto Service","slug":"oh-columbus-victorian-village-auto-service","lat":39.9875545,"lng":-83.0058007,"state":"OH","city":"Columbus","address":"1233 North High Street","zip":"43201","phone":"","email":"","website":"","hours":"","brand":"","services":["general_repair"],"shopType":"general_repair"},{"id":"shop-oh-marietta-autoplus-auto-parts-marietta-ignition-machine-shop","name":"AutoPlus Auto Parts - Marietta Ignition Machine Shop","slug":"oh-marietta-autoplus-auto-parts-marietta-ignition-machine-shop","lat":39.4158844,"lng":-81.4560776,"state":"OH","city":"Marietta","address":"","zip":"45750","phone":"","email":"","website":"","hours":"","brand":"","services":["general_repair"],"shopType":"general_repair"},{"id":"shop-oh-marietta-mahone-tire-service","name":"Mahone Tire Service","slug":"oh-marietta-mahone-tire-service","lat":39.4115928,"lng":-81.453242,"state":"OH","city":"Marietta","address":"155 Front Street","zip":"45750","phone":"+1-740-373-7761","email":"","website":"https://www.mahonetire.com/","hours":"Mo-Fr 07:45-17:00","brand":"","services":["tires"],"shopType":"tire_shop"},{"id":"shop-oh-marietta-murray-s-glass-automotive-paint","name":"Murray's Glass & Automotive Paint","slug":"oh-marietta-murray-s-glass-automotive-paint","lat":39.411506,"lng":-81.453153,"state":"OH","city":"Marietta","address":"151 Front Street","zip":"45750","phone":"+1-740-373-7538","email":"","website":"https://www.murraysglass.com","hours":"Mo-Fr 08:00-17:00","brand":"","services":["painting","glass","body_work"],"shopType":"general_repair"},{"id":"shop-oh-zanesville-y-city-automotive","name":"Y-City Automotive","slug":"oh-zanesville-y-city-automotive","lat":39.9463277,"lng":-82.0195837,"state":"OH","city":"Zanesville","address":"1040 Jackson Street","zip":"43701","phone":"+1 740-487-3240","email":"ycityautomotive@gmail.com","website":"https://www.ycityautodetail.com/Auto-Repair/","hours":"","brand":"","services":["car_repair","brakes","oil_change"],"shopType":"general_repair"},{"id":"shop-oh-cincinnati-meineke-car-care-center","name":"Meineke Car Care Center","slug":"oh-cincinnati-meineke-car-care-center","lat":39.2030398,"lng":-84.4548188,"state":"OH","city":"Cincinnati","address":"7760 Reading Road","zip":"45237","phone":"+1-513-823-9240","email":"","website":"https://meineke.com/locations/oh/cincinnati-325/","hours":"Mo-Fr 08:00-18:00; Sa 08:00-17:00","brand":"Meineke","services":["exhaust"],"shopType":"general_repair"},{"id":"shop-oh-dayton-take-5-oil-change","name":"Take 5 Oil Change","slug":"oh-dayton-take-5-oil-change","lat":39.7596955,"lng":-84.1198629,"state":"OH","city":"Dayton","address":"4941 Burkhardt Road","zip":"45431","phone":"","email":"","website":"","hours":"","brand":"Take 5","services":["oil_change"],"shopType":"quick_lube"},{"id":"shop-oh-waldo-miley-mechanical-service-llc","name":"Miley Mechanical Service LLC","slug":"oh-waldo-miley-mechanical-service-llc","lat":40.471811,"lng":-83.0083797,"state":"OH","city":"Waldo","address":"3000 County Road 146","zip":"43356","phone":"+1-740-272-7327","email":"","website":"https://mileymechanicalservice.com","hours":"Mo-Fr 08:00-18:00; Sa 08:00-14:00","brand":"","services":["general_repair"],"shopType":"general_repair"},{"id":"shop-oh-columbus-tuffy-service-center","name":"Tuffy Service Center","slug":"oh-columbus-tuffy-service-center","lat":40.1101465,"lng":-82.9498681,"state":"OH","city":"Columbus","address":"6853 Cleveland Avenue","zip":"43229","phone":"","email":"","website":"","hours":"","brand":"Tuffy","services":["general_repair"],"shopType":"general_repair"},{"id":"shop-oh-columbus-discount-tires-plus","name":"Discount Tires Plus","slug":"oh-columbus-discount-tires-plus","lat":40.105013,"lng":-82.9774227,"state":"OH","city":"Columbus","address":"1455 Schrock Road","zip":"43229","phone":"","email":"","website":"","hours":"","brand":"Discount Tire","services":["tires"],"shopType":"tire_shop"},{"id":"shop-oh-marietta-river-city-tire-auto-service","name":"River City Tire & Auto Service","slug":"oh-marietta-river-city-tire-auto-service","lat":39.3923242,"lng":-81.4041749,"state":"OH","city":"Marietta","address":"1415 Pike Street","zip":"45750-5106","phone":"+1-855-904-0883","email":"","website":"https://rivercitytireoh.com/","hours":"","brand":"","services":["car_repair","electrical","oil_change","tyres","diagnostics","tires","car_parts","transmission","muffler","batteries","exhaust"],"shopType":"general_repair"},{"id":"shop-oh-springfield-ace-body-shop","name":"Ace Body Shop","slug":"oh-springfield-ace-body-shop","lat":39.9254528,"lng":-83.8338441,"state":"OH","city":"Springfield","address":"1405 West Main Street","zip":"","phone":"","email":"","website":"","hours":"","brand":"","services":["body_work","body_repair"],"shopType":"body_shop"},{"id":"shop-oh-uhrichsville-wade-auto-repair-and-performance","name":"Wade Auto Repair and Performance","slug":"oh-uhrichsville-wade-auto-repair-and-performance","lat":40.3932226,"lng":-81.346552,"state":"OH","city":"Uhrichsville","address":"505 North Water Street","zip":"44683","phone":"+1-740-922-0163","email":"","website":"","hours":"","brand":"","services":["repair","oil_change","bearings","chassis","tires","engine_repair","brakes","cv_axles","tyres","alignment"],"shopType":"general_repair"},{"id":"shop-oh-zanesville-k-j-auto-repair","name":"K & J Auto Repair","slug":"oh-zanesville-k-j-auto-repair","lat":39.9401794,"lng":-82.0220799,"state":"OH","city":"Zanesville","address":"1302 West Main Street","zip":"43701","phone":"+1 740-297-4991","email":"","website":"","hours":"","brand":"","services":["general_repair"],"shopType":"general_repair"},{"id":"shop-oh-zanesville-dt-automotive","name":"DT Automotive","slug":"oh-zanesville-dt-automotive","lat":39.9309045,"lng":-82.0046089,"state":"OH","city":"Zanesville","address":"521 Muskingum Avenue","zip":"43701","phone":"+1 740-868-4065","email":"","website":"","hours":"","brand":"","services":["general_repair"],"shopType":"general_repair"},{"id":"shop-oh-hilliard-discount-auto-repair","name":"Discount Auto Repair","slug":"oh-hilliard-discount-auto-repair","lat":40.0177724,"lng":-83.1375272,"state":"OH","city":"Hilliard","address":"4557 Scioto Darby Road","zip":"43026","phone":"+1-614-850-0000","email":"","website":"http://www.discountautorepairllc.com/","hours":"","brand":"","services":["general_repair"],"shopType":"general_repair"},{"id":"shop-oh-cincinnati-smyth-imported-car-service-inc-authorized-independent-bentle","name":"Smyth Imported Car Service Inc Authorized Independent Bentley Motor Car Workshop","slug":"oh-cincinnati-smyth-imported-car-service-inc-authorized-independent-bentle","lat":39.2266456,"lng":-84.3264128,"state":"OH","city":"Cincinnati","address":"8773 Glendale Milford Rd","zip":"45242","phone":"+1-513-793-0434","email":"","website":"https://smythimports.com","hours":"Mo-Fr 09:00-17:00, Sa 12:00-13:00","brand":"","services":["general_repair"],"shopType":"general_repair"},{"id":"shop-oh-montgomery-don-s-auto-repair","name":"Don’s Auto Repair","slug":"oh-montgomery-don-s-auto-repair","lat":39.2270259,"lng":-84.3558086,"state":"OH","city":"Montgomery","address":"9393 Shelly Lane","zip":"45242","phone":"","email":"","website":"","hours":"","brand":"","services":["general_repair"],"shopType":"general_repair"},{"id":"shop-oh-cincinnati-bob-sumerel-tire-service","name":"Bob Sumerel Tire & Service","slug":"oh-cincinnati-bob-sumerel-tire-service","lat":39.1469145,"lng":-84.4250514,"state":"OH","city":"Cincinnati","address":"3872 Paxton Avenue","zip":"45209","phone":"","email":"","website":"","hours":"","brand":"","services":["tires","car_repair","tyres"],"shopType":"general_repair"},{"id":"shop-oh-cincinnati-rnr-tire-express","name":"RNR Tire Express","slug":"oh-cincinnati-rnr-tire-express","lat":39.0932994,"lng":-84.2681834,"state":"OH","city":"Cincinnati","address":"4394 Eastgate Square Drive","zip":"45245","phone":"","email":"","website":"https://rnrtires.com/location/ohio-cincinnati-oh/","hours":"","brand":"","services":["tires"],"shopType":"tire_shop"},{"id":"shop-oh-sharonville-rivian-service-center","name":"Rivian Service Center","slug":"oh-sharonville-rivian-service-center","lat":39.2927187,"lng":-84.4076314,"state":"OH","city":"Sharonville","address":"11935 Tramway Drive","zip":"45241","phone":"","email":"","website":"","hours":"","brand":"Rivian","services":["general_repair"],"shopType":"general_repair"},{"id":"shop-oh-groveport-rivian-service-center","name":"Rivian Service Center","slug":"oh-groveport-rivian-service-center","lat":39.8589067,"lng":-82.9011737,"state":"OH","city":"Groveport","address":"5740 Green Pointe Drive North","zip":"43125","phone":"","email":"","website":"","hours":"","brand":"Rivian","services":["general_repair"],"shopType":"general_repair"},{"id":"shop-oh-hamilton-midas","name":"Midas","slug":"oh-hamilton-midas","lat":39.3786241,"lng":-84.5501612,"state":"OH","city":"Hamilton","address":"1761 South Erie Highway","zip":"45011","phone":"","email":"","website":"https://www.dollargeneral.com/store-directory/oh/hamilton/23244","hours":"","brand":"Midas","services":["general_repair"],"shopType":"general_repair"},{"id":"shop-oh-zanesville-take-5-oil-change","name":"Take 5 Oil Change","slug":"oh-zanesville-take-5-oil-change","lat":39.978134,"lng":-82.0168513,"state":"OH","city":"Zanesville","address":"3065 Maple Avenue","zip":"43701","phone":"+1 740-617-1766","email":"","website":"https://www.take5.com/locations/oil-change/ohio/zanesville/30833/","hours":"Mo-Sa 07:00-20:00, Su 09:00-17:00","brand":"Take 5","services":["oil_change"],"shopType":"quick_lube"},{"id":"shop-oh-westerville-joe-s-service-station","name":"Joe's Service Station","slug":"oh-westerville-joe-s-service-station","lat":40.1281053,"lng":-82.9321606,"state":"OH","city":"Westerville","address":"80 North State Street","zip":"43081","phone":"+1-614-882-9965","email":"","website":"https://www.joesservicestationoh.com","hours":"Mo-Th 07:30-17:00; Fr 07:30-16:00; Sa-Su off","brand":"","services":["tires"],"shopType":"general_repair"},{"id":"shop-oh-huber-heights-muffler-brothers","name":"Muffler Brothers","slug":"oh-huber-heights-muffler-brothers","lat":39.8289229,"lng":-84.1216529,"state":"OH","city":"Huber Heights","address":"5210 Brandt Pike","zip":"45424","phone":"","email":"","website":"","hours":"","brand":"","services":["muffler","exhaust"],"shopType":"general_repair"},{"id":"shop-oh-fairborn-w-w-auto-tech","name":"W&W Auto Tech","slug":"oh-fairborn-w-w-auto-tech","lat":39.8540407,"lng":-83.9765075,"state":"OH","city":"Fairborn","address":"8500 Dayton Road","zip":"45324","phone":"+1-937-864-7380","email":"","website":"","hours":"Mo-Fr 08:00-18:00","brand":"","services":["general_repair"],"shopType":"general_repair"},{"id":"shop-oh-columbus-old-fashion-detailing","name":"Old Fashion Detailing","slug":"oh-columbus-old-fashion-detailing","lat":39.9646206,"lng":-83.0014869,"state":"OH","city":"Columbus","address":"111 North High Street","zip":"43215","phone":"","email":"","website":"","hours":"Mo-Sa 10:00-17:00","brand":"","services":["detailing"],"shopType":"general_repair"},{"id":"shop-oh-kettering-grace-tire-auto-service","name":"Grace Tire & Auto Service","slug":"oh-kettering-grace-tire-auto-service","lat":39.6985198,"lng":-84.122557,"state":"OH","city":"Kettering","address":"3128 Woodman Drive","zip":"45420","phone":"+1-937-813-1010","email":"","website":"","hours":"Mo-Fr 07:00-18:00; Sa 07:00-12:00; Su off","brand":"","services":["tires","oil_change"],"shopType":"general_repair"},{"id":"shop-oh-kettering-jamie-s-tire-service","name":"Jamie's Tire & Service","slug":"oh-kettering-jamie-s-tire-service","lat":39.7002566,"lng":-84.1223431,"state":"OH","city":"Kettering","address":"3050 Woodman Drive","zip":"45420","phone":"+1-937-906-2661","email":"","website":"","hours":"Mo-Fr 08:00-17:00; Sa 08:00-15:00","brand":"","services":["hoses","timing_belts","tuning","engine_repair","differentials","computer_diagnostics","cooling_systems","clutch","carburetor","brakes","check_engine_light","glass","driveshafts","air_conditioning","tires","engine","transmission","starters","axles","coolant","steering","filters","electrical","emissions","lights","suspension","belts","batteries","inspection"],"shopType":"general_repair"},{"id":"shop-oh-west-alexandria-logan-s-auto-repair","name":"Logan's Auto Repair","slug":"oh-west-alexandria-logan-s-auto-repair","lat":39.7442348,"lng":-84.5309559,"state":"OH","city":"West Alexandria","address":"24 East Dayton Street","zip":"45381","phone":"+1-937-839-7122","email":"","website":"","hours":"","brand":"","services":["general_repair"],"shopType":"general_repair"},{"id":"shop-oh-pataskala-reliable-auto-care","name":"Reliable Auto Care","slug":"oh-pataskala-reliable-auto-care","lat":39.9974874,"lng":-82.7035754,"state":"OH","city":"Pataskala","address":"330 Jefferson Park Drive","zip":"43062","phone":"+1-740-919-0383","email":"reliableautocare740@gmail.com","website":"https://reliableautocareohio.com/","hours":"Mo-Fr 09:30-18:00","brand":"","services":["oil_change","air_conditioning","tires","suspension","brakes","tire_repair","mechanics"],"shopType":"general_repair"},{"id":"shop-oh-cincinnati-ron-s-complete-auto-body","name":"Ron’s Complete Auto Body","slug":"oh-cincinnati-ron-s-complete-auto-body","lat":39.1247173,"lng":-84.5625099,"state":"OH","city":"Cincinnati","address":"2308 Quebec Road","zip":"45214","phone":"+1-513-921-5573","email":"ronscompleteautobody@gmail.com","website":"https://www.ronscompleteautobody.com/","hours":"Sa-Su off; Mo-Fr 08:30-17:00","brand":"","services":["painting","glass","body_work","body_repair"],"shopType":"general_repair"},{"id":"shop-oh-plain-city-tapout-tuning","name":"Tapout Tuning","slug":"oh-plain-city-tapout-tuning","lat":40.12592,"lng":-83.2096434,"state":"OH","city":"Plain City","address":"8430 Estates Court","zip":"43064","phone":"+1-614-504-6024","email":"sales@tapouttuning.com","website":"https://www.tapouttuning.com/","hours":"Mo-Fr 09:00-17:30","brand":"","services":["tuning"],"shopType":"general_repair"},{"id":"shop-oh-columbus-madina-truck-and-trailer-repair","name":"Madina Truck and Trailer Repair","slug":"oh-columbus-madina-truck-and-trailer-repair","lat":39.9266361,"lng":-83.0574842,"state":"OH","city":"Columbus","address":"1515 Harrisburg Pike","zip":"43223-3609","phone":"+1-614-668-6076","email":"","website":"","hours":"Tu-Sa 09:00-18:00; Mo 10:00-18:00","brand":"","services":["truck_repair"],"shopType":"general_repair"},{"id":"shop-oh-johnstown-thorpe-garage","name":"Thorpe Garage","slug":"oh-johnstown-thorpe-garage","lat":40.1522508,"lng":-82.6803502,"state":"OH","city":"Johnstown","address":"81 East College Avenue","zip":"43031-1367","phone":"+1-740-966-5239","email":"","website":"http://www.thorpegarageohio.com/","hours":"","brand":"","services":["general_repair"],"shopType":"general_repair"},{"id":"shop-oh-moraine-take-5-oil-change","name":"Take 5 Oil Change","slug":"oh-moraine-take-5-oil-change","lat":39.6732812,"lng":-84.2180825,"state":"OH","city":"Moraine","address":"2755 West Alexandersville Bellbrook Road","zip":"45459","phone":"","email":"","website":"","hours":"","brand":"Take 5","services":["oil_change"],"shopType":"quick_lube"},{"id":"shop-oh-moraine-true-care-auto-repair","name":"True Care Auto Repair","slug":"oh-moraine-true-care-auto-repair","lat":39.6823978,"lng":-84.2216915,"state":"OH","city":"Moraine","address":"5295 North Springboro Pike","zip":"45439","phone":"+1-937-299-9902","email":"","website":"","hours":"Mo-Fr 08:00-17:00","brand":"","services":["general_repair"],"shopType":"general_repair"},{"id":"shop-oh-zanesville-custom-rv-services-and-repairs","name":"Custom RV Services And Repairs","slug":"oh-zanesville-custom-rv-services-and-repairs","lat":39.8994058,"lng":-82.0315622,"state":"OH","city":"Zanesville","address":"2487 Maysville Pike","zip":"43701","phone":"+1-740-255-2207","email":"","website":"https://mobilervservice.com/locations/custom-rv-services-and-repair","hours":"Mo-Fr 09:00-17:00","brand":"","services":["repairs","rv_repair"],"shopType":"general_repair"},{"id":"shop-oh-fairfield-pacos-autoclinicas","name":"Pacos Autoclinicas","slug":"oh-fairfield-pacos-autoclinicas","lat":39.3322753,"lng":-84.5231826,"state":"OH","city":"Fairfield","address":"5515 Dixie Highway","zip":"45014","phone":"+1 513-875-7246","email":"pago@pagotopia.com","website":"https://pacosautoclinicasoh.com/","hours":"","brand":"","services":["general_repair"],"shopType":"general_repair"},{"id":"shop-oh-loveland-ken-marcotte-professional-auto","name":"Ken Marcotte Professional Auto","slug":"oh-loveland-ken-marcotte-professional-auto","lat":39.2664688,"lng":-84.265691,"state":"OH","city":"Loveland","address":"219 Loveland","zip":"45140","phone":"","email":"","website":"","hours":"","brand":"Firestone","services":["general_repair"],"shopType":"general_repair"},{"id":"shop-oh-loveland-elsen-s-autohaus","name":"Elsen’s Autohaus","slug":"oh-loveland-elsen-s-autohaus","lat":39.2532609,"lng":-84.2937693,"state":"OH","city":"Loveland","address":"10682 Loveland Madeira Road","zip":"45140","phone":"","email":"","website":"https://elsensautohaus.com/","hours":"","brand":"","services":["general_repair"],"shopType":"general_repair"},{"id":"shop-oh-sharonville-river-city-body-company","name":"River City Body Company","slug":"oh-sharonville-river-city-body-company","lat":39.2904022,"lng":-84.418819,"state":"OH","city":"Sharonville","address":"2660 Commerce Boulevard","zip":"45241","phone":"+1-513-772-9317","email":"","website":"https://rivercitybody.com/","hours":"","brand":"","services":["body_work","body_repair"],"shopType":"general_repair"},{"id":"shop-oh-loveland-wards-corner-collision","name":"Wards Corner Collision","slug":"oh-loveland-wards-corner-collision","lat":39.2237533,"lng":-84.2796252,"state":"OH","city":"Loveland","address":"507 Justice Court","zip":"45140","phone":"","email":"","website":"https://sites.google.com/site/wardscornercollision/","hours":"","brand":"","services":["body_work","body_repair"],"shopType":"body_shop"},{"id":"shop-oh-montgomery-meineke","name":"Meineke","slug":"oh-montgomery-meineke","lat":39.1978802,"lng":-84.3822217,"state":"OH","city":"Montgomery","address":"7784 Montgomery Road","zip":"45236-4202","phone":"","email":"","website":"https://www.meineke.com/Center/269.aspx","hours":"","brand":"Meineke","services":["exhaust"],"shopType":"general_repair"},{"id":"shop-oh-blue-ash-parr-public-safety-equipment","name":"Parr Public Safety Equipment","slug":"oh-blue-ash-parr-public-safety-equipment","lat":39.2709318,"lng":-84.3566412,"state":"OH","city":"Blue Ash","address":"11326 Tamarco Drive","zip":"45242","phone":"+1-419-834-7135","email":"info@parrpse.com","website":"https://parrpse.com/","hours":"Mo-Fr 08:00-16:30","brand":"","services":["general_repair"],"shopType":"general_repair"},{"id":"shop-oh-cincinnati-medina-auto-repair-and-body","name":"Medina Auto Repair and Body","slug":"oh-cincinnati-medina-auto-repair-and-body","lat":39.1138221,"lng":-84.5233394,"state":"OH","city":"Cincinnati","address":"412 West Liberty Street","zip":"45214","phone":"+1-513-442-6983","email":"","website":"","hours":"","brand":"","services":["body_work"],"shopType":"body_shop"},{"id":"shop-oh-cincinnati-the-brothers-auto-tires","name":"The Brothers Auto Tires","slug":"oh-cincinnati-the-brothers-auto-tires","lat":39.119377,"lng":-84.524163,"state":"OH","city":"Cincinnati","address":"2020 Central Parkway","zip":"45214","phone":"+1-513-381-8473","email":"","website":"","hours":"","brand":"","services":["tires"],"shopType":"tire_shop"},{"id":"shop-oh-cincinnati-jerry-ernst-auto-body","name":"Jerry Ernst Auto Body","slug":"oh-cincinnati-jerry-ernst-auto-body","lat":39.1030362,"lng":-84.4339396,"state":"OH","city":"Cincinnati","address":"4167 Kellogg Avenue","zip":"45226","phone":"","email":"","website":"https://jerryernst.com/","hours":"","brand":"","services":["body_work","body_repair"],"shopType":"general_repair"},{"id":"shop-oh-cincinnati-monro-bakes","name":"Monro Bakes","slug":"oh-cincinnati-monro-bakes","lat":39.0722979,"lng":-84.3353349,"state":"OH","city":"Cincinnati","address":"7955 Beechmont Avenue","zip":"45255","phone":"","email":"","website":"","hours":"","brand":"Monro","services":["tires","muffler","exhaust","brakes"],"shopType":"general_repair"},{"id":"shop-oh-cincinnati-caliber-collision","name":"Caliber Collision","slug":"oh-cincinnati-caliber-collision","lat":39.0680676,"lng":-84.295407,"state":"OH","city":"Cincinnati","address":"3995 Commercial Boulevard","zip":"45245","phone":"","email":"","website":"https://www.caliber.com/find-a-location/cincinnati-beechmont","hours":"","brand":"Caliber Collision","services":["body_work","body_repair"],"shopType":"body_shop"},{"id":"shop-oh-loveland-dave-lay-automotive-service","name":"Dave Lay Automotive Service","slug":"oh-loveland-dave-lay-automotive-service","lat":39.2064064,"lng":-84.2180791,"state":"OH","city":"Loveland","address":"1320 State Route 28","zip":"45140","phone":"+1-513-575-3122","email":"","website":"","hours":"","brand":"","services":["general_repair"],"shopType":"general_repair"},{"id":"shop-oh-milford-tire-discounters","name":"Tire Discounters","slug":"oh-milford-tire-discounters","lat":39.1948565,"lng":-84.2337574,"state":"OH","city":"Milford","address":"1107 State Route 28","zip":"45150","phone":"+1-513-575-5500","email":"","website":"","hours":"","brand":"Tire Discounters","services":["tires"],"shopType":"tire_shop"},{"id":"shop-oh-cincinnati-general-auto-repair","name":"General Auto Repair","slug":"oh-cincinnati-general-auto-repair","lat":39.1260389,"lng":-84.4954878,"state":"OH","city":"Cincinnati","address":"659 East McMillan Street","zip":"45206","phone":"","email":"","website":"","hours":"","brand":"","services":["general_repair"],"shopType":"general_repair"},{"id":"shop-oh-mariemont-avid-autocare","name":"Avid Autocare","slug":"oh-mariemont-avid-autocare","lat":39.1377095,"lng":-84.3967826,"state":"OH","city":"Mariemont","address":"5591 Wooster Pike","zip":"45227","phone":"","email":"","website":"https://www.avidautocare.com/","hours":"","brand":"","services":["general_repair"],"shopType":"general_repair"},{"id":"shop-oh-fairfax-precision-motorcars","name":"Precision Motorcars","slug":"oh-fairfax-precision-motorcars","lat":39.1489378,"lng":-84.3983979,"state":"OH","city":"Fairfax","address":"5565 Murray Avenue","zip":"45227","phone":"","email":"","website":"https://www.mercedescarsrepaircincinnati.com/","hours":"","brand":"","services":["general_repair"],"shopType":"general_repair"},{"id":"shop-oh-cincinnati-cobb-s-car-care","name":"Cobb's Car Care","slug":"oh-cincinnati-cobb-s-car-care","lat":39.1501929,"lng":-84.4080029,"state":"OH","city":"Cincinnati","address":"3965 Rosslyn Drive","zip":"45209","phone":"","email":"","website":"","hours":"","brand":"","services":["general_repair"],"shopType":"general_repair"},{"id":"shop-oh-columbia-township-tire-discounters","name":"Tire Discounters","slug":"oh-columbia-township-tire-discounters","lat":39.140462,"lng":-84.3570792,"state":"OH","city":"Columbia Township","address":"7525 Wooster Pike","zip":"45227","phone":"","email":"","website":"https://tirediscounters.com/pages/locations/wooster-pike-oh","hours":"","brand":"Tire Discounters","services":["tires"],"shopType":"tire_shop"},{"id":"shop-oh-cincinnati-eurauto","name":"Eurauto","slug":"oh-cincinnati-eurauto","lat":39.1520786,"lng":-84.3936274,"state":"OH","city":"Cincinnati","address":"5904 Bramble Avenue","zip":"45227","phone":"","email":"","website":"","hours":"","brand":"","services":["general_repair"],"shopType":"general_repair"},{"id":"shop-oh-cincinnati-whitie-s-car-care","name":"Whitie's Car Care","slug":"oh-cincinnati-whitie-s-car-care","lat":39.1294762,"lng":-84.4745158,"state":"OH","city":"Cincinnati","address":"1701 Madison Road","zip":"45206","phone":"+1-513-221-1666","email":"","website":"","hours":"","brand":"","services":["general_repair"],"shopType":"general_repair"},{"id":"shop-oh-cincinnati-elmer-searles","name":"Elmer Searles","slug":"oh-cincinnati-elmer-searles","lat":39.1396048,"lng":-84.4744463,"state":"OH","city":"Cincinnati","address":"3385 Montgomery Road","zip":"45207","phone":"","email":"","website":"","hours":"","brand":"","services":["general_repair"],"shopType":"general_repair"},{"id":"shop-oh-cincinnati-uptowne-tire-company","name":"Uptowne Tire Company","slug":"oh-cincinnati-uptowne-tire-company","lat":39.1399749,"lng":-84.4739416,"state":"OH","city":"Cincinnati","address":"3401 Montgomery Road","zip":"45207","phone":"+1-513-281-3155","email":"","website":"","hours":"","brand":"","services":["tires"],"shopType":"tire_shop"},{"id":"shop-oh-loveland-day-heights-auto-service","name":"Day Heights Auto Service","slug":"oh-loveland-day-heights-auto-service","lat":39.2546857,"lng":-84.2930709,"state":"OH","city":"Loveland","address":"10732 Loveland Madeira Road","zip":"45140","phone":"+1-513-774-1685","email":"","website":"https://dayheightsautoservice.com/loveland","hours":"","brand":"","services":["general_repair"],"shopType":"general_repair"},{"id":"shop-oh-west-chester-bob-sumerel-tire-service","name":"Bob Sumerel Tire & Service","slug":"oh-west-chester-bob-sumerel-tire-service","lat":39.3522258,"lng":-84.3622089,"state":"OH","city":"West Chester","address":"7889 Tylersville Road","zip":"45069","phone":"","email":"","website":"","hours":"","brand":"","services":["tires","car_repair","oil_change"],"shopType":"general_repair"},{"id":"shop-oh-cincinnati-andrew-mallicoat-s-automotive","name":"Andrew Mallicoat’s Automotive","slug":"oh-cincinnati-andrew-mallicoat-s-automotive","lat":39.2937027,"lng":-84.5236039,"state":"OH","city":"Cincinnati","address":"1190 Kemper Meadow Drive","zip":"45240","phone":"+1-513-407-7157","email":"","website":"","hours":"","brand":"","services":["car_repair"],"shopType":"general_repair"},{"id":"shop-oh-miamisburg-ziebart","name":"Ziebart","slug":"oh-miamisburg-ziebart","lat":39.6305775,"lng":-84.2203913,"state":"OH","city":"Miamisburg","address":"8919 Kingsridge Drive","zip":"45458","phone":"","email":"","website":"","hours":"","brand":"","services":["general_repair"],"shopType":"general_repair"},{"id":"shop-oh-sidney-howard-s-tire-services","name":"Howard's Tire Services","slug":"oh-sidney-howard-s-tire-services","lat":40.2864814,"lng":-84.1584756,"state":"OH","city":"Sidney","address":"129 North West Avenue","zip":"45365","phone":"","email":"","website":"","hours":"","brand":"","services":["tires"],"shopType":"tire_shop"},{"id":"shop-oh-goshen-steve-s-classic-cars-llc","name":"Steve's Classic Cars LLC","slug":"oh-goshen-steve-s-classic-cars-llc","lat":39.2332512,"lng":-84.1623137,"state":"OH","city":"Goshen","address":"1843 Main Street","zip":"45122","phone":"","email":"","website":"","hours":"","brand":"","services":["general_repair"],"shopType":"general_repair"},{"id":"shop-oh-huber-heights-tire-discounters","name":"Tire Discounters","slug":"oh-huber-heights-tire-discounters","lat":39.816621,"lng":-84.1292552,"state":"OH","city":"Huber Heights","address":"4414 Brandt Pike","zip":"45424","phone":"+1-937-435-2102","email":"","website":"https://locations.tirediscounters.com/oh/dayton-4414-brandt-pike","hours":"","brand":"Tire Discounters","services":["tires"],"shopType":"tire_shop"},{"id":"shop-oh-cincinnati-jiffy-lube","name":"Jiffy Lube","slug":"oh-cincinnati-jiffy-lube","lat":39.1303919,"lng":-84.4306081,"state":"OH","city":"Cincinnati","address":"3151 Linwood Avenue","zip":"45208","phone":"","email":"","website":"https://www.jiffylube.com/locations/oh/cincinnati/1554","hours":"","brand":"Jiffy Lube","services":["oil_change"],"shopType":"quick_lube"},{"id":"shop-oh-milford-valvoline","name":"Valvoline","slug":"oh-milford-valvoline","lat":39.195553,"lng":-84.2332716,"state":"OH","city":"Milford","address":"1109 State Route 28","zip":"45150","phone":"+1-513-575-1817","email":"","website":"https://store.vioc.com/oh/milford/oil-change-040099.html","hours":"","brand":"Valvoline","services":["oil_change"],"shopType":"quick_lube"},{"id":"shop-oh-huber-heights-valvoline","name":"Valvoline","slug":"oh-huber-heights-valvoline","lat":39.8170068,"lng":-84.1289337,"state":"OH","city":"Huber Heights","address":"4430 Brandt Pike","zip":"45424","phone":"+1-937-235-3489","email":"","website":"https://store.vioc.com/oh/dayton/oil-change-040120.html","hours":"","brand":"Valvoline","services":["oil_change"],"shopType":"quick_lube"},{"id":"shop-oh-cincinnati-t-q-auto-works","name":"T Q Auto Works","slug":"oh-cincinnati-t-q-auto-works","lat":39.054951,"lng":-84.2593196,"state":"OH","city":"Cincinnati","address":"1065 Ohio Pike","zip":"45245","phone":"","email":"","website":"","hours":"","brand":"","services":["general_repair"],"shopType":"general_repair"},{"id":"shop-oh-cincinnati-caliber-collision-2","name":"Caliber Collision","slug":"oh-cincinnati-caliber-collision-2","lat":39.096074,"lng":-84.2816593,"state":"OH","city":"Cincinnati","address":"4425 Aicholtz Road","zip":"45245","phone":"","email":"","website":"","hours":"","brand":"Caliber Collision","services":["body_work","body_repair"],"shopType":"body_shop"},{"id":"shop-oh-cincinnati-oil-express","name":"Oil Express","slug":"oh-cincinnati-oil-express","lat":39.0976828,"lng":-84.2624198,"state":"OH","city":"Cincinnati","address":"4468 Glen Este-Withamsville Road","zip":"45245","phone":"","email":"","website":"","hours":"","brand":"","services":["general_repair"],"shopType":"general_repair"},{"id":"shop-oh-cincinnati-brock-s-auto-service","name":"Brock's Auto Service","slug":"oh-cincinnati-brock-s-auto-service","lat":39.1547209,"lng":-84.542098,"state":"OH","city":"Cincinnati","address":"3719 Spring Grove Avenue","zip":"45223","phone":"+1-513-542-6500","email":"","website":"http://brocksasc.com/","hours":"Mo-Fr 08:00-17:00","brand":"","services":["general_repair"],"shopType":"general_repair"},{"id":"shop-oh-sharonville-gem-city-tire-services-center","name":"Gem City Tire & Services Center","slug":"oh-sharonville-gem-city-tire-services-center","lat":39.2928685,"lng":-84.424881,"state":"OH","city":"Sharonville","address":"77 Partnership Way","zip":"45241","phone":"+1-513-769-0007","email":"","website":"http://gemcitytire.com","hours":"","brand":"","services":["tires","tyres"],"shopType":"general_repair"},{"id":"shop-oh-cincinnati-firestone","name":"Firestone","slug":"oh-cincinnati-firestone","lat":39.1040378,"lng":-84.2742195,"state":"OH","city":"Cincinnati","address":"4625 Eastgate Boulevard","zip":"45245","phone":"+1-513-370-2315","email":"","website":"https://www.firestonecompleteautocare.com/ohio/cincinnati/4625-eastgate-blvd/","hours":"","brand":"Firestone","services":["general_repair"],"shopType":"general_repair"},{"id":"shop-oh-milford-day-heights-auto-service","name":"Day Heights Auto Service","slug":"oh-milford-day-heights-auto-service","lat":39.1764515,"lng":-84.2279973,"state":"OH","city":"Milford","address":"1236 State Route 131","zip":"45150","phone":"","email":"","website":"https://dayheightsautoservice.com/milford","hours":"","brand":"","services":["struts","tires","towing","brakes","shock_absorbers","tyres"],"shopType":"general_repair"},{"id":"shop-oh-beavercreek-tire-choice-auto-service-center","name":"Tire Choice Auto Service Center","slug":"oh-beavercreek-tire-choice-auto-service-center","lat":39.7273298,"lng":-84.053693,"state":"OH","city":"Beavercreek","address":"3198 Dayton-Xenia Road","zip":"45432","phone":"+1-937-427-0050","email":"","website":"","hours":"Mo-Fr 07:30-19:00; Sa 07:30-18:00; Su 09:00-17:00","brand":"","services":["tires"],"shopType":"tire_shop"},{"id":"shop-oh-brookville-hatmaker-service-center","name":"Hatmaker Service Center","slug":"oh-brookville-hatmaker-service-center","lat":39.8354785,"lng":-84.4138929,"state":"OH","city":"Brookville","address":"7 South Wolf Creek Street","zip":"45309","phone":"","email":"","website":"","hours":"","brand":"","services":["general_repair"],"shopType":"general_repair"},{"id":"shop-oh-fairborn-john-pierce-auto-care","name":"John Pierce Auto Care","slug":"oh-fairborn-john-pierce-auto-care","lat":39.8134254,"lng":-84.0218277,"state":"OH","city":"Fairborn","address":"808 South Central Avenue","zip":"45324","phone":"+1937-878-3601","email":"","website":"http://www.johnpierceautocare.com/","hours":"","brand":"","services":["general_repair"],"shopType":"general_repair"},{"id":"shop-oh-milford-tug-s-auto-works-towing","name":"Tug’s Auto Works Towing","slug":"oh-milford-tug-s-auto-works-towing","lat":39.1330135,"lng":-84.2291281,"state":"OH","city":"Milford","address":"1339 US 50","zip":"45150","phone":"","email":"","website":"","hours":"","brand":"","services":["towing","car_repair"],"shopType":"general_repair"},{"id":"shop-oh-dayton-grismer-tire-and-auto","name":"Grismer Tire and Auto","slug":"oh-dayton-grismer-tire-and-auto","lat":39.7475387,"lng":-84.1910287,"state":"OH","city":"Dayton","address":"815 South Patterson Boulevard","zip":"45402","phone":"+1-937-223-3244","email":"","website":"https://www.grismertire.com/","hours":"Mo-Fr 07:30-18:00; Sa 07:30-16:00","brand":"","services":["tires"],"shopType":"tire_shop"},{"id":"shop-oh-dayton-x-treme-auto-sports","name":"X-treme Auto Sports","slug":"oh-dayton-x-treme-auto-sports","lat":39.7493453,"lng":-84.1864082,"state":"OH","city":"Dayton","address":"331 Warren Street","zip":"45410","phone":"","email":"","website":"","hours":"","brand":"","services":["general_repair"],"shopType":"general_repair"},{"id":"shop-oh-dayton-all-tune-lube","name":"All Tune & Lube","slug":"oh-dayton-all-tune-lube","lat":39.7600985,"lng":-84.1858615,"state":"OH","city":"Dayton","address":"400 East 3rd Street","zip":"45402","phone":"+1-937-222-7768","email":"","website":"https://www.atldayton.com/","hours":"","brand":"","services":["oil_change","car_repair"],"shopType":"quick_lube"},{"id":"shop-oh-amelia-carstar","name":"CARSTAR","slug":"oh-amelia-carstar","lat":39.0236077,"lng":-84.2125717,"state":"OH","city":"Amelia","address":"100 East Main Street","zip":"45102","phone":"","email":"","website":"","hours":"","brand":"Carstar","services":["body_work","body_repair"],"shopType":"general_repair"},{"id":"shop-oh-batavia-king-s-kustoms-motorcycles","name":"King's Kustoms Motorcycles","slug":"oh-batavia-king-s-kustoms-motorcycles","lat":39.0111788,"lng":-84.1732013,"state":"OH","city":"Batavia","address":"3325 State Route 222","zip":"45103","phone":"","email":"","website":"","hours":"","brand":"","services":["general_repair"],"shopType":"general_repair"},{"id":"shop-oh-amelia-brads-glass","name":"Brads Glass","slug":"oh-amelia-brads-glass","lat":39.0074602,"lng":-84.1654137,"state":"OH","city":"Amelia","address":"2164 State Route 125","zip":"45102","phone":"","email":"","website":"","hours":"","brand":"","services":["glass","glass_repair"],"shopType":"general_repair"},{"id":"shop-oh-amelia-fugi-s-diesel","name":"Fugi's Diesel","slug":"oh-amelia-fugi-s-diesel","lat":39.0067434,"lng":-84.1599234,"state":"OH","city":"Amelia","address":"2280 State Route 125","zip":"45102","phone":"","email":"","website":"","hours":"","brand":"","services":["diesel"],"shopType":"general_repair"},{"id":"shop-oh-bethel-bethel-tire","name":"Bethel Tire","slug":"oh-bethel-bethel-tire","lat":38.9636702,"lng":-84.090066,"state":"OH","city":"Bethel","address":"3100 State Route 232","zip":"45106","phone":"","email":"","website":"","hours":"","brand":"","services":["tires"],"shopType":"tire_shop"},{"id":"shop-oh-williamsburg-auto-truck-of-williamsburg","name":"Auto & Truck of Williamsburg","slug":"oh-williamsburg-auto-truck-of-williamsburg","lat":39.053434,"lng":-84.0511569,"state":"OH","city":"Williamsburg","address":"138 West Main Street","zip":"45176","phone":"","email":"","website":"","hours":"","brand":"","services":["truck_repair","car_repair"],"shopType":"general_repair"},{"id":"shop-oh-centerville-c-s-autohaus","name":"C's Autohaus","slug":"oh-centerville-c-s-autohaus","lat":39.6510513,"lng":-84.1257534,"state":"OH","city":"Centerville","address":"1690 Thomas Paine Parkway","zip":"45459","phone":"+1 937 428 6040","email":"","website":"https://csautohaus.com/","hours":"Mo-Th 07:00-17:30","brand":"","services":["general_repair"],"shopType":"general_repair"},{"id":"shop-oh-beavercreek-foreign-exchange-import-auto-repair","name":"Foreign Exchange Import Auto Repair","slug":"oh-beavercreek-foreign-exchange-import-auto-repair","lat":39.7749324,"lng":-84.0757888,"state":"OH","city":"Beavercreek","address":"3899 Colonel Glenn Highway","zip":"45324","phone":"+1-937-320-1234","email":"","website":"https://www.foreignx.com/locations/beavercreek/","hours":"","brand":"","services":["general_repair"],"shopType":"general_repair"},{"id":"shop-oh-batavia-valvoline-express-care","name":"Valvoline Express Care","slug":"oh-batavia-valvoline-express-care","lat":39.0814735,"lng":-84.1495206,"state":"OH","city":"Batavia","address":"1020 Hospital Drive","zip":"45103","phone":"","email":"","website":"","hours":"","brand":"Valvoline","services":["oil_change"],"shopType":"quick_lube"},{"id":"shop-oh-milford-jessee-s-auto-service","name":"Jessee's Auto Service","slug":"oh-milford-jessee-s-auto-service","lat":39.177579,"lng":-84.2838402,"state":"OH","city":"Milford","address":"751 Main Street","zip":"45150","phone":"+1-513-831-0940","email":"","website":"https://www.jesseesautoservice.com/","hours":"Mo-Fr 07:30-19:00; Sa 08:00-18:00","brand":"","services":["general_repair"],"shopType":"general_repair"},{"id":"shop-oh-milford-carx","name":"CarX","slug":"oh-milford-carx","lat":39.1925795,"lng":-84.2493227,"state":"OH","city":"Milford","address":"960 Cook Road","zip":"45150","phone":"","email":"","website":"","hours":"","brand":"Car-X","services":["general_repair"],"shopType":"general_repair"},{"id":"shop-oh-milford-firestone","name":"Firestone","slug":"oh-milford-firestone","lat":39.1926032,"lng":-84.249561,"state":"OH","city":"Milford","address":"956 Business State Route 28","zip":"45150","phone":"","email":"","website":"","hours":"","brand":"Firestone","services":["general_repair"],"shopType":"general_repair"},{"id":"shop-oh-milford-perry-s-auto-repair-care","name":"Perry's Auto Repair & Care","slug":"oh-milford-perry-s-auto-repair-care","lat":39.1921259,"lng":-84.2512281,"state":"OH","city":"Milford","address":"938 Business State Route 28","zip":"45150","phone":"","email":"","website":"","hours":"","brand":"","services":["general_repair"],"shopType":"general_repair"},{"id":"shop-oh-columbus-petty-s-auto-service","name":"Petty's Auto Service","slug":"oh-columbus-petty-s-auto-service","lat":39.9569738,"lng":-82.9854105,"state":"OH","city":"Columbus","address":"330 South Washington Avenue","zip":"43215","phone":"+1-614-224-5566","email":"","website":"https://pettysauto.com/","hours":"","brand":"","services":["general_repair"],"shopType":"general_repair"},{"id":"shop-oh-columbus-katz-tires","name":"Katz Tires","slug":"oh-columbus-katz-tires","lat":39.9572436,"lng":-82.9866349,"state":"OH","city":"Columbus","address":"475 East Main Street","zip":"43215","phone":"+1-614-224-1926","email":"katztires@yahoo.com","website":"https://www.katztires.com/locations/mode/1/475-east-main-street-columbus-oh-43215.aspx","hours":"","brand":"","services":["tires"],"shopType":"tire_shop"},{"id":"shop-oh-columbus-grismer-tire-auto-service","name":"Grismer Tire & Auto Service","slug":"oh-columbus-grismer-tire-auto-service","lat":39.9563333,"lng":-82.994528,"state":"OH","city":"Columbus","address":"300 South Fourth Street","zip":"43215","phone":"+1-614-221-9770","email":"","website":"https://www.grismertire.com","hours":"Mo-Fr 07:00-18:00; Sa 07:30-14:00","brand":"","services":["tires"],"shopType":"tire_shop"},{"id":"shop-oh-dayton-little-giant-auto-body-paint-repair","name":"Little Giant Auto Body Paint & Repair","slug":"oh-dayton-little-giant-auto-body-paint-repair","lat":39.7232043,"lng":-84.1618086,"state":"OH","city":"Dayton","address":"428 Littell Avenue","zip":"45419","phone":"+1-937-351-5354","email":"","website":"https://www.autobodyrepairdaytonohio.com/","hours":"","brand":"","services":["body_work"],"shopType":"body_shop"},{"id":"shop-oh-dayton-kettering-oakwood-automotive","name":"Kettering-Oakwood Automotive","slug":"oh-dayton-kettering-oakwood-automotive","lat":39.7208631,"lng":-84.1608701,"state":"OH","city":"Dayton","address":"1018 Shroyer Road","zip":"45419","phone":"+1-937-299-2468","email":"","website":"","hours":"","brand":"","services":["car_repair","oil_change","tyres","diagnostics","tires","brakes","muffler","batteries","repairs","inspection","exhaust"],"shopType":"general_repair"},{"id":"shop-oh-dayton-top-notch-auto-enhancement","name":"Top Notch Auto Enhancement","slug":"oh-dayton-top-notch-auto-enhancement","lat":39.7237748,"lng":-84.1614219,"state":"OH","city":"Dayton","address":"435 Littell Avenue","zip":"45419","phone":"","email":"","website":"","hours":"","brand":"","services":["general_repair"],"shopType":"general_repair"},{"id":"shop-oh-columbus-parr-public-safety-equipment","name":"Parr Public Safety Equipment","slug":"oh-columbus-parr-public-safety-equipment","lat":39.9060868,"lng":-83.1583095,"state":"OH","city":"Columbus","address":"6106 Bausch Road","zip":"43119","phone":"+1-614-873-7200","email":"info@parrpse.com","website":"https://parrpse.com/","hours":"Mo-Fr 08:00-16:30","brand":"","services":["general_repair"],"shopType":"general_repair"},{"id":"shop-oh-cincinnati-east-hill-garage","name":"East Hill Garage","slug":"oh-cincinnati-east-hill-garage","lat":39.1331189,"lng":-84.4605093,"state":"OH","city":"Cincinnati","address":"3009 Lavinia Avenue","zip":"45208","phone":"+1 513 321 3955","email":"easthillgarage@fuse.net","website":"http://www.cinbbb.net/east_hill_garage_inc","hours":"Mo-Fr 08:00-17:00","brand":"","services":["general_repair"],"shopType":"general_repair"},{"id":"shop-oh-cincinnati-don-s-auto-repair","name":"Don's Auto Repair","slug":"oh-cincinnati-don-s-auto-repair","lat":39.1176622,"lng":-84.4386299,"state":"OH","city":"Cincinnati","address":"410 Delta Avenue","zip":"45226","phone":"","email":"","website":"","hours":"","brand":"","services":["general_repair"],"shopType":"general_repair"},{"id":"shop-oh-logan-fraun-s-service-garage","name":"Fraun's Service Garage","slug":"oh-logan-fraun-s-service-garage","lat":39.5391935,"lng":-82.4045202,"state":"OH","city":"Logan","address":"65 South Orchard Street","zip":"43138","phone":"","email":"","website":"","hours":"","brand":"","services":["general_repair"],"shopType":"general_repair"},{"id":"shop-oh-dublin-sears-auto-center","name":"Sears Auto Center","slug":"oh-dublin-sears-auto-center","lat":40.0763404,"lng":-83.1275416,"state":"OH","city":"Dublin","address":"4975 Tuttle Crossing Boulevard","zip":"43017","phone":"","email":"","website":"","hours":"","brand":"Sears Auto Center","services":["general_repair"],"shopType":"general_repair"},{"id":"shop-oh-cincinnati-firestone-2","name":"Firestone","slug":"oh-cincinnati-firestone-2","lat":39.0732311,"lng":-84.3346441,"state":"OH","city":"Cincinnati","address":"7978 Beechmont Avenue","zip":"45255","phone":"","email":"","website":"","hours":"","brand":"Firestone","services":["general_repair"],"shopType":"general_repair"},{"id":"shop-oh-columbus-ntb","name":"NTB","slug":"oh-columbus-ntb","lat":40.0127464,"lng":-82.9940667,"state":"OH","city":"Columbus","address":"2385 Silver Drive","zip":"43211","phone":"","email":"","website":"https://www.ntb.com/store/oh/columbus/2385-silver-dr-43211/4336","hours":"","brand":"NTB","services":["tires"],"shopType":"general_repair"},{"id":"shop-oh-columbus-meineke","name":"Meineke","slug":"oh-columbus-meineke","lat":40.0876321,"lng":-83.0924807,"state":"OH","city":"Columbus","address":"5933 Sawmill Road","zip":"43017","phone":"","email":"","website":"","hours":"","brand":"Meineke","services":["exhaust"],"shopType":"general_repair"},{"id":"shop-oh-dublin-germain-honda","name":"Germain Honda","slug":"oh-dublin-germain-honda","lat":40.1038505,"lng":-83.0922652,"state":"OH","city":"Dublin","address":"6715 Sawmill Road","zip":"43017","phone":"","email":"","website":"","hours":"","brand":"","services":["general_repair"],"shopType":"general_repair"},{"id":"shop-oh-fairfax-aaa","name":"AAA","slug":"oh-fairfax-aaa","lat":39.149164,"lng":-84.403837,"state":"OH","city":"Fairfax","address":"3998 Red Bank Road","zip":"45227","phone":"","email":"","website":"","hours":"","brand":"","services":["general_repair"],"shopType":"general_repair"},{"id":"shop-oh-cincinnati-tire-discounters","name":"Tire Discounters","slug":"oh-cincinnati-tire-discounters","lat":39.1508987,"lng":-84.4044626,"state":"OH","city":"Cincinnati","address":"4031 Red Bank Road","zip":"45227","phone":"","email":"","website":"","hours":"","brand":"Tire Discounters","services":["tires"],"shopType":"tire_shop"},{"id":"shop-oh-cincinnati-take-5-oil-change","name":"Take 5 Oil Change","slug":"oh-cincinnati-take-5-oil-change","lat":39.0652975,"lng":-84.2962468,"state":"OH","city":"Cincinnati","address":"601 Ohio Pike","zip":"45245","phone":"","email":"","website":"","hours":"","brand":"Take 5","services":["oil_change"],"shopType":"quick_lube"},{"id":"shop-oh-powell-midas","name":"Midas","slug":"oh-powell-midas","lat":40.1598234,"lng":-83.0901043,"state":"OH","city":"Powell","address":"9595 Galloway Drive","zip":"43065","phone":"+1 614-210-3118","email":"","website":"https://www.midas.com/store/oh/powell/9595-galloway-drive-43065?shopnum=6137","hours":"","brand":"Midas","services":["general_repair"],"shopType":"general_repair"},{"id":"shop-oh-columbus-grismer-tire","name":"Grismer Tire","slug":"oh-columbus-grismer-tire","lat":39.9671108,"lng":-83.0957879,"state":"OH","city":"Columbus","address":"655 N Wilson Road","zip":"43204","phone":"+1-614-276-0065","email":"","website":"https://www.grismertire.com/","hours":"","brand":"","services":["tires"],"shopType":"tire_shop"},{"id":"shop-oh-wintersville-molinaro-s-collision-center","name":"Molinaro's Collision Center","slug":"oh-wintersville-molinaro-s-collision-center","lat":40.3750971,"lng":-80.6951346,"state":"OH","city":"Wintersville","address":"100 Gumps Lane","zip":"43953","phone":"","email":"","website":"","hours":"","brand":"","services":["body_work"],"shopType":"body_shop"},{"id":"shop-oh-cincinnati-delta-car-care","name":"Delta Car Care","slug":"oh-cincinnati-delta-car-care","lat":39.1182711,"lng":-84.4381211,"state":"OH","city":"Cincinnati","address":"438 Delta Avenue","zip":"45226","phone":"","email":"","website":"","hours":"","brand":"","services":["general_repair"],"shopType":"general_repair"},{"id":"shop-oh-cincinnati-village-quik-lube","name":"Village Quik Lube","slug":"oh-cincinnati-village-quik-lube","lat":39.124415,"lng":-84.3552651,"state":"OH","city":"Cincinnati","address":"7101 Main Street","zip":"45244","phone":"+1-513-272-0677","email":"","website":"","hours":"","brand":"","services":["oil_change"],"shopType":"quick_lube"},{"id":"shop-oh-columbus-valvoline","name":"Valvoline","slug":"oh-columbus-valvoline","lat":40.022743,"lng":-83.014119,"state":"OH","city":"Columbus","address":"2975 North High Street","zip":"43202","phone":"","email":"","website":"https://store.vioc.com/oh/columbus/oil-change-060011.html","hours":"Mo-Sa 08:00-20:00; Su 10:00-17:00","brand":"Valvoline","services":["oil_change"],"shopType":"quick_lube"},{"id":"shop-oh-cincinnati-valvoline","name":"Valvoline","slug":"oh-cincinnati-valvoline","lat":39.0978903,"lng":-84.2701352,"state":"OH","city":"Cincinnati","address":"820 Eastgate North Drive","zip":"45245","phone":"+1-513-752-2596","email":"","website":"https://store.vioc.com/oh/cincinnati/oil-change-040121.html","hours":"","brand":"Valvoline","services":["oil_change"],"shopType":"quick_lube"},{"id":"shop-oh-columbus-a-team-transmission-huntley","name":"A Team Transmission - Huntley","slug":"oh-columbus-a-team-transmission-huntley","lat":40.091988,"lng":-82.9973839,"state":"OH","city":"Columbus","address":"6200-C Huntley Road","zip":"43229","phone":"+1-614-848-8484","email":"","website":"https://ateamtransmissions.com/","hours":"","brand":"","services":["transmission"],"shopType":"transmission_shop"},{"id":"shop-oh-columbus-crash-champions","name":"CRASH CHAMPIONS","slug":"oh-columbus-crash-champions","lat":39.9818173,"lng":-82.8279975,"state":"OH","city":"Columbus","address":"6250 East Broad Street","zip":"43213","phone":"","email":"","website":"","hours":"","brand":"Crash Champions","services":["body_work","body_repair"],"shopType":"general_repair"},{"id":"shop-oh-columbus-jiffy-lube","name":"Jiffy Lube","slug":"oh-columbus-jiffy-lube","lat":39.9519309,"lng":-82.9841251,"state":"OH","city":"Columbus","address":"535 East Livingston Avenue","zip":"43215","phone":"+1-614-221-5823","email":"","website":"https://www.jiffylube.com/locations/oh/columbus/1750","hours":"Mo-Fr 08:00-18:00; Sa 08:00-17:00; Su 10:00-16:00","brand":"Jiffy Lube","services":["oil_change"],"shopType":"quick_lube"},{"id":"shop-oh-columbus-mtk-auto-detailing","name":"MTK Auto Detailing","slug":"oh-columbus-mtk-auto-detailing","lat":39.9472813,"lng":-82.9831491,"state":"OH","city":"Columbus","address":"807 Parsons Avenue","zip":"43206","phone":"+1-614-749-2230","email":"","website":"","hours":"","brand":"","services":["general_repair"],"shopType":"general_repair"},{"id":"shop-oh-athens-alvis-auto-repair","name":"Alvis Auto Repair","slug":"oh-athens-alvis-auto-repair","lat":39.3542114,"lng":-82.1009842,"state":"OH","city":"Athens","address":"Columbus Road","zip":"","phone":"","email":"","website":"","hours":"","brand":"","services":["general_repair"],"shopType":"general_repair"},{"id":"shop-oh-columbus-firestone-complete-auto-care","name":"Firestone Complete Auto Care","slug":"oh-columbus-firestone-complete-auto-care","lat":40.1409589,"lng":-82.9645872,"state":"OH","city":"Columbus","address":"8510 Orion Place","zip":"43240","phone":"","email":"","website":"","hours":"","brand":"Firestone","services":["general_repair"],"shopType":"general_repair"},{"id":"shop-oh-columbus-tuffy","name":"Tuffy","slug":"oh-columbus-tuffy","lat":40.1188591,"lng":-83.0670098,"state":"OH","city":"Columbus","address":"7854 Smoky Row Road","zip":"43235","phone":"","email":"","website":"","hours":"","brand":"Tuffy","services":["general_repair"],"shopType":"general_repair"},{"id":"shop-oh-zanesville-wolfe-radiator-works","name":"Wolfe Radiator Works","slug":"oh-zanesville-wolfe-radiator-works","lat":39.9141392,"lng":-82.0138788,"state":"OH","city":"Zanesville","address":"1710 Maysville Avenue","zip":"43701","phone":"+1 740-454-3220;+1 989-839-2744","email":"steve@wolferadiator.com","website":"http://wolferadiator.com/home.html","hours":"","brand":"","services":["radiators"],"shopType":"general_repair"},{"id":"shop-oh-zanesville-dutro-body-shop","name":"Dutro Body Shop","slug":"oh-zanesville-dutro-body-shop","lat":39.9135498,"lng":-82.0140176,"state":"OH","city":"Zanesville","address":"1730 Maysville Avenue","zip":"43701","phone":"+1 740-455-4400","email":"","website":"https://www.dutrosauto.com/dutro-body-shop","hours":"","brand":"","services":["body_work","body_repair"],"shopType":"body_shop"},{"id":"shop-oh-columbus-good-grip-tires-auto-repair","name":"Good Grip Tires & Auto Repair","slug":"oh-columbus-good-grip-tires-auto-repair","lat":39.9421767,"lng":-82.9828694,"state":"OH","city":"Columbus","address":"1048 Parsons Avenue","zip":"43206","phone":"+1-614-696-4015","email":"","website":"https://ggtautorepair.com/","hours":"Mo-Sa 08:30-18:00; Su 10:00-16:45","brand":"","services":["tires"],"shopType":"tire_shop"},{"id":"shop-oh-cincinnati-discount-tire","name":"Discount Tire","slug":"oh-cincinnati-discount-tire","lat":39.0658765,"lng":-84.2972425,"state":"OH","city":"Cincinnati","address":"595 Ohio Pike","zip":"45245","phone":"","email":"","website":"","hours":"","brand":"Discount Tire","services":["tires"],"shopType":"tire_shop"},{"id":"shop-oh-morrow-smith-brothers-llc","name":"Smith Brothers LLC","slug":"oh-morrow-smith-brothers-llc","lat":39.3543435,"lng":-84.1270039,"state":"OH","city":"Morrow","address":"255 East Pike Street","zip":"45152","phone":"","email":"","website":"","hours":"","brand":"","services":["general_repair"],"shopType":"general_repair"},{"id":"shop-oh-columbus-tire-discounters","name":"Tire Discounters","slug":"oh-columbus-tire-discounters","lat":40.1478329,"lng":-82.9893517,"state":"OH","city":"Columbus","address":"1050 Gemini Place","zip":"43240","phone":"","email":"","website":"","hours":"","brand":"Tire Discounters","services":["tires"],"shopType":"tire_shop"},{"id":"shop-oh-grove-city-discount-tire","name":"Discount Tire","slug":"oh-grove-city-discount-tire","lat":39.8790503,"lng":-83.0401324,"state":"OH","city":"Grove City","address":"1710 Stringtown Road","zip":"43123","phone":"","email":"","website":"","hours":"","brand":"Discount Tire","services":["tires"],"shopType":"tire_shop"},{"id":"shop-oh-columbus-firestone","name":"Firestone","slug":"oh-columbus-firestone","lat":39.8826191,"lng":-83.0018687,"state":"OH","city":"Columbus","address":"35 Great Southern Boulevard","zip":"43207","phone":"","email":"","website":"","hours":"","brand":"Firestone","services":["general_repair"],"shopType":"general_repair"},{"id":"shop-oh-mason-r-m-foreign-auto","name":"R&M Foreign Auto","slug":"oh-mason-r-m-foreign-auto","lat":39.3546153,"lng":-84.3187585,"state":"OH","city":"Mason","address":"635 Reading Road","zip":"","phone":"","email":"","website":"","hours":"","brand":"","services":["car_repair"],"shopType":"general_repair"},{"id":"shop-oh-newark-offeys-body-shop","name":"Offeys body Shop","slug":"oh-newark-offeys-body-shop","lat":40.0481369,"lng":-82.4269094,"state":"OH","city":"Newark","address":"165 South Williams Street","zip":"43055","phone":"+1-740-344-5331","email":"","website":"","hours":"","brand":"","services":["body_work","body_repair"],"shopType":"body_shop"},{"id":"shop-oh-newark-car-kings","name":"Car Kings","slug":"oh-newark-car-kings","lat":40.0492785,"lng":-82.4263013,"state":"OH","city":"Newark","address":"87 South Williams Street","zip":"43055","phone":"+16142269350","email":"","website":"","hours":"","brand":"","services":["body_work","window_tinting","carwash","detailing","painting","body_repair","bumper_repair","lights_restoration"],"shopType":"general_repair"},{"id":"shop-oh-columbus-napa-auto-care-center","name":"Napa Auto Care Center","slug":"oh-columbus-napa-auto-care-center","lat":40.0839666,"lng":-82.9476413,"state":"OH","city":"Columbus","address":"2661 Northland Plaza Drive","zip":"43231","phone":"","email":"","website":"","hours":"","brand":"","services":["general_repair"],"shopType":"general_repair"},{"id":"shop-oh-gahanna-a-1-body-frame","name":"A-1 Body & Frame","slug":"oh-gahanna-a-1-body-frame","lat":40.0170505,"lng":-82.88937,"state":"OH","city":"Gahanna","address":"324 W Johnstown Road","zip":"43230","phone":"","email":"","website":"","hours":"Mo-Sa 08:00-17:00","brand":"","services":["body_work","body_repair"],"shopType":"general_repair"},{"id":"shop-oh-marengo-gene-s-auto-service","name":"Gene's Auto Service","slug":"oh-marengo-gene-s-auto-service","lat":40.4017847,"lng":-82.8085828,"state":"OH","city":"Marengo","address":"43 East Noble Street","zip":"43334","phone":"","email":"","website":"","hours":"","brand":"","services":["general_repair"],"shopType":"general_repair"},{"id":"shop-oh-carlisle-phil-s-auto","name":"Phil's Auto","slug":"oh-carlisle-phil-s-auto","lat":39.5746105,"lng":-84.3061369,"state":"OH","city":"Carlisle","address":"343 Central Avenue","zip":"45005","phone":"+1 937 746 0278","email":"","website":"https://www.greatwater360autocare.com/shops/phils-auto","hours":"Mo-Fr 07:30-17:30","brand":"","services":["tires","car_repair","tyres"],"shopType":"general_repair"},{"id":"shop-oh-carlisle-carlisle-auto-tire","name":"Carlisle Auto & Tire","slug":"oh-carlisle-carlisle-auto-tire","lat":39.5784707,"lng":-84.3103729,"state":"OH","city":"Carlisle","address":"120 Union Road","zip":"45005","phone":"+1-937-743-0752","email":"","website":"https://www.carlisleautoandtire.com/","hours":"Mo-Fr 08:00-18:00","brand":"","services":["tires","car_repair"],"shopType":"general_repair"},{"id":"shop-oh-columbus-mr-tire-auto-service-centers","name":"Mr. Tire Auto Service Centers","slug":"oh-columbus-mr-tire-auto-service-centers","lat":40.0613053,"lng":-82.9768857,"state":"OH","city":"Columbus","address":"4636 Karl Road","zip":"43229","phone":"","email":"","website":"","hours":"","brand":"","services":["tires"],"shopType":"tire_shop"},{"id":"shop-oh-columbus-firestone-2","name":"Firestone","slug":"oh-columbus-firestone-2","lat":40.0609128,"lng":-82.971425,"state":"OH","city":"Columbus","address":"1796 Morse Road","zip":"43229","phone":"","email":"","website":"","hours":"","brand":"Firestone","services":["general_repair"],"shopType":"general_repair"},{"id":"shop-oh-dublin-boy-rad-goodyear-tire-service","name":"Boy-Rad Goodyear Tire & Service","slug":"oh-dublin-boy-rad-goodyear-tire-service","lat":40.123894,"lng":-83.0893895,"state":"OH","city":"Dublin","address":"7742 Sawmill Road","zip":"43016","phone":"","email":"","website":"","hours":"","brand":"Goodyear","services":["tires"],"shopType":"tire_shop"},{"id":"shop-oh-cincinnati-mccabe-motors","name":"McCabe Motors","slug":"oh-cincinnati-mccabe-motors","lat":39.0260888,"lng":-84.3190522,"state":"OH","city":"Cincinnati","address":"8655 Old Kellogg Road","zip":"45255","phone":"","email":"","website":"","hours":"","brand":"","services":["general_repair"],"shopType":"general_repair"},{"id":"shop-oh-cincinnati-pearce-s-auto-care","name":"Pearce's Auto Care","slug":"oh-cincinnati-pearce-s-auto-care","lat":39.2003598,"lng":-84.5470582,"state":"OH","city":"Cincinnati","address":"6014 Hamilton Avenue","zip":"45224","phone":"+1-513-541-8700","email":"","website":"","hours":"","brand":"","services":["general_repair"],"shopType":"general_repair"},{"id":"shop-oh-columbus-eurotech","name":"Eurotech","slug":"oh-columbus-eurotech","lat":39.9912932,"lng":-83.0297125,"state":"OH","city":"Columbus","address":"858 King Avenue","zip":"43212","phone":"+1-614-440-1869","email":"","website":"http://www.eurotechohio.net","hours":"","brand":"","services":["general_repair"],"shopType":"general_repair"},{"id":"shop-oh-milford-steve-s-car-care","name":"Steve's Car Care","slug":"oh-milford-steve-s-car-care","lat":39.2007262,"lng":-84.2258217,"state":"OH","city":"Milford","address":"1220 State Route 28","zip":"45150","phone":"+1-513-880-4448","email":"","website":"https://stevescarcaremilford.com/","hours":"","brand":"","services":["general_repair"],"shopType":"general_repair"},{"id":"shop-oh-steubenville-firestone","name":"Firestone","slug":"oh-steubenville-firestone","lat":40.3617534,"lng":-80.6154743,"state":"OH","city":"Steubenville","address":"","zip":"","phone":"","email":"","website":"","hours":"","brand":"Firestone","services":["general_repair"],"shopType":"general_repair"},{"id":"shop-oh-dayton-carl-s-body-shop","name":"Carl’s Body Shop","slug":"oh-dayton-carl-s-body-shop","lat":39.7509553,"lng":-84.1751998,"state":"OH","city":"Dayton","address":"1120 Wayne Avenue","zip":"45410","phone":"","email":"","website":"https://carlsbodyshop.com/","hours":"","brand":"","services":["body_work"],"shopType":"body_shop"},{"id":"shop-oh-dayton-wayne-tire-center","name":"Wayne Tire Center","slug":"oh-dayton-wayne-tire-center","lat":39.7494301,"lng":-84.1745327,"state":"OH","city":"Dayton","address":"Wayne Avenue","zip":"45410","phone":"+1-937-222-7006","email":"","website":"","hours":"","brand":"","services":["tires"],"shopType":"tire_shop"},{"id":"shop-oh-dayton-wayne-tire-center-2","name":"Wayne Tire Center","slug":"oh-dayton-wayne-tire-center-2","lat":39.748714,"lng":-84.1729835,"state":"OH","city":"Dayton","address":"1400 Wayne Avenue","zip":"45410","phone":"","email":"","website":"","hours":"","brand":"","services":["tires"],"shopType":"tire_shop"},{"id":"shop-oh-cincinnati-valvoline-2","name":"Valvoline","slug":"oh-cincinnati-valvoline-2","lat":39.145119,"lng":-84.4439489,"state":"OH","city":"Cincinnati","address":"2690 Madison Road","zip":"45208","phone":"","email":"","website":"https://store.vioc.com/oh/cincinnati/oil-change-040114.html","hours":"","brand":"Valvoline","services":["oil_change"],"shopType":"quick_lube"},{"id":"shop-oh-westerville-westerville-automotive-uptown","name":"Westerville Automotive Uptown","slug":"oh-westerville-westerville-automotive-uptown","lat":40.1265985,"lng":-82.93048,"state":"OH","city":"Westerville","address":"31 East Main Street","zip":"43081","phone":"+1-614-890-6700","email":"","website":"https://www.westervilleautomotive.com/","hours":"","brand":"","services":["car_repair","body_work","body_repair"],"shopType":"general_repair"},{"id":"shop-oh-cincinnati-tire-discounters-2","name":"Tire Discounters","slug":"oh-cincinnati-tire-discounters-2","lat":39.1631144,"lng":-84.4241597,"state":"OH","city":"Cincinnati","address":"4902 Marburg Avenue","zip":"45209","phone":"","email":"","website":"","hours":"","brand":"Tire Discounters","services":["tires"],"shopType":"tire_shop"},{"id":"shop-oh-cincinnati-valvoline-3","name":"Valvoline","slug":"oh-cincinnati-valvoline-3","lat":39.1631747,"lng":-84.4250559,"state":"OH","city":"Cincinnati","address":"3282 Geier Drive","zip":"45209","phone":"","email":"","website":"","hours":"","brand":"Valvoline","services":["oil_change"],"shopType":"quick_lube"},{"id":"shop-oh-columbus-jiffy-lube-2","name":"Jiffy Lube","slug":"oh-columbus-jiffy-lube-2","lat":40.0604265,"lng":-82.9622397,"state":"OH","city":"Columbus","address":"2136 Morse Road","zip":"43229","phone":"","email":"","website":"","hours":"","brand":"Jiffy Lube","services":["oil_change"],"shopType":"quick_lube"},{"id":"shop-oh-columbus-pep-boys","name":"Pep Boys","slug":"oh-columbus-pep-boys","lat":40.0600666,"lng":-82.984393,"state":"OH","city":"Columbus","address":"1321 Morse Road","zip":"43229","phone":"","email":"","website":"","hours":"","brand":"Pep Boys","services":["general_repair"],"shopType":"general_repair"},{"id":"shop-oh-columbus-m-work","name":"M Work","slug":"oh-columbus-m-work","lat":40.0591811,"lng":-83.0482045,"state":"OH","city":"Columbus","address":"4650 Kenny Road","zip":"43220","phone":"+1-866-656-9675","email":"mitch.w@mworkus.com","website":"https://www.mworkus.com/","hours":"Mo-Fr 10:00-18:00; Sa-Su off","brand":"","services":["general_repair"],"shopType":"general_repair"},{"id":"shop-oh-milford-aaa-tire-auto","name":"AAA Tire & Auto","slug":"oh-milford-aaa-tire-auto","lat":39.202306,"lng":-84.223096,"state":"OH","city":"Milford","address":"1246 State Route 28","zip":"45150","phone":"","email":"","website":"","hours":"","brand":"","services":["tires"],"shopType":"tire_shop"},{"id":"shop-oh-batavia-jones-truck-auto-care","name":"Jones Truck & Auto Care","slug":"oh-batavia-jones-truck-auto-care","lat":39.1780904,"lng":-84.091154,"state":"OH","city":"Batavia","address":"778 Wright Street","zip":"45103","phone":"","email":"","website":"","hours":"","brand":"NAPA AutoCare Center","services":["general_repair"],"shopType":"general_repair"},{"id":"shop-oh-centerville-safelite-autoglass","name":"Safelite AutoGlass","slug":"oh-centerville-safelite-autoglass","lat":39.6265683,"lng":-84.2005132,"state":"OH","city":"Centerville","address":"8333 Yankee Street","zip":"45458","phone":"","email":"","website":"https://www.safelite.com/","hours":"","brand":"Safelite AutoGlass","services":["glass"],"shopType":"general_repair"},{"id":"shop-oh-pickerington-midas","name":"Midas","slug":"oh-pickerington-midas","lat":39.9049981,"lng":-82.7744584,"state":"OH","city":"Pickerington","address":"921 Hill Road North","zip":"43147","phone":"+1-614-548-0661","email":"","website":"","hours":"","brand":"Midas","services":["general_repair"],"shopType":"general_repair"},{"id":"shop-oh-columbus-fine-line-auto-body","name":"Fine Line Auto Body","slug":"oh-columbus-fine-line-auto-body","lat":40.0644628,"lng":-83.0926415,"state":"OH","city":"Columbus","address":"2829 Bethel Road","zip":"","phone":"","email":"","website":"https://www.finelinewow.com/","hours":"","brand":"","services":["glass_repair","body_work","body_repair"],"shopType":"general_repair"},{"id":"shop-oh-cambridge-tire-america","name":"Tire America","slug":"oh-cambridge-tire-america","lat":40.0248836,"lng":-81.5845818,"state":"OH","city":"Cambridge","address":"1105 Wheeling Avenue","zip":"43725","phone":"","email":"","website":"","hours":"","brand":"","services":["tires"],"shopType":"tire_shop"},{"id":"shop-oh-columbus-weber-road-auto-service","name":"Weber Road Auto Service","slug":"oh-columbus-weber-road-auto-service","lat":40.0237774,"lng":-82.9822041,"state":"OH","city":"Columbus","address":"1100 E Weber Road","zip":"43211","phone":"","email":"","website":"","hours":"","brand":"","services":["general_repair"],"shopType":"general_repair"},{"id":"shop-oh-cedarville-hightech-automotive-repair","name":"HighTech Automotive Repair","slug":"oh-cedarville-hightech-automotive-repair","lat":39.738887,"lng":-83.8098657,"state":"OH","city":"Cedarville","address":"105 West Xenia Avenue","zip":"45314","phone":"","email":"","website":"","hours":"Mo-Fr 10:00-17:00","brand":"","services":["car_repair","oil_change"],"shopType":"general_repair"},{"id":"shop-oh-dayton-big-muffler-shop","name":"Big Muffler Shop","slug":"oh-dayton-big-muffler-shop","lat":39.7754901,"lng":-84.1828225,"state":"OH","city":"Dayton","address":"829 North Keowee Street","zip":"45404","phone":"+1-937-222-6006","email":"bigmufflershopdayton@yahoo.com","website":"","hours":"Mo-Fr 08:00-17:00","brand":"","services":["exhaust"],"shopType":"general_repair"},{"id":"shop-oh-chillicothe-valvoline","name":"Valvoline","slug":"oh-chillicothe-valvoline","lat":39.3552567,"lng":-82.9767693,"state":"OH","city":"Chillicothe","address":"980 North Bridge Street","zip":"45601","phone":"+1-740-773-3141","email":"","website":"https://store.vioc.com/oh/chillicothe/oil-change-060099.html","hours":"","brand":"Valvoline","services":["oil_change"],"shopType":"quick_lube"},{"id":"shop-oh-columbus-national-tire-and-battery","name":"National Tire and Battery","slug":"oh-columbus-national-tire-and-battery","lat":40.063983,"lng":-82.997819,"state":"OH","city":"Columbus","address":"4800 Sinclair Road","zip":"","phone":"+1-330-382-6904","email":"","website":"https://www.ntb.com/store/oh/columbus/4800-sinclair-rd-43229-5416/8529","hours":"Mo-Fr 07:00-18:00; Sa 07:00-17:00; Su 10:00-16:00","brand":"National Tire and Battery","services":["tires"],"shopType":"tire_shop"},{"id":"shop-oh-columbus-bb-hudson-tires-and-auto-repair","name":"BB Hudson Tires and Auto Repair","slug":"oh-columbus-bb-hudson-tires-and-auto-repair","lat":40.013937,"lng":-82.9668876,"state":"OH","city":"Columbus","address":"2300 Cleveland Avenue","zip":"43211","phone":"","email":"","website":"","hours":"","brand":"","services":["tires"],"shopType":"tire_shop"},{"id":"shop-oh-zanesville-ntb","name":"NTB","slug":"oh-zanesville-ntb","lat":39.9851859,"lng":-82.0250919,"state":"OH","city":"Zanesville","address":"1327 Brandywine Boulevard","zip":"43701","phone":"+1 740-520-0931","email":"","website":"https://www.mavis.com/locations/zanesville-oh/","hours":"Mo-We 08:00-18:00, Th 08:00-21:30, Fr 08:00-18:00, Sa 08:00-17:00, Su 09:00-17:00","brand":"NTB","services":["tires","oil_change","tyres"],"shopType":"general_repair"},{"id":"shop-oh-fairborn-the-pitstop","name":"The Pitstop","slug":"oh-fairborn-the-pitstop","lat":39.8212363,"lng":-84.0222132,"state":"OH","city":"Fairborn","address":"28 West Main Street","zip":"45324","phone":"","email":"","website":"","hours":"","brand":"","services":["general_repair"],"shopType":"general_repair"},{"id":"shop-oh-marietta-first-quality-collision","name":"First Quality Collision","slug":"oh-marietta-first-quality-collision","lat":39.4117522,"lng":-81.447285,"state":"OH","city":"Marietta","address":"121 South 4th Street","zip":"45750","phone":"+1-740-373-9303","email":"","website":"","hours":"Mo-Fr 07:30-17:00","brand":"","services":["collision_repair","body_work"],"shopType":"body_shop"},{"id":"shop-oh-lewis-center-walmart-tire-lube","name":"Walmart Tire & Lube","slug":"oh-lewis-center-walmart-tire-lube","lat":40.1659727,"lng":-83.015789,"state":"OH","city":"Lewis Center","address":"8659 Columbus Pike","zip":"43035","phone":"+1-740-657-1981","email":"","website":"https://www.walmart.com/store/2725/lewis-center-oh/whats-new","hours":"","brand":"","services":["tires","oil_change"],"shopType":"quick_lube"},{"id":"shop-oh-gallipolis-take-5-car-wash","name":"Take 5 Car Wash","slug":"oh-gallipolis-take-5-car-wash","lat":38.8242284,"lng":-82.1699924,"state":"OH","city":"Gallipolis","address":"2183 Eastern Avenue","zip":"45631","phone":"","email":"","website":"","hours":"","brand":"Take 5","services":["general_repair"],"shopType":"general_repair"},{"id":"shop-oh-baltimore-ken-s-body-chassis","name":"Ken's Body & Chassis","slug":"oh-baltimore-ken-s-body-chassis","lat":39.845742,"lng":-82.6162785,"state":"OH","city":"Baltimore","address":"1200 West Market Street","zip":"","phone":"","email":"","website":"","hours":"","brand":"","services":["body_work"],"shopType":"body_shop"},{"id":"shop-oh-new-lebanon-new-lebanon-body-frame-tech-inc","name":"New Lebanon Body, Frame & Tech Inc","slug":"oh-new-lebanon-new-lebanon-body-frame-tech-inc","lat":39.7458437,"lng":-84.4173181,"state":"OH","city":"New Lebanon","address":"1687 W Main St","zip":"45345","phone":"+1-937-687-1318","email":"","website":"https://newlebanonbody.com/","hours":"","brand":"","services":["body_work"],"shopType":"body_shop"},{"id":"shop-oh-cincinnati-tire-discounters-3","name":"Tire Discounters","slug":"oh-cincinnati-tire-discounters-3","lat":39.0940026,"lng":-84.2670326,"state":"OH","city":"Cincinnati","address":"809 Eastgate South Drive","zip":"45245","phone":"","email":"","website":"","hours":"","brand":"Tire Discounters","services":["tires"],"shopType":"tire_shop"},{"id":"shop-oh-lancaster-national-tire-and-battery","name":"National Tire and Battery","slug":"oh-lancaster-national-tire-and-battery","lat":39.7342201,"lng":-82.6309198,"state":"OH","city":"Lancaster","address":"","zip":"43130","phone":"","email":"","website":"https://www.ntb.com/store/oh/lancaster/1725-river-valley-cir-n-43130/4350","hours":"","brand":"NTB","services":["tires"],"shopType":"tire_shop"},{"id":"shop-oh-lancaster-tuffy","name":"Tuffy","slug":"oh-lancaster-tuffy","lat":39.7290742,"lng":-82.6118491,"state":"OH","city":"Lancaster","address":"","zip":"43130","phone":"","email":"","website":"","hours":"","brand":"Tuffy","services":["general_repair"],"shopType":"general_repair"},{"id":"shop-oh-lancaster-s-b-auto-repair","name":"S.B. Auto Repair","slug":"oh-lancaster-s-b-auto-repair","lat":39.7111253,"lng":-82.6017677,"state":"OH","city":"Lancaster","address":"","zip":"43130","phone":"","email":"","website":"","hours":"","brand":"","services":["general_repair"],"shopType":"general_repair"},{"id":"shop-oh-lancaster-abc-drivetrain-parts-services-inc","name":"ABC Drivetrain Parts & Services, Inc","slug":"oh-lancaster-abc-drivetrain-parts-services-inc","lat":39.7103907,"lng":-82.6016899,"state":"OH","city":"Lancaster","address":"","zip":"43130","phone":"","email":"","website":"","hours":"","brand":"","services":["general_repair"],"shopType":"general_repair"},{"id":"shop-oh-lancaster-mccoys-auto-repair","name":"McCoys Auto Repair","slug":"oh-lancaster-mccoys-auto-repair","lat":39.7098063,"lng":-82.6025897,"state":"OH","city":"Lancaster","address":"","zip":"43130","phone":"","email":"","website":"","hours":"","brand":"","services":["general_repair"],"shopType":"general_repair"},{"id":"shop-oh-lancaster-superior-auto","name":"Superior Auto","slug":"oh-lancaster-superior-auto","lat":39.7287661,"lng":-82.6104471,"state":"OH","city":"Lancaster","address":"","zip":"43130","phone":"","email":"","website":"","hours":"","brand":"","services":["general_repair"],"shopType":"general_repair"},{"id":"shop-oh-lancaster-tire-choice","name":"Tire Choice","slug":"oh-lancaster-tire-choice","lat":39.7247885,"lng":-82.6081431,"state":"OH","city":"Lancaster","address":"930 North Memorial Drive","zip":"43130","phone":"","email":"","website":"","hours":"","brand":"Tire Choice","services":["tires"],"shopType":"tire_shop"},{"id":"shop-oh-lancaster-katz-tires","name":"Katz Tires","slug":"oh-lancaster-katz-tires","lat":39.7180705,"lng":-82.606629,"state":"OH","city":"Lancaster","address":"","zip":"43130","phone":"","email":"","website":"","hours":"","brand":"","services":["tires"],"shopType":"tire_shop"},{"id":"shop-oh-kettering-the-tire-choice","name":"The Tire Choice","slug":"oh-kettering-the-tire-choice","lat":39.7040947,"lng":-84.1425153,"state":"OH","city":"Kettering","address":"1355 East Dorothy Lane","zip":"45429","phone":"","email":"","website":"","hours":"","brand":"","services":["tires"],"shopType":"tire_shop"},{"id":"shop-oh-lancaster-hartman-lube-depot","name":"Hartman Lube Depot","slug":"oh-lancaster-hartman-lube-depot","lat":39.7242229,"lng":-82.6143795,"state":"OH","city":"Lancaster","address":"","zip":"43130","phone":"","email":"","website":"","hours":"","brand":"","services":["oil_change"],"shopType":"quick_lube"},{"id":"shop-oh-lancaster-ted-s-marathon-services","name":"Ted's Marathon Services","slug":"oh-lancaster-ted-s-marathon-services","lat":39.7195792,"lng":-82.5990192,"state":"OH","city":"Lancaster","address":"","zip":"43130","phone":"","email":"","website":"","hours":"","brand":"","services":["general_repair"],"shopType":"general_repair"},{"id":"shop-oh-zanesville-city-tire-pros","name":"City Tire Pros","slug":"oh-zanesville-city-tire-pros","lat":39.9428705,"lng":-81.9794708,"state":"OH","city":"Zanesville","address":"1800 East Pike","zip":"43701","phone":"+1 740-452-7512","email":"","website":"https://www.citytireinc.net/Find-Us/Mode/1/1800-East-Pike-Zanesville-OH-43701/details","hours":"Mo-Fr 08:00-17:00, Sa 08:00-12:00, Su off","brand":"","services":["tires"],"shopType":"tire_shop"},{"id":"shop-oh-zanesville-safelite-autoglass","name":"Safelite AutoGlass","slug":"oh-zanesville-safelite-autoglass","lat":39.9830451,"lng":-82.0194126,"state":"OH","city":"Zanesville","address":"3350 Maple Avenue","zip":"43701","phone":"","email":"","website":"https://www.safelite.com/stores/zanesville-oh","hours":"Mo-Sa 08:00-17:00, Su off","brand":"Safelite AutoGlass","services":["glass"],"shopType":"general_repair"},{"id":"shop-oh-zanesville-jiffy-lube","name":"Jiffy Lube","slug":"oh-zanesville-jiffy-lube","lat":39.9776955,"lng":-82.0155551,"state":"OH","city":"Zanesville","address":"3046 Maple Avenue","zip":"43701","phone":"+1 740-454-7723","email":"","website":"https://www.jiffylube.com/locations/oh/zanesville/3125","hours":"Mo-Sa 08:00-18:00, Su off","brand":"Jiffy Lube","services":["oil_change","car_repair"],"shopType":"quick_lube"},{"id":"shop-oh-zanesville-absolute-one-window-tinting","name":"Absolute One Window Tinting","slug":"oh-zanesville-absolute-one-window-tinting","lat":39.9699533,"lng":-82.0093182,"state":"OH","city":"Zanesville","address":"2550 Maple Avenue","zip":"43701","phone":"+1 740-819-1642","email":"Absoluteonetinting@gmail.com","website":"","hours":"Mo-Fr 10:00-18:00, Sa 10:00-16:00, Su 10:00-14:00","brand":"","services":["tinting"],"shopType":"general_repair"},{"id":"shop-oh-zanesville-monro-auto-service-and-tire-centers","name":"Monro Auto Service and Tire Centers","slug":"oh-zanesville-monro-auto-service-and-tire-centers","lat":39.9559024,"lng":-82.0110269,"state":"OH","city":"Zanesville","address":"1307 Maple Avenue","zip":"43701","phone":"+1 740-454-2833","email":"","website":"https://locations.monro.com/oh/zanesville/1307-maple-ave","hours":"Mo-Fr 07:30-18:00, Sa 07:30-17:00, Su 09:00-17:00","brand":"Monro","services":["oil_change","tyres","tires","brakes","exhaust"],"shopType":"general_repair"},{"id":"shop-oh-zanesville-ken-brown-s-auto-service","name":"Ken Brown's Auto Service","slug":"oh-zanesville-ken-brown-s-auto-service","lat":39.9516125,"lng":-82.0112505,"state":"OH","city":"Zanesville","address":"1037 Maple Avenue","zip":"43701","phone":"+1 740-454-8282","email":"","website":"https://ken-browns-auto.edan.io/","hours":"Mo-Fr 08:00-17:00, Sa-Su off","brand":"","services":["car_repair","oil_change"],"shopType":"general_repair"},{"id":"shop-oh-zanesville-central-ohio-tire-llc","name":"Central Ohio Tire, LLC","slug":"oh-zanesville-central-ohio-tire-llc","lat":39.9554306,"lng":-82.024001,"state":"OH","city":"Zanesville","address":"1140 Newark Road","zip":"43701","phone":"+1 740-455-8855","email":"tires.cotire@gmail.com","website":"https://www.centralohiotire.com/","hours":"Mo-Fr 07:00-17:00, Sa 08:00-13:00, Su off","brand":"","services":["tires","tyres"],"shopType":"general_repair"},{"id":"shop-oh-zanesville-zanesville-autobody-collision-glass","name":"Zanesville Autobody Collision & Glass","slug":"oh-zanesville-zanesville-autobody-collision-glass","lat":39.9554751,"lng":-82.0247164,"state":"OH","city":"Zanesville","address":"1152 Newark Road","zip":"43701","phone":"+1 740-487-3111","email":"info@autobodyofzanesville.com","website":"https://autobodyofzanesville.com/","hours":"Mo-Fr 08:00-17:30, Sa 09:00-12:00, Su off","brand":"","services":["body_work"],"shopType":"body_shop"},{"id":"shop-oh-zanesville-jiffy-lube-2","name":"Jiffy Lube","slug":"oh-zanesville-jiffy-lube-2","lat":39.9527489,"lng":-82.0069055,"state":"OH","city":"Zanesville","address":"1103 Linden Avenue","zip":"43701","phone":"+1 740-452-3595","email":"","website":"https://www.jiffylube.com/locations/oh/zanesville/3217","hours":"Mo-Fr 08:00-18:00, Sa 07:00-17:00, Su off","brand":"Jiffy Lube","services":["oil_change"],"shopType":"quick_lube"},{"id":"shop-oh-zanesville-rnr-tire-express","name":"RNR Tire Express","slug":"oh-zanesville-rnr-tire-express","lat":39.9533508,"lng":-82.0055529,"state":"OH","city":"Zanesville","address":"1210 Linden Avenue","zip":"43701","phone":"+1 740-868-1818","email":"5401zanesville@rnrtires.com","website":"https://rnrtires.com/location/zanesville-oh/","hours":"Mo-Fr 09:00-18:00, Sa 09:00-17:00, Su off","brand":"","services":["tires"],"shopType":"tire_shop"},{"id":"shop-oh-zanesville-brown-s-body-shop-south","name":"Brown's Body Shop South","slug":"oh-zanesville-brown-s-body-shop-south","lat":39.8938327,"lng":-82.0458025,"state":"OH","city":"Zanesville","address":"2879 Maysville Pike","zip":"43701","phone":"+1 740-487-1274","email":"brownsbodyshop@yahoo.com","website":"https://www.browns-bodyshop.com/","hours":"Mo-Fr 08:00-17:00, Sa-Su off","brand":"","services":["body_work"],"shopType":"body_shop"},{"id":"shop-oh-zanesville-y-city-towing","name":"Y-City Towing","slug":"oh-zanesville-y-city-towing","lat":39.9491711,"lng":-82.0172423,"state":"OH","city":"Zanesville","address":"906 Blue Avenue","zip":"43701","phone":"+1 740-452-7377","email":"ycitytowing@gmail.com","website":"https://ycitytowing.com/","hours":"","brand":"","services":["towing"],"shopType":"general_repair"},{"id":"shop-oh-zanesville-ziegler-tire","name":"Ziegler Tire","slug":"oh-zanesville-ziegler-tire","lat":39.945949,"lng":-82.0196068,"state":"OH","city":"Zanesville","address":"1039 Lee Street","zip":"43701","phone":"+1 740-450-9384","email":"","website":"https://www.zieglertire.com/locations/commercial-locations/zanesville-oh","hours":"Mo-Fr 07:00-16:00, Sa 07:00-11:00, Su off","brand":"","services":["tires"],"shopType":"tire_shop"},{"id":"shop-oh-zanesville-aamco","name":"AAMCO","slug":"oh-zanesville-aamco","lat":39.9473268,"lng":-82.0106863,"state":"OH","city":"Zanesville","address":"765 Linden Avenue","zip":"43701","phone":"+1 740-453-0366","email":"","website":"https://www.aamco.com/Auto-Repair-Center/OH/Zanesville/Linden-Ave","hours":"Mo-Fr 08:00-17:00, Sa 09:00-13:00, Su off","brand":"AAMCO","services":["transmission"],"shopType":"transmission_shop"},{"id":"shop-oh-zanesville-mcmillen-tire-service","name":"McMillen Tire Service","slug":"oh-zanesville-mcmillen-tire-service","lat":39.9790139,"lng":-82.0213528,"state":"OH","city":"Zanesville","address":"1143 Beverly Avenue","zip":"43701","phone":"+1 740-454-7480","email":"mcmillentire@yahoo.com","website":"https://www.mcmillentireservice.com/","hours":"Mo-Th 08:00-17:00, Fr 08:00-16:00, Sa 08:00-11:00, Su off","brand":"","services":["tires","tyres"],"shopType":"general_repair"},{"id":"shop-oh-logan-bnr-tires","name":"BNR Tires","slug":"oh-logan-bnr-tires","lat":39.5272353,"lng":-82.3763617,"state":"OH","city":"Logan","address":"1981 East Front Street","zip":"","phone":"+1-740-216-4452","email":"","website":"","hours":"","brand":"","services":["tires"],"shopType":"tire_shop"},{"id":"shop-oh-logan-chietain-main-shell","name":"Chietain Main Shell","slug":"oh-logan-chietain-main-shell","lat":39.5399883,"lng":-82.4124807,"state":"OH","city":"Logan","address":"215 West Main Street","zip":"43138","phone":"","email":"","website":"http://www.mainshell.com/","hours":"","brand":"Shell","services":["car_repair","oil_change"],"shopType":"general_repair"},{"id":"shop-oh-logan-keck-s-diesel-automotive","name":"Keck's Diesel & Automotive","slug":"oh-logan-keck-s-diesel-automotive","lat":39.5425817,"lng":-82.4245372,"state":"OH","city":"Logan","address":"1201 West Hunter Street","zip":"43138","phone":"","email":"","website":"","hours":"","brand":"","services":["diesel"],"shopType":"general_repair"},{"id":"shop-oh-logan-tire-discounters","name":"Tire Discounters","slug":"oh-logan-tire-discounters","lat":39.5434372,"lng":-82.4302936,"state":"OH","city":"Logan","address":"12451 SR 664","zip":"43138","phone":"","email":"","website":"","hours":"","brand":"Tire Discounters","services":["tires"],"shopType":"tire_shop"},{"id":"shop-oh-logan-kevin-s-service","name":"Kevin's Service","slug":"oh-logan-kevin-s-service","lat":39.5387142,"lng":-82.4076178,"state":"OH","city":"Logan","address":"","zip":"43138","phone":"","email":"","website":"","hours":"","brand":"","services":["general_repair"],"shopType":"general_repair"},{"id":"shop-oh-logan-lee-s-detail-shop","name":"Lee's Detail Shop","slug":"oh-logan-lee-s-detail-shop","lat":39.5385036,"lng":-82.4065179,"state":"OH","city":"Logan","address":"","zip":"43138","phone":"","email":"","website":"","hours":"","brand":"","services":["general_repair"],"shopType":"general_repair"},{"id":"shop-oh-zanesville-temple-auto-care-collision","name":"Temple Auto Care & Collision","slug":"oh-zanesville-temple-auto-care-collision","lat":39.8996295,"lng":-82.022908,"state":"OH","city":"Zanesville","address":"110 South Avenue","zip":"43701","phone":"+1 740-454-0055","email":"maysvillemuffler@yahoo.com","website":"","hours":"Mo-Fr 08:00-12:00,13:00-17:00; Sa-Su off","brand":"","services":["exhaust","body_work"],"shopType":"body_shop"},{"id":"shop-oh-zanesville-miller-towing-recovery","name":"Miller Towing & Recovery","slug":"oh-zanesville-miller-towing-recovery","lat":39.8990328,"lng":-82.0329703,"state":"OH","city":"Zanesville","address":"2565 Maysville Pike","zip":"43701","phone":"+1 740-452-2482","email":"","website":"","hours":"","brand":"","services":["general_repair"],"shopType":"general_repair"},{"id":"shop-oh-logan-gillespie-s-auto-service","name":"Gillespie's Auto Service","slug":"oh-logan-gillespie-s-auto-service","lat":39.5388021,"lng":-82.3950425,"state":"OH","city":"Logan","address":"823 East Main Street","zip":"43138","phone":"","email":"","website":"https://www.facebook.com/Gillespieauto/","hours":"","brand":"","services":["general_repair"],"shopType":"general_repair"},{"id":"shop-oh-logan-east-end-auto-repair","name":"East End Auto Repair","slug":"oh-logan-east-end-auto-repair","lat":39.5278857,"lng":-82.3773714,"state":"OH","city":"Logan","address":"1945 East Front Street","zip":"43138","phone":"","email":"","website":"https://www.facebook.com/cherrystire","hours":"Mo-Fr 08:00-17:00","brand":"","services":["car_repair","oil_change","tires","brakes","tyres"],"shopType":"general_repair"},{"id":"shop-oh-loveland-mazan-s-auto-care","name":"Mazan’s Auto Care","slug":"oh-loveland-mazan-s-auto-care","lat":39.2129745,"lng":-84.2056307,"state":"OH","city":"Loveland","address":"6420 Smith Road","zip":"45140","phone":"+1-513-722-7900","email":"","website":"","hours":"","brand":"","services":["general_repair"],"shopType":"general_repair"},{"id":"shop-oh-logan-hocking-hills-towing-and-recovery","name":"Hocking Hills Towing and Recovery","slug":"oh-logan-hocking-hills-towing-and-recovery","lat":39.5379236,"lng":-82.4010201,"state":"OH","city":"Logan","address":"512 East Front Street","zip":"43138","phone":"","email":"","website":"https://facebook.com/andysmufflerexpress43138","hours":"","brand":"","services":["exhaust"],"shopType":"general_repair"},{"id":"shop-oh-logan-grubb-s-automotive","name":"Grubb's Automotive","slug":"oh-logan-grubb-s-automotive","lat":39.5412569,"lng":-82.3974847,"state":"OH","city":"Logan","address":"","zip":"43138","phone":"","email":"","website":"","hours":"","brand":"","services":["general_repair"],"shopType":"general_repair"},{"id":"shop-oh-logan-doak-s-automotive","name":"Doak's Automotive","slug":"oh-logan-doak-s-automotive","lat":39.5408771,"lng":-82.4207603,"state":"OH","city":"Logan","address":"721 Weldy Avenue","zip":"43138","phone":"","email":"","website":"","hours":"","brand":"","services":["general_repair"],"shopType":"general_repair"},{"id":"shop-oh-zanesville-dave-s-tire","name":"Dave's Tire","slug":"oh-zanesville-dave-s-tire","lat":39.8915818,"lng":-82.0450108,"state":"OH","city":"Zanesville","address":"2890 Maysville Pike","zip":"43701","phone":"+1 740-297-4034","email":"vcklively@yahoo.com","website":"","hours":"Tu-Fr 08:00-17:00, Sa 09:00-12:00, Su-Mo off","brand":"","services":["tires"],"shopType":"tire_shop"},{"id":"shop-oh-waverly-gleason-s-auto-repair","name":"Gleason's Auto Repair","slug":"oh-waverly-gleason-s-auto-repair","lat":39.1184517,"lng":-82.9943901,"state":"OH","city":"Waverly","address":"725 West Emmitt Avenue","zip":"45690","phone":"","email":"","website":"","hours":"","brand":"","services":["general_repair"],"shopType":"general_repair"},{"id":"shop-oh-lancaster-heston-s-auto-service","name":"Heston's Auto Service","slug":"oh-lancaster-heston-s-auto-service","lat":39.7120781,"lng":-82.6126152,"state":"OH","city":"Lancaster","address":"603 Lincoln Avenue","zip":"43130","phone":"","email":"","website":"","hours":"","brand":"","services":["general_repair"],"shopType":"general_repair"},{"id":"shop-oh-lancaster-keen-s-body-shop","name":"Keen's Body Shop","slug":"oh-lancaster-keen-s-body-shop","lat":39.7126639,"lng":-82.6142442,"state":"OH","city":"Lancaster","address":"","zip":"43130","phone":"","email":"","website":"https://keensbodyshop.com","hours":"","brand":"","services":["body_work"],"shopType":"body_shop"},{"id":"shop-oh-lancaster-lube-quik","name":"Lube Quik","slug":"oh-lancaster-lube-quik","lat":39.7140537,"lng":-82.569919,"state":"OH","city":"Lancaster","address":"1568 East Main Street","zip":"43130","phone":"","email":"","website":"","hours":"Mo,Tu,Th,Fr 08:30-17:30; We 08:30-16:00; Sa 08:00-12:00","brand":"","services":["oil_change"],"shopType":"quick_lube"},{"id":"shop-oh-lancaster-valvoline","name":"Valvoline","slug":"oh-lancaster-valvoline","lat":39.7308478,"lng":-82.6207478,"state":"OH","city":"Lancaster","address":"1240 River Valley Boulevard","zip":"43130","phone":"","email":"","website":"https://store.vioc.com/oh/lancaster/oil-change-060020.html","hours":"","brand":"Valvoline","services":["oil_change"],"shopType":"quick_lube"},{"id":"shop-oh-lancaster-rnr-tire-express","name":"RNR Tire Express","slug":"oh-lancaster-rnr-tire-express","lat":39.7282293,"lng":-82.6099972,"state":"OH","city":"Lancaster","address":"1228 North Memorial Drive","zip":"43130","phone":"","email":"","website":"","hours":"Mo-Fr 09:00-18:00; Sa 09:00-17:00","brand":"","services":["tires"],"shopType":"tire_shop"},{"id":"shop-oh-zanesville-ziebart","name":"Ziebart","slug":"oh-zanesville-ziebart","lat":39.9991331,"lng":-82.0382244,"state":"OH","city":"Zanesville","address":"3619 Olde Falls Road","zip":"43701","phone":"+1 740-453-4660","email":"oh97@ziebart.com","website":"https://www.ziebart.com/find-my-ziebart/location/oh97-oh-zanesville","hours":"Mo-Fr 09:00-17:00, Sa 09:00-13:00, Su off","brand":"","services":["general_repair"],"shopType":"general_repair"},{"id":"shop-oh-columbus-austin-exhaust","name":"Austin Exhaust","slug":"oh-columbus-austin-exhaust","lat":39.9245586,"lng":-82.995161,"state":"OH","city":"Columbus","address":"1840 South High Street","zip":"43207","phone":"","email":"","website":"","hours":"","brand":"","services":["exhaust"],"shopType":"general_repair"},{"id":"shop-oh-zanesville-katz-tires","name":"Katz Tires","slug":"oh-zanesville-katz-tires","lat":39.9417151,"lng":-82.0238921,"state":"OH","city":"Zanesville","address":"1425 West Main Street","zip":"43701","phone":"+1 740-297-7834","email":"","website":"https://www.katztires.com/tire-shop-zanesville","hours":"Mo-Fr 08:00-17:30, Sa 08:00-14:30, Su off","brand":"","services":["tires"],"shopType":"tire_shop"},