[{"id":"shop-ut-ogden-jiffy-lube","name":"Jiffy Lube","slug":"ut-ogden-jiffy-lube","lat":41.1981044,"lng":-111.976945,"state":"UT","city":"Ogden","address":"192 36th Street","zip":"84405","phone":"","email":"","website":"","hours":"Mo-Sa 07:30-18:00","brand":"Jiffy Lube","services":["oil_change"],"shopType":"quick_lube"},{"id":"shop-ut-unknown-buffalo-brothers-tires","name":"Buffalo Brothers Tires","slug":"ut-unknown-buffalo-brothers-tires","lat":41.1679577,"lng":-112.0256753,"state":"UT","city":"","address":"","zip":"","phone":"+1 801-773-3181","email":"","website":"https://www.buffalobrostire.com/","hours":"Mo-Fr 08:00-18:00; Sa 08:00-15:00","brand":"","services":["tires"],"shopType":"tire_shop"},{"id":"shop-ut-unknown-goodyear","name":"Goodyear","slug":"ut-unknown-goodyear","lat":41.1394226,"lng":-112.0599803,"state":"UT","city":"","address":"1803 West 1800 North","zip":"","phone":"","email":"","website":"","hours":"","brand":"Goodyear","services":["general_repair"],"shopType":"general_repair"},{"id":"shop-ut-unknown-paskett-auto-care","name":"Paskett Auto Care","slug":"ut-unknown-paskett-auto-care","lat":41.1752635,"lng":-112.025425,"state":"UT","city":"","address":"","zip":"","phone":"","email":"","website":"","hours":"","brand":"","services":["general_repair"],"shopType":"general_repair"},{"id":"shop-ut-unknown-les-schwab-tire-center","name":"Les Schwab Tire Center","slug":"ut-unknown-les-schwab-tire-center","lat":41.1795213,"lng":-111.9943637,"state":"UT","city":"","address":"","zip":"","phone":"","email":"","website":"","hours":"","brand":"Les Schwab","services":["tires"],"shopType":"tire_shop"},{"id":"shop-ut-unknown-val-s-auto-repair","name":"Val's Auto Repair","slug":"ut-unknown-val-s-auto-repair","lat":41.2309152,"lng":-112.0175635,"state":"UT","city":"","address":"","zip":"","phone":"","email":"","website":"","hours":"","brand":"","services":["general_repair"],"shopType":"general_repair"},{"id":"shop-ut-unknown-premier-auto","name":"Premier Auto","slug":"ut-unknown-premier-auto","lat":41.2037203,"lng":-112.0264473,"state":"UT","city":"","address":"","zip":"","phone":"","email":"","website":"","hours":"","brand":"","services":["general_repair"],"shopType":"general_repair"},{"id":"shop-ut-unknown-anderson-autobody-and-paint","name":"Anderson Autobody and Paint","slug":"ut-unknown-anderson-autobody-and-paint","lat":41.1950571,"lng":-112.0935328,"state":"UT","city":"","address":"3769 South 4700 West","zip":"","phone":"","email":"","website":"","hours":"","brand":"","services":["body_work"],"shopType":"body_shop"},{"id":"shop-ut-unknown-thackers-auto-repair","name":"Thackers Auto Repair","slug":"ut-unknown-thackers-auto-repair","lat":40.2798687,"lng":-110.2182958,"state":"UT","city":"","address":"","zip":"","phone":"","email":"","website":"","hours":"","brand":"","services":["general_repair"],"shopType":"general_repair"},{"id":"shop-ut-unknown-grandma-s-tires","name":"Grandma's Tires","slug":"ut-unknown-grandma-s-tires","lat":41.1655905,"lng":-112.026622,"state":"UT","city":"","address":"","zip":"","phone":"","email":"","website":"","hours":"","brand":"","services":["tires"],"shopType":"tire_shop"},{"id":"shop-ut-unknown-powell-s-automotive","name":"Powell's Automotive","slug":"ut-unknown-powell-s-automotive","lat":40.3883028,"lng":-111.8489027,"state":"UT","city":"","address":"","zip":"","phone":"","email":"","website":"","hours":"","brand":"","services":["general_repair"],"shopType":"general_repair"},{"id":"shop-ut-clearfield-c-m-tires","name":"C & M Tires","slug":"ut-clearfield-c-m-tires","lat":41.1215126,"lng":-112.0256357,"state":"UT","city":"Clearfield","address":"548 N Main St","zip":"84015","phone":"+1 801 7738159","email":"","website":"https://www.cmtires.com/","hours":"Mo-Fr 08:00-18:00; Sa 08:00-17:00","brand":"","services":["tires"],"shopType":"tire_shop"},{"id":"shop-ut-unknown-doug-smith-auto","name":"Doug Smith Auto","slug":"ut-unknown-doug-smith-auto","lat":40.3762152,"lng":-111.8121143,"state":"UT","city":"","address":"","zip":"","phone":"","email":"","website":"","hours":"","brand":"","services":["general_repair"],"shopType":"general_repair"},{"id":"shop-ut-unknown-don-s-auto","name":"Don's Auto","slug":"ut-unknown-don-s-auto","lat":40.3612035,"lng":-111.7461308,"state":"UT","city":"","address":"","zip":"","phone":"","email":"","website":"","hours":"","brand":"","services":["general_repair"],"shopType":"general_repair"},{"id":"shop-ut-unknown-jiffy-lube","name":"Jiffy Lube","slug":"ut-unknown-jiffy-lube","lat":40.3732949,"lng":-111.7841716,"state":"UT","city":"","address":"","zip":"","phone":"","email":"","website":"","hours":"","brand":"Jiffy Lube","services":["oil_change"],"shopType":"quick_lube"},{"id":"shop-ut-unknown-k-s-tire-and-auto","name":"K & S Tire and Auto","slug":"ut-unknown-k-s-tire-and-auto","lat":40.3879943,"lng":-111.8566258,"state":"UT","city":"","address":"","zip":"","phone":"","email":"","website":"","hours":"","brand":"","services":["tires"],"shopType":"tire_shop"},{"id":"shop-ut-unknown-midas","name":"Midas","slug":"ut-unknown-midas","lat":40.2708154,"lng":-111.682995,"state":"UT","city":"","address":"","zip":"","phone":"","email":"","website":"","hours":"","brand":"Midas","services":["general_repair"],"shopType":"general_repair"},{"id":"shop-ut-unknown-jiffy-lube-2","name":"Jiffy Lube","slug":"ut-unknown-jiffy-lube-2","lat":40.6640942,"lng":-111.8878811,"state":"UT","city":"","address":"","zip":"","phone":"","email":"","website":"","hours":"","brand":"Jiffy Lube","services":["oil_change"],"shopType":"quick_lube"},{"id":"shop-ut-unknown-mercer-automotive","name":"Mercer Automotive","slug":"ut-unknown-mercer-automotive","lat":40.6582662,"lng":-111.5028212,"state":"UT","city":"","address":"","zip":"","phone":"","email":"","website":"","hours":"","brand":"","services":["general_repair"],"shopType":"general_repair"},{"id":"shop-ut-unknown-beaver-montys-person-tire","name":"Beaver Montys Person Tire","slug":"ut-unknown-beaver-montys-person-tire","lat":38.2830993,"lng":-112.6413928,"state":"UT","city":"","address":"","zip":"","phone":"","email":"","website":"","hours":"","brand":"","services":["tires"],"shopType":"tire_shop"},{"id":"shop-ut-blanding-canyonlands-tire","name":"Canyonlands Tire","slug":"ut-blanding-canyonlands-tire","lat":37.6236716,"lng":-109.4775847,"state":"UT","city":"Blanding","address":"111 South Main Street","zip":"84511","phone":"","email":"","website":"","hours":"","brand":"","services":["tires"],"shopType":"tire_shop"},{"id":"shop-ut-unknown-bricknell-m-d-auto-parts","name":"Bricknell M&D Auto Parts","slug":"ut-unknown-bricknell-m-d-auto-parts","lat":38.3423964,"lng":-111.5518485,"state":"UT","city":"","address":"","zip":"","phone":"","email":"","website":"","hours":"","brand":"","services":["general_repair"],"shopType":"general_repair"},{"id":"shop-ut-unknown-bryce-canyon-american-car-care","name":"Bryce Canyon American Car Care","slug":"ut-unknown-bryce-canyon-american-car-care","lat":37.6314708,"lng":-112.1759054,"state":"UT","city":"","address":"","zip":"","phone":"","email":"","website":"","hours":"","brand":"","services":["tires"],"shopType":"general_repair"},{"id":"shop-ut-unknown-glenwood-big-o-tires","name":"Glenwood Big O Tires","slug":"ut-unknown-glenwood-big-o-tires","lat":38.7603722,"lng":-111.99045,"state":"UT","city":"","address":"","zip":"","phone":"","email":"","website":"","hours":"","brand":"Big O Tires","services":["tires"],"shopType":"tire_shop"},{"id":"shop-ut-unknown-green-river-interstate-engine-tire","name":"Green River Interstate Engine & Tire","slug":"ut-unknown-green-river-interstate-engine-tire","lat":38.9944644,"lng":-110.1490086,"state":"UT","city":"","address":"","zip":"","phone":"","email":"","website":"","hours":"","brand":"","services":["tires","engine_repair"],"shopType":"general_repair"},{"id":"shop-ut-unknown-kanab-tire-center","name":"Kanab Tire Center","slug":"ut-unknown-kanab-tire-center","lat":37.043183,"lng":-112.5229673,"state":"UT","city":"","address":"","zip":"","phone":"","email":"","website":"","hours":"","brand":"","services":["tires"],"shopType":"tire_shop"},{"id":"shop-ut-unknown-monticello-sandstone-tire","name":"Monticello Sandstone Tire","slug":"ut-unknown-monticello-sandstone-tire","lat":37.8666295,"lng":-109.3398748,"state":"UT","city":"","address":"","zip":"","phone":"","email":"","website":"","hours":"","brand":"","services":["tires"],"shopType":"tire_shop"},{"id":"shop-ut-unknown-parowan-biasi-automotive","name":"Parowan Biasi Automotive","slug":"ut-unknown-parowan-biasi-automotive","lat":37.8386623,"lng":-112.8323208,"state":"UT","city":"","address":"","zip":"","phone":"","email":"","website":"","hours":"","brand":"","services":["tires"],"shopType":"general_repair"},{"id":"shop-ut-unknown-big-o-tires","name":"Big O Tires","slug":"ut-unknown-big-o-tires","lat":37.1094528,"lng":-113.5658553,"state":"UT","city":"","address":"","zip":"","phone":"","email":"","website":"","hours":"","brand":"Big O Tires","services":["tires"],"shopType":"tire_shop"},{"id":"shop-ut-unknown-steves-service","name":"Steves Service","slug":"ut-unknown-steves-service","lat":38.1721401,"lng":-112.2726669,"state":"UT","city":"","address":"","zip":"","phone":"","email":"","website":"","hours":"","brand":"","services":["tires"],"shopType":"general_repair"},{"id":"shop-ut-brigham-city-techna-glass","name":"Techna Glass","slug":"ut-brigham-city-techna-glass","lat":41.5063275,"lng":-112.0154839,"state":"UT","city":"Brigham City","address":"200 South Main Street","zip":"84302","phone":"","email":"","website":"","hours":"","brand":"","services":["general_repair"],"shopType":"general_repair"},{"id":"shop-ut-unknown-dealer-collision-repair","name":"Dealer Collision Repair","slug":"ut-unknown-dealer-collision-repair","lat":37.0813585,"lng":-113.5873014,"state":"UT","city":"","address":"184 1600 South","zip":"","phone":"","email":"","website":"","hours":"","brand":"","services":["body_work"],"shopType":"body_shop"},{"id":"shop-ut-unknown-zion-motors","name":"Zion Motors","slug":"ut-unknown-zion-motors","lat":37.0910805,"lng":-113.5863884,"state":"UT","city":"","address":"","zip":"","phone":"","email":"","website":"","hours":"","brand":"","services":["general_repair"],"shopType":"general_repair"},{"id":"shop-ut-unknown-les-schwab-tire-center-2","name":"Les Schwab Tire Center","slug":"ut-unknown-les-schwab-tire-center-2","lat":41.1330942,"lng":-112.0650961,"state":"UT","city":"","address":"1329 North 2000 West","zip":"","phone":"","email":"","website":"","hours":"","brand":"Les Schwab","services":["tires"],"shopType":"tire_shop"},{"id":"shop-ut-unknown-tunex","name":"Tunex","slug":"ut-unknown-tunex","lat":40.6251099,"lng":-111.8364441,"state":"UT","city":"","address":"","zip":"","phone":"","email":"","website":"","hours":"","brand":"","services":["general_repair"],"shopType":"general_repair"},{"id":"shop-ut-unknown-pep-boys","name":"Pep Boys","slug":"ut-unknown-pep-boys","lat":40.5825804,"lng":-111.8714204,"state":"UT","city":"","address":"","zip":"","phone":"","email":"","website":"","hours":"","brand":"Pep Boys","services":["general_repair"],"shopType":"general_repair"},{"id":"shop-ut-unknown-prestige-auto-repair","name":"Prestige Auto Repair","slug":"ut-unknown-prestige-auto-repair","lat":37.1125439,"lng":-113.5946901,"state":"UT","city":"","address":"","zip":"","phone":"","email":"","website":"","hours":"","brand":"","services":["general_repair"],"shopType":"general_repair"},{"id":"shop-ut-unknown-burt-brothers-tire-service","name":"Burt Brothers Tire & Service","slug":"ut-unknown-burt-brothers-tire-service","lat":41.0012615,"lng":-111.9089384,"state":"UT","city":"","address":"","zip":"","phone":"","email":"","website":"","hours":"","brand":"","services":["tires"],"shopType":"tire_shop"},{"id":"shop-ut-draper-jiffy-lube","name":"Jiffy Lube","slug":"ut-draper-jiffy-lube","lat":40.4983219,"lng":-111.884705,"state":"UT","city":"Draper","address":"13955 S Bangerter Parkway","zip":"84020","phone":"","email":"","website":"","hours":"","brand":"Jiffy Lube","services":["oil_change"],"shopType":"quick_lube"},{"id":"shop-ut-santaquin-oil-changers","name":"Oil Changers","slug":"ut-santaquin-oil-changers","lat":39.9758835,"lng":-111.7782996,"state":"UT","city":"Santaquin","address":"315 E Main Street","zip":"84655","phone":"","email":"","website":"","hours":"","brand":"Oil Changers","services":["oil_change"],"shopType":"quick_lube"},{"id":"shop-ut-salt-lake-city-a-broken-windshield","name":"A Broken Windshield","slug":"ut-salt-lake-city-a-broken-windshield","lat":40.7558964,"lng":-111.9029402,"state":"UT","city":"Salt Lake City","address":"South 400 West","zip":"84101","phone":"+1 801-597-0438","email":"","website":"","hours":"","brand":"","services":["glass_repair"],"shopType":"general_repair"},{"id":"shop-ut-unknown-arrowhead-motorsports","name":"Arrowhead MotorSports","slug":"ut-unknown-arrowhead-motorsports","lat":38.5278813,"lng":-109.4991418,"state":"UT","city":"","address":"","zip":"","phone":"","email":"","website":"","hours":"","brand":"","services":["general_repair"],"shopType":"general_repair"},{"id":"shop-ut-unknown-aamco","name":"AAMCO","slug":"ut-unknown-aamco","lat":40.376545,"lng":-111.800951,"state":"UT","city":"","address":"","zip":"","phone":"","email":"","website":"","hours":"","brand":"AAMCO","services":["transmission"],"shopType":"transmission_shop"},{"id":"shop-ut-unknown-precision-windshield-repair","name":"Precision Windshield Repair","slug":"ut-unknown-precision-windshield-repair","lat":40.9818507,"lng":-111.8879164,"state":"UT","city":"","address":"","zip":"","phone":"","email":"","website":"","hours":"","brand":"","services":["general_repair"],"shopType":"general_repair"},{"id":"shop-ut-unknown-dixie-diesel","name":"Dixie Diesel","slug":"ut-unknown-dixie-diesel","lat":37.1126107,"lng":-113.5592468,"state":"UT","city":"","address":"","zip":"","phone":"","email":"","website":"","hours":"","brand":"","services":["diesel"],"shopType":"general_repair"},{"id":"shop-ut-unknown-good-ol-boys-tire-service-center","name":"Good Ol Boys Tire & Service Center","slug":"ut-unknown-good-ol-boys-tire-service-center","lat":37.13052,"lng":-113.5135713,"state":"UT","city":"","address":"","zip":"","phone":"","email":"","website":"","hours":"","brand":"","services":["tires"],"shopType":"tire_shop"},{"id":"shop-ut-west-jordan-top-stop-auto","name":"Top Stop Auto","slug":"ut-west-jordan-top-stop-auto","lat":40.5872343,"lng":-111.9584446,"state":"UT","city":"West Jordan","address":"2729 9000 South","zip":"84088","phone":"","email":"","website":"","hours":"","brand":"","services":["general_repair"],"shopType":"general_repair"},{"id":"shop-ut-provo-j-m-s-transmission-clinic","name":"J&M's Transmission Clinic","slug":"ut-provo-j-m-s-transmission-clinic","lat":40.2227008,"lng":-111.658424,"state":"UT","city":"Provo","address":"855 South University Avenue","zip":"84601","phone":"","email":"","website":"","hours":"","brand":"","services":["transmission"],"shopType":"transmission_shop"},{"id":"shop-ut-provo-master-muffler-shop","name":"Master Muffler Shop","slug":"ut-provo-master-muffler-shop","lat":40.2228359,"lng":-111.658427,"state":"UT","city":"Provo","address":"835 South University Avenue","zip":"84601","phone":"","email":"","website":"","hours":"","brand":"","services":["muffler","exhaust"],"shopType":"general_repair"},{"id":"shop-ut-unknown-grease-monkey","name":"Grease Monkey","slug":"ut-unknown-grease-monkey","lat":37.1214868,"lng":-113.521236,"state":"UT","city":"","address":"","zip":"","phone":"+1 435 627 8444","email":"","website":"","hours":"Mo-Fr 08:00-18:00; Sa 08:00-17:00","brand":"Grease Monkey","services":["general_repair"],"shopType":"general_repair"},{"id":"shop-ut-logan-discount-tire","name":"Discount Tire","slug":"ut-logan-discount-tire","lat":41.7478399,"lng":-111.8349316,"state":"UT","city":"Logan","address":"885 North Main Street","zip":"84321","phone":"","email":"","website":"","hours":"","brand":"Discount Tire","services":["tires"],"shopType":"tire_shop"},{"id":"shop-ut-unknown-grease-monkey-2","name":"Grease Monkey","slug":"ut-unknown-grease-monkey-2","lat":37.1236654,"lng":-113.625824,"state":"UT","city":"","address":"","zip":"","phone":"","email":"","website":"","hours":"","brand":"Grease Monkey","services":["general_repair"],"shopType":"general_repair"},{"id":"shop-ut-unknown-red-rock-collision-repair-auto-painting","name":"Red Rock Collision Repair & Auto Painting","slug":"ut-unknown-red-rock-collision-repair-auto-painting","lat":37.1206695,"lng":-113.5591565,"state":"UT","city":"","address":"","zip":"","phone":"+1 435 628 7625","email":"","website":"","hours":"Mo-Fr 08:00-18:00","brand":"","services":["body_work"],"shopType":"body_shop"},{"id":"shop-ut-unknown-big-o-tires-2","name":"Big O Tires","slug":"ut-unknown-big-o-tires-2","lat":37.0900671,"lng":-113.5851613,"state":"UT","city":"","address":"","zip":"","phone":"","email":"","website":"","hours":"","brand":"Big O Tires","services":["tires"],"shopType":"tire_shop"},{"id":"shop-ut-st-george-bracken-s-auto-tech","name":"Bracken's Auto Tech","slug":"ut-st-george-bracken-s-auto-tech","lat":37.1093871,"lng":-113.5616702,"state":"UT","city":"St. George","address":"86 North 1000 East","zip":"84770","phone":"","email":"","website":"","hours":"Mo-Fr 08:00-18:00, Sa 08:00-17:00","brand":"","services":["general_repair"],"shopType":"general_repair"},{"id":"shop-ut-unknown-interwest-rebuilders","name":"Interwest Rebuilders","slug":"ut-unknown-interwest-rebuilders","lat":37.1087838,"lng":-113.5616944,"state":"UT","city":"","address":"","zip":"","phone":"","email":"","website":"","hours":"","brand":"","services":["general_repair"],"shopType":"general_repair"},{"id":"shop-ut-unknown-jiffy-lube-3","name":"Jiffy Lube","slug":"ut-unknown-jiffy-lube-3","lat":40.4322677,"lng":-111.7840493,"state":"UT","city":"","address":"","zip":"","phone":"","email":"","website":"","hours":"","brand":"Jiffy Lube","services":["oil_change"],"shopType":"quick_lube"},{"id":"shop-ut-unknown-ique-repair","name":"iQue Repair","slug":"ut-unknown-ique-repair","lat":40.3878,"lng":-111.8230742,"state":"UT","city":"","address":"","zip":"","phone":"","email":"","website":"","hours":"","brand":"","services":["general_repair"],"shopType":"general_repair"},{"id":"shop-ut-unknown-big-o-tires-3","name":"Big O Tires","slug":"ut-unknown-big-o-tires-3","lat":40.5908262,"lng":-111.8716905,"state":"UT","city":"","address":"","zip":"","phone":"","email":"","website":"","hours":"","brand":"Big O Tires","services":["tires"],"shopType":"tire_shop"},{"id":"shop-ut-unknown-five-star-tire","name":"Five Star Tire","slug":"ut-unknown-five-star-tire","lat":40.45148,"lng":-109.5472864,"state":"UT","city":"","address":"","zip":"","phone":"","email":"","website":"","hours":"","brand":"","services":["tires"],"shopType":"tire_shop"},{"id":"shop-ut-salt-lake-city-schneider-auto-body","name":"Schneider Auto Body","slug":"ut-salt-lake-city-schneider-auto-body","lat":40.7433487,"lng":-111.9027467,"state":"UT","city":"Salt Lake City","address":"1180 South 400 West","zip":"84101","phone":"+1 801-484-9400","email":"","website":"https://www.schneiderauto.net/","hours":"Mo-Fr 08:30-17:30","brand":"","services":["body_work"],"shopType":"body_shop"},{"id":"shop-ut-unknown-grease-monkey-3","name":"Grease Monkey","slug":"ut-unknown-grease-monkey-3","lat":40.9211685,"lng":-111.8799365,"state":"UT","city":"","address":"","zip":"","phone":"","email":"","website":"","hours":"","brand":"Grease Monkey","services":["general_repair"],"shopType":"general_repair"},{"id":"shop-ut-unknown-slick-willey-s-lube","name":"Slick Willey's Lube","slug":"ut-unknown-slick-willey-s-lube","lat":37.1761638,"lng":-113.3060227,"state":"UT","city":"","address":"","zip":"","phone":"","email":"","website":"","hours":"","brand":"","services":["oil_change"],"shopType":"quick_lube"},{"id":"shop-ut-unknown-midland-car-care-center","name":"Midland Car Care Center","slug":"ut-unknown-midland-car-care-center","lat":41.1778789,"lng":-112.0649488,"state":"UT","city":"","address":"","zip":"","phone":"","email":"","website":"","hours":"","brand":"","services":["tires","oil_change","tyres"],"shopType":"general_repair"},{"id":"shop-ut-roy-c-m-tires","name":"C & M Tires","slug":"ut-roy-c-m-tires","lat":41.170416,"lng":-112.0255839,"state":"UT","city":"Roy","address":"5140 South 1900 West","zip":"84067","phone":"+1 801 7746378","email":"","website":"http://cmtires.com/","hours":"Mo-Fr 08:00-18:00; Sa 08:00-17:00","brand":"","services":["tires"],"shopType":"tire_shop"},{"id":"shop-ut-unknown-eurotech","name":"EuroTech","slug":"ut-unknown-eurotech","lat":37.1078728,"lng":-113.5927303,"state":"UT","city":"","address":"","zip":"","phone":"","email":"","website":"","hours":"","brand":"","services":["general_repair"],"shopType":"general_repair"},{"id":"shop-ut-unknown-gene-s-ok-tires","name":"Gene's OK Tires","slug":"ut-unknown-gene-s-ok-tires","lat":37.1096996,"lng":-113.5905846,"state":"UT","city":"","address":"","zip":"","phone":"","email":"","website":"","hours":"","brand":"","services":["tires"],"shopType":"tire_shop"},{"id":"shop-ut-unknown-safelite-autoglass","name":"Safelite AutoGlass","slug":"ut-unknown-safelite-autoglass","lat":37.1097118,"lng":-113.5877739,"state":"UT","city":"","address":"","zip":"","phone":"","email":"","website":"","hours":"","brand":"Safelite AutoGlass","services":["glass"],"shopType":"general_repair"},{"id":"shop-ut-unknown-peter-s-auto-repair","name":"Peter's Auto Repair","slug":"ut-unknown-peter-s-auto-repair","lat":37.1094615,"lng":-113.5868469,"state":"UT","city":"","address":"","zip":"","phone":"","email":"","website":"","hours":"","brand":"","services":["general_repair"],"shopType":"general_repair"},{"id":"shop-ut-unknown-fox-s-friendly-automotive","name":"Fox's Friendly Automotive","slug":"ut-unknown-fox-s-friendly-automotive","lat":37.1096124,"lng":-113.5628414,"state":"UT","city":"","address":"","zip":"","phone":"","email":"","website":"","hours":"","brand":"","services":["general_repair"],"shopType":"general_repair"},{"id":"shop-ut-unknown-red-rock-window-tinting","name":"Red Rock Window Tinting","slug":"ut-unknown-red-rock-window-tinting","lat":37.1094046,"lng":-113.5628837,"state":"UT","city":"","address":"","zip":"","phone":"","email":"","website":"","hours":"","brand":"","services":["general_repair"],"shopType":"general_repair"},{"id":"shop-ut-unknown-discount-tire","name":"Discount Tire","slug":"ut-unknown-discount-tire","lat":41.1655441,"lng":-112.0265348,"state":"UT","city":"","address":"","zip":"","phone":"","email":"","website":"","hours":"","brand":"Discount Tire","services":["tires"],"shopType":"tire_shop"},{"id":"shop-ut-salt-lake-city-alpine-foreign-repair","name":"Alpine Foreign Repair","slug":"ut-salt-lake-city-alpine-foreign-repair","lat":40.750057,"lng":-111.881306,"state":"UT","city":"Salt Lake City","address":"341 East 900 South","zip":"","phone":"+1-801-355-6459","email":"","website":"https://www.alpineforeignrepair.com/","hours":"Mo-Th 07:30-16:30","brand":"Audi;BMW;Mercedes-Benz","services":["general_repair"],"shopType":"general_repair"},{"id":"shop-ut-unknown-discount-tire-2","name":"Discount Tire","slug":"ut-unknown-discount-tire-2","lat":40.5785755,"lng":-111.8354322,"state":"UT","city":"","address":"","zip":"","phone":"","email":"","website":"","hours":"","brand":"Discount Tire","services":["tires"],"shopType":"tire_shop"},{"id":"shop-ut-unknown-leli-s-auto","name":"Leli's Auto","slug":"ut-unknown-leli-s-auto","lat":40.7506435,"lng":-111.890705,"state":"UT","city":"","address":"","zip":"","phone":"","email":"","website":"","hours":"","brand":"","services":["general_repair"],"shopType":"general_repair"},{"id":"shop-ut-unknown-ben-s","name":"Ben's","slug":"ut-unknown-ben-s","lat":41.1758738,"lng":-112.0587875,"state":"UT","city":"","address":"West 4800 South","zip":"","phone":"","email":"","website":"","hours":"","brand":"","services":["general_repair"],"shopType":"general_repair"},{"id":"shop-ut-unknown-aw-towing","name":"Aw Towing","slug":"ut-unknown-aw-towing","lat":41.0793395,"lng":-111.9838105,"state":"UT","city":"","address":"","zip":"","phone":"","email":"","website":"","hours":"","brand":"","services":["general_repair"],"shopType":"general_repair"},{"id":"shop-ut-unknown-stereo-steve-s","name":"Stereo Steve's","slug":"ut-unknown-stereo-steve-s","lat":40.3096235,"lng":-111.7015544,"state":"UT","city":"","address":"","zip":"","phone":"","email":"","website":"","hours":"","brand":"","services":["general_repair"],"shopType":"general_repair"},{"id":"shop-ut-unknown-euro-planet","name":"Euro Planet","slug":"ut-unknown-euro-planet","lat":40.7548733,"lng":-111.8970384,"state":"UT","city":"","address":"","zip":"","phone":"","email":"","website":"","hours":"","brand":"","services":["car_repair"],"shopType":"general_repair"},{"id":"shop-ut-layton-chesty-s-auto-repair","name":"Chesty's Auto Repair","slug":"ut-layton-chesty-s-auto-repair","lat":41.0701557,"lng":-111.976716,"state":"UT","city":"Layton","address":"687 North Main Street","zip":"84041","phone":"+1 801-513-5227","email":"","website":"","hours":"Mo-Th 08:30-17:30; Fr 8:30-17:00","brand":"","services":["general_repair"],"shopType":"general_repair"},{"id":"shop-ut-bountiful-premier-auto-glass","name":"Premier Auto Glass","slug":"ut-bountiful-premier-auto-glass","lat":40.8461149,"lng":-111.9046165,"state":"UT","city":"Bountiful","address":"874 W 4000 S","zip":"84010","phone":"+1 801-839-9389","email":"","website":"http://premierautoglassut.net","hours":"","brand":"","services":["glass"],"shopType":"general_repair"},{"id":"shop-ut-unknown-walmart-auto-center","name":"Walmart Auto Center","slug":"ut-unknown-walmart-auto-center","lat":37.1262396,"lng":-113.516935,"state":"UT","city":"","address":"","zip":"","phone":"","email":"","website":"","hours":"","brand":"","services":["general_repair"],"shopType":"general_repair"},{"id":"shop-ut-unknown-big-o-tires-4","name":"Big O Tires","slug":"ut-unknown-big-o-tires-4","lat":37.1231076,"lng":-113.620444,"state":"UT","city":"","address":"","zip":"","phone":"","email":"","website":"","hours":"","brand":"Big O Tires","services":["tires"],"shopType":"tire_shop"},{"id":"shop-ut-salt-lake-city-tip-top-transmissions","name":"Tip Top Transmissions","slug":"ut-salt-lake-city-tip-top-transmissions","lat":40.7366242,"lng":-111.897147,"state":"UT","city":"Salt Lake City","address":"2211 North Warm Springs Road","zip":"84116","phone":"+1 801-484-1688","email":"info@tiptoptransmissions.com","website":"https://www.tiptoptransmissions.com","hours":"Mo-Fr 08:00-17:00","brand":"","services":["transmission"],"shopType":"transmission_shop"},{"id":"shop-ut-unknown-jiffy-lube-4","name":"Jiffy Lube","slug":"ut-unknown-jiffy-lube-4","lat":37.0855562,"lng":-113.555563,"state":"UT","city":"","address":"1393 River Road","zip":"","phone":"","email":"","website":"","hours":"","brand":"Jiffy Lube","services":["oil_change"],"shopType":"quick_lube"},{"id":"shop-ut-unknown-jiffy-lube-5","name":"Jiffy Lube","slug":"ut-unknown-jiffy-lube-5","lat":40.3869021,"lng":-111.8362099,"state":"UT","city":"","address":"","zip":"","phone":"","email":"","website":"","hours":"","brand":"Jiffy Lube","services":["oil_change"],"shopType":"quick_lube"},{"id":"shop-ut-unknown-roger-s-automotive","name":"Roger's Automotive","slug":"ut-unknown-roger-s-automotive","lat":40.400823,"lng":-111.8525519,"state":"UT","city":"","address":"","zip":"","phone":"","email":"","website":"","hours":"","brand":"","services":["general_repair"],"shopType":"general_repair"},{"id":"shop-ut-unknown-k-k-automotive","name":"K & K Automotive","slug":"ut-unknown-k-k-automotive","lat":38.9375713,"lng":-111.8539173,"state":"UT","city":"","address":"","zip":"","phone":"","email":"","website":"","hours":"","brand":"","services":["general_repair"],"shopType":"general_repair"},{"id":"shop-ut-unknown-big-g-automotive","name":"Big G Automotive","slug":"ut-unknown-big-g-automotive","lat":39.2686041,"lng":-111.6366732,"state":"UT","city":"","address":"","zip":"","phone":"","email":"","website":"","hours":"","brand":"","services":["general_repair"],"shopType":"general_repair"},{"id":"shop-ut-unknown-miller-s-auto-body","name":"Miller's Auto Body","slug":"ut-unknown-miller-s-auto-body","lat":39.2689823,"lng":-111.6372139,"state":"UT","city":"","address":"","zip":"","phone":"","email":"","website":"","hours":"","brand":"","services":["body_work","body_repair"],"shopType":"general_repair"},{"id":"shop-ut-unknown-barry-s-auto-body","name":"Barry's Auto Body","slug":"ut-unknown-barry-s-auto-body","lat":39.6250571,"lng":-111.439516,"state":"UT","city":"","address":"","zip":"","phone":"","email":"","website":"","hours":"","brand":"","services":["body_work"],"shopType":"body_shop"},{"id":"shop-ut-unknown-scott-s","name":"Scott's","slug":"ut-unknown-scott-s","lat":39.624239,"lng":-111.4395289,"state":"UT","city":"","address":"","zip":"","phone":"","email":"","website":"","hours":"","brand":"","services":["general_repair"],"shopType":"general_repair"},{"id":"shop-ut-unknown-seagull-diesel-repair","name":"Seagull Diesel Repair","slug":"ut-unknown-seagull-diesel-repair","lat":40.8160844,"lng":-111.9389556,"state":"UT","city":"","address":"","zip":"","phone":"","email":"","website":"","hours":"","brand":"","services":["diesel"],"shopType":"general_repair"},{"id":"shop-ut-layton-quick-emissions","name":"Quick Emissions","slug":"ut-layton-quick-emissions","lat":41.0675704,"lng":-111.9740195,"state":"UT","city":"Layton","address":"505 North Main Street","zip":"84041","phone":"+1 801 682 8799","email":"quickemissions@gmail.com","website":"https://quickemissionsutah.com/","hours":"Mo-Fr 08:00-18:00; Sa 08:00-17:00","brand":"","services":["inspection"],"shopType":"general_repair"},{"id":"shop-ut-midvale-rush-diesel-automotive","name":"RUSH Diesel & Automotive","slug":"ut-midvale-rush-diesel-automotive","lat":40.607184,"lng":-111.8917529,"state":"UT","city":"Midvale","address":"7936 South State Street","zip":"84047","phone":"+1-801-565-3634","email":"","website":"https://www.rushdieselrepair.com/","hours":"Mo-Fr 08:00-18:00","brand":"","services":["car_repair","tires","brakes","diesel","tyres"],"shopType":"general_repair"},{"id":"shop-ut-vernal-big-o-tires","name":"Big O Tires","slug":"ut-vernal-big-o-tires","lat":40.4371549,"lng":-109.566964,"state":"UT","city":"Vernal","address":"2045 W Hwy 40","zip":"84078","phone":"+1 435-781-2446","email":"","website":"","hours":"","brand":"Big O Tires","services":["tires"],"shopType":"tire_shop"},{"id":"shop-ut-vernal-sam-s-body-shop","name":"Sam's Body Shop","slug":"ut-vernal-sam-s-body-shop","lat":40.4410834,"lng":-109.5614081,"state":"UT","city":"Vernal","address":"1732 West 1000 South","zip":"84078","phone":"+1 435-789-6718","email":"","website":"","hours":"","brand":"","services":["body_work","body_repair"],"shopType":"body_shop"},{"id":"shop-ut-vernal-basin-collision-repair","name":"Basin Collision Repair","slug":"ut-vernal-basin-collision-repair","lat":40.4330267,"lng":-109.5705855,"state":"UT","city":"Vernal","address":"2243 W 1500 S","zip":"84078","phone":"+1 435-789-7568","email":"","website":"","hours":"","brand":"","services":["car_repair","body_work"],"shopType":"body_shop"},{"id":"shop-ut-unknown-tire-and-lube-center","name":"Tire and Lube Center","slug":"ut-unknown-tire-and-lube-center","lat":41.2696969,"lng":-111.9720712,"state":"UT","city":"","address":"","zip":"","phone":"","email":"","website":"","hours":"","brand":"","services":["tires","oil_change"],"shopType":"quick_lube"},{"id":"shop-ut-unknown-bad-boys-autobody","name":"Bad Boys Autobody","slug":"ut-unknown-bad-boys-autobody","lat":40.435455,"lng":-109.499055,"state":"UT","city":"","address":"","zip":"","phone":"","email":"","website":"","hours":"","brand":"","services":["body_work"],"shopType":"body_shop"},{"id":"shop-ut-unknown-adams-body-paint","name":"Adams Body & Paint","slug":"ut-unknown-adams-body-paint","lat":40.454088,"lng":-109.5200086,"state":"UT","city":"","address":"","zip":"","phone":"","email":"","website":"","hours":"","brand":"","services":["body_work"],"shopType":"body_shop"},{"id":"shop-ut-orem-taysom-tire-muffler-auto-repair","name":"Taysom Tire Muffler & Auto Repair","slug":"ut-orem-taysom-tire-muffler-auto-repair","lat":40.3091443,"lng":-111.700524,"state":"UT","city":"Orem","address":"651 North State Street","zip":"84057","phone":"+1 801-225-6343","email":"","website":"https://taysomtire.com/","hours":"","brand":"","services":["tires","exhaust"],"shopType":"general_repair"},{"id":"shop-ut-west-valley-city-christensen-s-point-s","name":"Christensen's Point S","slug":"ut-west-valley-city-christensen-s-point-s","lat":40.6698035,"lng":-112.024051,"state":"UT","city":"West Valley City","address":"4607 South 5600 West","zip":"84120","phone":"+1 801-840-0772","email":"","website":"https://pointstire.com/","hours":"Mo-Fr 07:30-18:00; Sa 07:30-17:00","brand":"","services":["tires"],"shopType":"general_repair"},{"id":"shop-ut-provo-s-r-automotive","name":"S & R Automotive","slug":"ut-provo-s-r-automotive","lat":40.2036779,"lng":-111.623764,"state":"UT","city":"Provo","address":"2255 S State St","zip":"84606","phone":"+1-801-377-2365","email":"","website":"https://www.sandrautomotiveut.com/","hours":"Mo-Fr 09:00-18:00","brand":"","services":["general_repair"],"shopType":"general_repair"},{"id":"shop-ut-unknown-havoline-xpress-lube","name":"Havoline xpress lube","slug":"ut-unknown-havoline-xpress-lube","lat":37.1246354,"lng":-113.6068621,"state":"UT","city":"","address":"","zip":"","phone":"","email":"","website":"","hours":"","brand":"","services":["oil_change"],"shopType":"quick_lube"},{"id":"shop-ut-orem-mitch-s-autoworks","name":"Mitch's Autoworks","slug":"ut-orem-mitch-s-autoworks","lat":40.315462,"lng":-111.7008442,"state":"UT","city":"Orem","address":"238 West 990 North","zip":"84057","phone":"+1-801-426-9990","email":"","website":"https://www.mitchsautoworks.com/","hours":"","brand":"","services":["general_repair"],"shopType":"general_repair"},{"id":"shop-ut-salt-lake-city-big-o-tires","name":"Big O Tires","slug":"ut-salt-lake-city-big-o-tires","lat":40.7690931,"lng":-111.8857101,"state":"UT","city":"Salt Lake City","address":"178 East South Temple","zip":"84111","phone":"+1 801-386-9387","email":"","website":"https://www.bigotires.com/location/ut/salt-lake-city/178-e-south-temple-84111/044206","hours":"Mo-Fr 07:00-18:00; Sa 07:00-16:00; Su off","brand":"Big O Tires","services":["tires"],"shopType":"tire_shop"},{"id":"shop-ut-unknown-marco-s-tires-auto-repair","name":"Marco's Tires & Auto Repair","slug":"ut-unknown-marco-s-tires-auto-repair","lat":40.2278257,"lng":-111.6618891,"state":"UT","city":"","address":"","zip":"","phone":"","email":"","website":"","hours":"","brand":"","services":["tires"],"shopType":"tire_shop"},{"id":"shop-ut-unknown-wholesale-pearson-tires","name":"Wholesale Pearson Tires","slug":"ut-unknown-wholesale-pearson-tires","lat":40.2303393,"lng":-111.6602919,"state":"UT","city":"","address":"","zip":"","phone":"","email":"","website":"","hours":"","brand":"","services":["tires"],"shopType":"tire_shop"},{"id":"shop-ut-unknown-cooper-tires","name":"Cooper Tires","slug":"ut-unknown-cooper-tires","lat":40.2302891,"lng":-111.6602959,"state":"UT","city":"","address":"","zip":"","phone":"","email":"","website":"","hours":"","brand":"","services":["tires"],"shopType":"tire_shop"},{"id":"shop-ut-unknown-sam-s-club-tire-installation","name":"Sam's Club Tire Installation","slug":"ut-unknown-sam-s-club-tire-installation","lat":40.2165576,"lng":-111.6573347,"state":"UT","city":"","address":"","zip":"","phone":"","email":"","website":"","hours":"","brand":"","services":["tires"],"shopType":"tire_shop"},{"id":"shop-ut-unknown-cutrubus-collision-center","name":"Cutrubus Collision Center","slug":"ut-unknown-cutrubus-collision-center","lat":41.0791243,"lng":-111.9835752,"state":"UT","city":"","address":"","zip":"","phone":"","email":"","website":"","hours":"","brand":"","services":["body_work"],"shopType":"body_shop"},{"id":"shop-ut-unknown-body-shop-of-layton","name":"Body Shop of Layton","slug":"ut-unknown-body-shop-of-layton","lat":41.079389,"lng":-111.9829251,"state":"UT","city":"","address":"","zip":"","phone":"","email":"","website":"","hours":"","brand":"","services":["body_work"],"shopType":"body_shop"},{"id":"shop-ut-unknown-shi-stop-shop","name":"Shi Stop Shop","slug":"ut-unknown-shi-stop-shop","lat":37.004554,"lng":-110.2205603,"state":"UT","city":"","address":"","zip":"84536","phone":"+14357273310","email":"","website":"","hours":"","brand":"","services":["general_repair"],"shopType":"general_repair"},{"id":"shop-ut-unknown-emissions-made-easy","name":"Emissions Made Easy","slug":"ut-unknown-emissions-made-easy","lat":40.1716573,"lng":-111.6102421,"state":"UT","city":"","address":"","zip":"","phone":"","email":"","website":"","hours":"","brand":"","services":["inspection"],"shopType":"general_repair"},{"id":"shop-ut-unknown-peterson-automotive","name":"Peterson Automotive","slug":"ut-unknown-peterson-automotive","lat":40.1716686,"lng":-111.6101563,"state":"UT","city":"","address":"","zip":"","phone":"","email":"","website":"","hours":"","brand":"","services":["general_repair"],"shopType":"general_repair"},{"id":"shop-ut-salt-lake-city-burt-bros-auto","name":"Burt Bros. Auto","slug":"ut-salt-lake-city-burt-bros-auto","lat":40.762574,"lng":-111.884965,"state":"UT","city":"Salt Lake City","address":"204 East 300 South","zip":"84111","phone":"","email":"","website":"","hours":"Mo-Fr 08:00-18:00; Sa 08:00-17:00","brand":"","services":["general_repair"],"shopType":"general_repair"},{"id":"shop-ut-unknown-carcare-collision-repair","name":"CarCare Collision Repair","slug":"ut-unknown-carcare-collision-repair","lat":40.6410759,"lng":-111.8989454,"state":"UT","city":"","address":"","zip":"","phone":"","email":"","website":"","hours":"","brand":"","services":["body_work"],"shopType":"body_shop"},{"id":"shop-ut-unknown-the-chapel","name":"The Chapel","slug":"ut-unknown-the-chapel","lat":40.6412407,"lng":-111.8989454,"state":"UT","city":"","address":"","zip":"","phone":"","email":"","website":"","hours":"","brand":"","services":["general_repair"],"shopType":"general_repair"},{"id":"shop-ut-unknown-the-mechanic-man","name":"The Mechanic Man","slug":"ut-unknown-the-mechanic-man","lat":40.6664873,"lng":-111.8919757,"state":"UT","city":"","address":"","zip":"","phone":"","email":"","website":"","hours":"","brand":"","services":["general_repair"],"shopType":"general_repair"},{"id":"shop-ut-unknown-dekra","name":"Dekra","slug":"ut-unknown-dekra","lat":41.2313748,"lng":-111.9698797,"state":"UT","city":"","address":"","zip":"","phone":"","email":"","website":"","hours":"","brand":"Dekra","services":["inspection"],"shopType":"general_repair"},{"id":"shop-ut-unknown-midas-2","name":"Midas","slug":"ut-unknown-midas-2","lat":41.2586991,"lng":-111.9691874,"state":"UT","city":"","address":"","zip":"","phone":"","email":"","website":"","hours":"","brand":"Midas","services":["general_repair"],"shopType":"general_repair"},{"id":"shop-ut-unknown-automotive-maintenance-specialists","name":"Automotive Maintenance Specialists","slug":"ut-unknown-automotive-maintenance-specialists","lat":41.2586662,"lng":-111.9701021,"state":"UT","city":"","address":"","zip":"","phone":"","email":"","website":"","hours":"","brand":"","services":["general_repair"],"shopType":"general_repair"},{"id":"shop-ut-unknown-jacks-tire-oil","name":"Jacks Tire & Oil","slug":"ut-unknown-jacks-tire-oil","lat":41.244637,"lng":-111.9808215,"state":"UT","city":"","address":"","zip":"","phone":"","email":"","website":"","hours":"","brand":"","services":["tires"],"shopType":"tire_shop"},{"id":"shop-ut-unknown-jiffy-lube-6","name":"Jiffy Lube","slug":"ut-unknown-jiffy-lube-6","lat":41.3019265,"lng":-111.9693221,"state":"UT","city":"","address":"","zip":"","phone":"","email":"","website":"","hours":"","brand":"Jiffy Lube","services":["oil_change"],"shopType":"quick_lube"},{"id":"shop-ut-unknown-jiffy-lube-7","name":"Jiffy Lube","slug":"ut-unknown-jiffy-lube-7","lat":41.0378084,"lng":-111.9423931,"state":"UT","city":"","address":"","zip":"","phone":"","email":"","website":"","hours":"","brand":"Jiffy Lube","services":["oil_change"],"shopType":"quick_lube"},{"id":"shop-ut-unknown-matt-s-off-road-recovery","name":"Matt's Off-Road Recovery","slug":"ut-unknown-matt-s-off-road-recovery","lat":37.1828612,"lng":-113.3303575,"state":"UT","city":"","address":"455 North 2260 West","zip":"84737","phone":"+1-435-635-2231","email":"mattstowingandrecovery51@gmail.com","website":"","hours":"24/7","brand":"","services":["general_repair"],"shopType":"general_repair"},{"id":"shop-ut-unknown-harley-davidson","name":"Harley-Davidson","slug":"ut-unknown-harley-davidson","lat":40.7077231,"lng":-111.88874,"state":"UT","city":"","address":"","zip":"","phone":"","email":"","website":"https://www.harleydavidsonofsaltlakecity.com/service/","hours":"Mo-Fr 09:00-18:00; Sa 09:00-17:00","brand":"Harley-Davidson","services":["general_repair"],"shopType":"general_repair"},{"id":"shop-ut-unknown-les-schwab-tire-center-3","name":"Les Schwab Tire Center","slug":"ut-unknown-les-schwab-tire-center-3","lat":40.4929875,"lng":-111.4144737,"state":"UT","city":"","address":"","zip":"","phone":"","email":"","website":"","hours":"","brand":"Les Schwab","services":["tires"],"shopType":"tire_shop"},{"id":"shop-ut-south-ogden-master-autotech","name":"Master Autotech","slug":"ut-south-ogden-master-autotech","lat":41.1639648,"lng":-111.9524999,"state":"UT","city":"South Ogden","address":"1025 E Chambers Street","zip":"84403","phone":"","email":"","website":"https://southogden.mastermuffler.net","hours":"Mo-Fr 07:30-18:00","brand":"","services":["car_repair","oil_change","air_conditioning","diagnostics","brakes","muffler","exhaust"],"shopType":"general_repair"},{"id":"shop-ut-unknown-emission-one","name":"Emission One","slug":"ut-unknown-emission-one","lat":40.6193115,"lng":-111.8622806,"state":"UT","city":"","address":"","zip":"","phone":"","email":"","website":"","hours":"","brand":"","services":["general_repair"],"shopType":"general_repair"},{"id":"shop-ut-unknown-v-l-auto","name":"V&L Auto","slug":"ut-unknown-v-l-auto","lat":40.7413051,"lng":-111.9171667,"state":"UT","city":"","address":"","zip":"","phone":"","email":"","website":"","hours":"","brand":"","services":["general_repair"],"shopType":"general_repair"},{"id":"shop-ut-unknown-js-automotive-repair","name":"JS Automotive Repair","slug":"ut-unknown-js-automotive-repair","lat":40.7500797,"lng":-111.8988363,"state":"UT","city":"","address":"","zip":"","phone":"","email":"","website":"","hours":"","brand":"","services":["general_repair"],"shopType":"general_repair"},{"id":"shop-ut-unknown-clark-s-auto-repair","name":"Clark's Auto Repair","slug":"ut-unknown-clark-s-auto-repair","lat":40.7332793,"lng":-111.8764237,"state":"UT","city":"","address":"","zip":"","phone":"","email":"","website":"","hours":"","brand":"","services":["general_repair"],"shopType":"general_repair"},{"id":"shop-ut-unknown-streamline-industries","name":"Streamline Industries","slug":"ut-unknown-streamline-industries","lat":40.7251877,"lng":-111.879992,"state":"UT","city":"","address":"","zip":"","phone":"","email":"","website":"","hours":"Tu-Fr 08:00-16:00","brand":"","services":["general_repair"],"shopType":"general_repair"},{"id":"shop-ut-unknown-grant-automotive","name":"Grant Automotive","slug":"ut-unknown-grant-automotive","lat":39.2120226,"lng":-111.0155261,"state":"UT","city":"","address":"","zip":"","phone":"","email":"","website":"","hours":"","brand":"","services":["tires"],"shopType":"general_repair"},{"id":"shop-ut-castle-dale-black-diamond-auto","name":"Black Diamond Auto","slug":"ut-castle-dale-black-diamond-auto","lat":39.2119707,"lng":-111.0120486,"state":"UT","city":"Castle Dale","address":"415 East Main Street","zip":"84513","phone":"","email":"","website":"","hours":"","brand":"","services":["general_repair"],"shopType":"general_repair"},{"id":"shop-ut-unknown-sampsons-auto-body","name":"Sampsons Auto Body","slug":"ut-unknown-sampsons-auto-body","lat":39.2120725,"lng":-111.0095313,"state":"UT","city":"","address":"","zip":"","phone":"","email":"","website":"","hours":"","brand":"","services":["body_work"],"shopType":"body_shop"},{"id":"shop-ut-unknown-red-rock-collision-repair-auto-painting-2","name":"Red Rock Collision Repair & Auto Painting","slug":"ut-unknown-red-rock-collision-repair-auto-painting-2","lat":40.3076401,"lng":-111.6986339,"state":"UT","city":"","address":"","zip":"","phone":"+1-801-224-9979","email":"","website":"https://www.redrockcollisionrepair.com/","hours":"","brand":"","services":["body_work"],"shopType":"body_shop"},{"id":"shop-ut-unknown-r-k-muffler","name":"R&K Muffler","slug":"ut-unknown-r-k-muffler","lat":39.5423187,"lng":-110.7194035,"state":"UT","city":"","address":"","zip":"","phone":"","email":"","website":"","hours":"","brand":"","services":["exhaust"],"shopType":"general_repair"},{"id":"shop-ut-unknown-doug-s-master-auto-care","name":"Doug's Master Auto Care","slug":"ut-unknown-doug-s-master-auto-care","lat":37.1259624,"lng":-113.6386821,"state":"UT","city":"","address":"","zip":"","phone":"","email":"","website":"","hours":"","brand":"","services":["general_repair"],"shopType":"general_repair"},{"id":"shop-ut-unknown-cove-fort-towing","name":"Cove Fort Towing","slug":"ut-unknown-cove-fort-towing","lat":38.6123269,"lng":-112.6052412,"state":"UT","city":"","address":"","zip":"","phone":"+1 435-438-5574","email":"","website":"","hours":"","brand":"","services":["tires","towing","repair","tyres"],"shopType":"general_repair"},{"id":"shop-ut-salt-lake-city-romaine-electric","name":"Romaine Electric","slug":"ut-salt-lake-city-romaine-electric","lat":40.7442403,"lng":-111.899306,"state":"UT","city":"Salt Lake City","address":"1125 South 300 West","zip":"84101","phone":"+1-800-294-3664","email":"","website":"https://www.romaineelectric.com","hours":"","brand":"","services":["general_repair"],"shopType":"general_repair"},{"id":"shop-ut-unknown-patriot-automotive","name":"Patriot Automotive","slug":"ut-unknown-patriot-automotive","lat":40.6911685,"lng":-111.8908033,"state":"UT","city":"","address":"","zip":"","phone":"","email":"","website":"","hours":"","brand":"","services":["general_repair"],"shopType":"general_repair"},{"id":"shop-ut-unknown-liberty-auto-repair","name":"Liberty Auto Repair","slug":"ut-unknown-liberty-auto-repair","lat":40.7414304,"lng":-111.88002,"state":"UT","city":"","address":"","zip":"","phone":"","email":"","website":"https://libertyautorepairslc.com","hours":"","brand":"","services":["oil_change","struts","shocks","brakes","repairs"],"shopType":"general_repair"},{"id":"shop-ut-unknown-regent-street-service","name":"Regent Street Service","slug":"ut-unknown-regent-street-service","lat":40.7430813,"lng":-111.8885264,"state":"UT","city":"","address":"","zip":"","phone":"+1 801 487 6077","email":"","website":"","hours":"","brand":"","services":["general_repair"],"shopType":"general_repair"},{"id":"shop-ut-unknown-salt-lake-scooters","name":"Salt Lake Scooters","slug":"ut-unknown-salt-lake-scooters","lat":40.7426838,"lng":-111.8894277,"state":"UT","city":"","address":"","zip":"","phone":"","email":"","website":"","hours":"","brand":"","services":["general_repair"],"shopType":"general_repair"},{"id":"shop-ut-unknown-txt-auto","name":"TXT Auto","slug":"ut-unknown-txt-auto","lat":40.741246,"lng":-111.8888103,"state":"UT","city":"","address":"","zip":"","phone":"","email":"","website":"","hours":"","brand":"","services":["general_repair"],"shopType":"general_repair"},{"id":"shop-ut-unknown-lok-automotive","name":"Lok Automotive","slug":"ut-unknown-lok-automotive","lat":40.7406435,"lng":-111.8886123,"state":"UT","city":"","address":"","zip":"","phone":"","email":"","website":"","hours":"","brand":"","services":["general_repair"],"shopType":"general_repair"},{"id":"shop-ut-unknown-nate-wade-body-shop","name":"Nate Wade Body Shop","slug":"ut-unknown-nate-wade-body-shop","lat":40.7407512,"lng":-111.8893486,"state":"UT","city":"","address":"","zip":"","phone":"","email":"","website":"","hours":"Mo-Fr 07:30-17:30","brand":"","services":["body_work"],"shopType":"body_shop"},{"id":"shop-ut-unknown-certified-automotive","name":"Certified Automotive","slug":"ut-unknown-certified-automotive","lat":40.6984462,"lng":-111.8935409,"state":"UT","city":"","address":"","zip":"","phone":"","email":"","website":"https://www.certifiedauto.info/","hours":"","brand":"","services":["general_repair"],"shopType":"general_repair"},{"id":"shop-ut-unknown-ahns-custom-vinyl","name":"Ahns Custom & Vinyl","slug":"ut-unknown-ahns-custom-vinyl","lat":40.6966144,"lng":-111.896367,"state":"UT","city":"","address":"","zip":"","phone":"+1 801 935 4943","email":"","website":"https://AhnsCustom.com","hours":"Mo-Fr 09:00-21:00; Sa 09:00-19:00","brand":"","services":["general_repair"],"shopType":"general_repair"},{"id":"shop-ut-logan-economy-auto-repair","name":"Economy Auto Repair","slug":"ut-logan-economy-auto-repair","lat":41.7589468,"lng":-111.8415612,"state":"UT","city":"Logan","address":"1456 North 300 West","zip":"84341","phone":"","email":"","website":"","hours":"","brand":"","services":["general_repair"],"shopType":"general_repair"},{"id":"shop-ut-kanab-ramsay-towing","name":"Ramsay Towing","slug":"ut-kanab-ramsay-towing","lat":37.0459514,"lng":-112.526095,"state":"UT","city":"Kanab","address":"131 South 100 East","zip":"84741","phone":"+1 435 644 8070","email":"","website":"","hours":"","brand":"","services":["general_repair"],"shopType":"general_repair"},{"id":"shop-ut-logan-ridgeline-automotive","name":"Ridgeline Automotive","slug":"ut-logan-ridgeline-automotive","lat":41.7691324,"lng":-111.8042902,"state":"UT","city":"Logan","address":"1200 East 2100 North","zip":"84341","phone":"+1 435 753 2592","email":"","website":"https://ridgelineautomotive.net/","hours":"Mo-Fr 08:00-17:00","brand":"","services":["inspection","car_repair"],"shopType":"general_repair"},{"id":"shop-ut-unknown-frank-s-auto","name":"Frank's Auto","slug":"ut-unknown-frank-s-auto","lat":41.2849796,"lng":-111.9485861,"state":"UT","city":"","address":"","zip":"","phone":"","email":"","website":"","hours":"","brand":"","services":["general_repair"],"shopType":"general_repair"},{"id":"shop-ut-unknown-havoline-xpress-lube-2","name":"Havoline Xpress Lube","slug":"ut-unknown-havoline-xpress-lube-2","lat":40.3887608,"lng":-111.9225059,"state":"UT","city":"","address":"","zip":"","phone":"","email":"","website":"","hours":"","brand":"","services":["oil_change"],"shopType":"quick_lube"},{"id":"shop-ut-unknown-jeppson-automotive-repair","name":"Jeppson Automotive Repair","slug":"ut-unknown-jeppson-automotive-repair","lat":40.3836799,"lng":-112.0004372,"state":"UT","city":"","address":"","zip":"","phone":"+1 801-879-1254","email":"","website":"https://www.jeppsonauto.com","hours":"Mo-Fr 08:00-18:00","brand":"","services":["car_repair"],"shopType":"general_repair"},{"id":"shop-ut-unknown-shane-s-automotive","name":"Shane's Automotive","slug":"ut-unknown-shane-s-automotive","lat":40.867841,"lng":-111.8775948,"state":"UT","city":"","address":"","zip":"","phone":"","email":"","website":"","hours":"","brand":"","services":["general_repair"],"shopType":"general_repair"},{"id":"shop-ut-unknown-thunder-mountain-truck-outfitters","name":"Thunder Mountain Truck Outfitters","slug":"ut-unknown-thunder-mountain-truck-outfitters","lat":41.7466592,"lng":-111.8597554,"state":"UT","city":"","address":"","zip":"","phone":"","email":"","website":"","hours":"","brand":"","services":["general_repair"],"shopType":"general_repair"},{"id":"shop-ut-unknown-import-auto","name":"Import Auto","slug":"ut-unknown-import-auto","lat":41.7574614,"lng":-111.8466743,"state":"UT","city":"","address":"","zip":"","phone":"","email":"","website":"","hours":"","brand":"","services":["general_repair"],"shopType":"general_repair"},{"id":"shop-ut-sandy-rush-diesel-automotive","name":"RUSH Diesel & Automotive","slug":"ut-sandy-rush-diesel-automotive","lat":40.5813159,"lng":-111.8913392,"state":"UT","city":"Sandy","address":"9356 South State Street","zip":"84070","phone":"+1-801-565-3634","email":"","website":"https://www.rushdieselrepair.com/","hours":"Mo-Fr 08:00-17:00","brand":"","services":["diesel"],"shopType":"general_repair"},{"id":"shop-ut-unknown-miller-auto-body","name":"Miller Auto Body","slug":"ut-unknown-miller-auto-body","lat":41.7495487,"lng":-111.8332251,"state":"UT","city":"","address":"","zip":"","phone":"","email":"","website":"","hours":"","brand":"","services":["painting","body_work","body_repair"],"shopType":"general_repair"},{"id":"shop-ut-salt-lake-city-t-h-auto-repair","name":"T. H. Auto Repair","slug":"ut-salt-lake-city-t-h-auto-repair","lat":40.7331263,"lng":-111.9008796,"state":"UT","city":"Salt Lake City","address":"335 West 1700 South","zip":"84115","phone":"+1-801-879-5509","email":"","website":"","hours":"","brand":"","services":["general_repair"],"shopType":"general_repair"},{"id":"shop-ut-unknown-maaco","name":"MAACO","slug":"ut-unknown-maaco","lat":41.7312598,"lng":-111.8603722,"state":"UT","city":"","address":"","zip":"","phone":"","email":"","website":"","hours":"","brand":"Maaco","services":["painting","body_work","body_repair"],"shopType":"body_shop"},{"id":"shop-ut-west-valley-city-castrol-premium-lube-express","name":"Castrol Premium Lube Express","slug":"ut-west-valley-city-castrol-premium-lube-express","lat":40.6964261,"lng":-111.9654374,"state":"UT","city":"West Valley City","address":"3105 West 3500 South","zip":"84119","phone":"+1 801-417-8387","email":"","website":"http://www.castrolpremiumlube.com/Store/1630/","hours":"Mo-Fr 08:00-19:00; Sa 08:00-17:00; Su off","brand":"","services":["oil_change"],"shopType":"quick_lube"},{"id":"shop-ut-west-valley-city-tim-s-automotive-tires","name":"Tim's Automotive & Tires","slug":"ut-west-valley-city-tim-s-automotive-tires","lat":40.694863,"lng":-111.976613,"state":"UT","city":"West Valley City","address":"3555 South 3600 West","zip":"84119","phone":"+1-801-969-3555","email":"","website":"https://www.takeittotims.com/","hours":"Mo-Fr 08:00-18:00; Sa 08:00-12:00; Su off","brand":"","services":["tires"],"shopType":"tire_shop"},{"id":"shop-ut-unknown-wolford-collision-repair","name":"Wolford Collision Repair","slug":"ut-unknown-wolford-collision-repair","lat":41.7318897,"lng":-111.8494701,"state":"UT","city":"","address":"","zip":"","phone":"","email":"","website":"","hours":"","brand":"","services":["body_work","body_repair"],"shopType":"body_shop"},{"id":"shop-ut-unknown-grease-monkey-4","name":"Grease Monkey","slug":"ut-unknown-grease-monkey-4","lat":41.7603081,"lng":-111.8347463,"state":"UT","city":"","address":"","zip":"","phone":"","email":"","website":"","hours":"","brand":"Grease Monkey","services":["general_repair"],"shopType":"general_repair"},{"id":"shop-ut-clearfield-master-autotech","name":"Master AutoTech","slug":"ut-clearfield-master-autotech","lat":41.1112901,"lng":-112.022026,"state":"UT","city":"Clearfield","address":"239 East 200 South","zip":"84015","phone":"+1 801-416-2064","email":"","website":"https://masterauto.tech/clearfield/","hours":"Mo-Fr 08:00-18:00; Sa-Su off","brand":"","services":["general_repair"],"shopType":"general_repair"},{"id":"shop-ut-murray-german-car-service","name":"German Car Service","slug":"ut-murray-german-car-service","lat":40.6766239,"lng":-111.8994776,"state":"UT","city":"Murray","address":"4325 South Commerce Drive","zip":"84107","phone":"","email":"","website":"","hours":"","brand":"","services":["general_repair"],"shopType":"general_repair"},{"id":"shop-ut-unknown-penzoil","name":"Penzoil","slug":"ut-unknown-penzoil","lat":39.600319,"lng":-110.8234346,"state":"UT","city":"","address":"","zip":"","phone":"","email":"","website":"","hours":"","brand":"","services":["general_repair"],"shopType":"general_repair"},{"id":"shop-ut-unknown-dekra-2","name":"Dekra","slug":"ut-unknown-dekra-2","lat":40.7503689,"lng":-111.8878171,"state":"UT","city":"","address":"","zip":"","phone":"","email":"","website":"","hours":"","brand":"","services":["inspection"],"shopType":"general_repair"},{"id":"shop-ut-unknown-keiths-automotive","name":"Keiths Automotive","slug":"ut-unknown-keiths-automotive","lat":40.7225577,"lng":-111.8829284,"state":"UT","city":"","address":"","zip":"","phone":"","email":"","website":"","hours":"","brand":"","services":["general_repair"],"shopType":"general_repair"},{"id":"shop-ut-unknown-dekra-3","name":"Dekra","slug":"ut-unknown-dekra-3","lat":40.5874209,"lng":-111.9412828,"state":"UT","city":"","address":"","zip":"","phone":"","email":"","website":"","hours":"","brand":"","services":["inspection","oil_change"],"shopType":"general_repair"},{"id":"shop-ut-unknown-gary-beardsley-automotive","name":"Gary Beardsley Automotive","slug":"ut-unknown-gary-beardsley-automotive","lat":40.5914252,"lng":-111.8902175,"state":"UT","city":"","address":"","zip":"","phone":"","email":"","website":"","hours":"","brand":"","services":["general_repair"],"shopType":"general_repair"},{"id":"shop-ut-unknown-grease-monkey-5","name":"Grease Monkey","slug":"ut-unknown-grease-monkey-5","lat":41.7110175,"lng":-111.8394268,"state":"UT","city":"","address":"","zip":"","phone":"","email":"","website":"","hours":"","brand":"Grease Monkey","services":["general_repair"],"shopType":"general_repair"},{"id":"shop-ut-unknown-discount-tire-3","name":"Discount Tire","slug":"ut-unknown-discount-tire-3","lat":41.8212787,"lng":-111.8325721,"state":"UT","city":"","address":"","zip":"","phone":"","email":"","website":"","hours":"","brand":"Discount Tire","services":["tires"],"shopType":"tire_shop"},{"id":"shop-ut-unknown-intermountain-cooling-systems","name":"Intermountain Cooling Systems","slug":"ut-unknown-intermountain-cooling-systems","lat":41.7481407,"lng":-111.8356465,"state":"UT","city":"","address":"","zip":"","phone":"","email":"","website":"","hours":"","brand":"","services":["air_conditioning"],"shopType":"general_repair"},{"id":"shop-ut-unknown-nick-s-in-and-out-emissions","name":"Nick's In and Out Emissions","slug":"ut-unknown-nick-s-in-and-out-emissions","lat":40.6994211,"lng":-111.8658969,"state":"UT","city":"","address":"","zip":"","phone":"","email":"","website":"","hours":"","brand":"","services":["inspection"],"shopType":"general_repair"},{"id":"shop-ut-unknown-beck-s-garage","name":"Beck's Garage","slug":"ut-unknown-beck-s-garage","lat":39.6270954,"lng":-111.6340986,"state":"UT","city":"","address":"","zip":"","phone":"","email":"","website":"","hours":"","brand":"","services":["general_repair"],"shopType":"general_repair"},{"id":"shop-ut-salt-lake-city-victor-s-tires","name":"Victor's Tires","slug":"ut-salt-lake-city-victor-s-tires","lat":40.6986641,"lng":-111.8887146,"state":"UT","city":"Salt Lake City","address":"3550 South State Street","zip":"84115","phone":"+1-801-485-2077","email":"","website":"","hours":"Mo-Sa 08:00-18:00; Su 08:00-15:00","brand":"","services":["tires"],"shopType":"tire_shop"},{"id":"shop-ut-south-salt-lake-lucie-s-seat-covers","name":"Lucie's Seat Covers","slug":"ut-south-salt-lake-lucie-s-seat-covers","lat":40.6939953,"lng":-111.8885512,"state":"UT","city":"South Salt Lake","address":"3554 South State Street","zip":"84115","phone":"+1-801-262-8123","email":"","website":"https://lucieseatcovers.com/","hours":"Mo-Fr 09:00-17:00; Sa 09:00-14:00; Su off","brand":"","services":["general_repair"],"shopType":"general_repair"},{"id":"shop-ut-unknown-valvoline","name":"Valvoline","slug":"ut-unknown-valvoline","lat":40.5270551,"lng":-111.874939,"state":"UT","city":"","address":"","zip":"","phone":"","email":"","website":"https://store.vioc.com/ut/draper/oil-change-gt0017.html","hours":"","brand":"Valvoline","services":["oil_change"],"shopType":"quick_lube"},{"id":"shop-ut-salt-lake-city-wasatch-motor-werks","name":"Wasatch Motor Werks","slug":"ut-salt-lake-city-wasatch-motor-werks","lat":40.6824875,"lng":-111.8872724,"state":"UT","city":"Salt Lake City","address":"4091 South State Street","zip":"84107","phone":"+1-801-290-8536","email":"","website":"https://www.wasatchmotorwerks.com/","hours":"Mo-Fr 08:00-17:00; Sa-Su off","brand":"","services":["general_repair"],"shopType":"general_repair"},{"id":"shop-ut-salt-lake-city-jeanette-auto-service","name":"Jeanette Auto Service","slug":"ut-salt-lake-city-jeanette-auto-service","lat":40.6825224,"lng":-111.8875521,"state":"UT","city":"Salt Lake City","address":"4091 South State Street","zip":"84107","phone":"+1-801-262-2065","email":"","website":"","hours":"","brand":"","services":["general_repair"],"shopType":"general_repair"},{"id":"shop-ut-salt-lake-city-master-muffler-and-brake","name":"Master Muffler And Brake","slug":"ut-salt-lake-city-master-muffler-and-brake","lat":40.7545722,"lng":-111.89147,"state":"UT","city":"Salt Lake City","address":"690 South Main Street","zip":"84101","phone":"+1 801-355-9224","email":"","website":"https://masterauto.tech/downtown-slc/","hours":"Mo-Fr 08:00-18:00; Sa 08:00-16:00","brand":"","services":["exhaust","brakes"],"shopType":"general_repair"},{"id":"shop-ut-murray-elite-emissions-sales","name":"Elite Emissions & Sales","slug":"ut-murray-elite-emissions-sales","lat":40.6704896,"lng":-111.8878658,"state":"UT","city":"Murray","address":"4659 South State Street","zip":"84107","phone":"","email":"","website":"https://eliteemissions.com/","hours":"","brand":"","services":["general_repair"],"shopType":"general_repair"},{"id":"shop-ut-logan-m-m-autocare","name":"M&M Autocare","slug":"ut-logan-m-m-autocare","lat":41.7624296,"lng":-111.8374751,"state":"UT","city":"Logan","address":"1650 North 100 West","zip":"84341","phone":"+1 435 753 0211","email":"","website":"https://mmautocare.com/","hours":"","brand":"","services":["general_repair"],"shopType":"general_repair"},{"id":"shop-ut-unknown-jiffy-lube-8","name":"Jiffy Lube","slug":"ut-unknown-jiffy-lube-8","lat":40.6226779,"lng":-111.9127121,"state":"UT","city":"","address":"","zip":"","phone":"","email":"","website":"","hours":"","brand":"Jiffy Lube","services":["oil_change"],"shopType":"quick_lube"},{"id":"shop-ut-providence-master-mechanic","name":"Master Mechanic","slug":"ut-providence-master-mechanic","lat":41.7108559,"lng":-111.828654,"state":"UT","city":"Providence","address":"142 North Gateway Drive","zip":"84332","phone":"+1 435-265-4345","email":"","website":"https://mastermechanicauto.com/","hours":"Mo-Fr 08:00-17:00","brand":"","services":["general_repair"],"shopType":"general_repair"},{"id":"shop-ut-salt-lake-city-mark-miller-toyota-service","name":"Mark Miller Toyota Service","slug":"ut-salt-lake-city-mark-miller-toyota-service","lat":40.7534487,"lng":-111.8951749,"state":"UT","city":"Salt Lake City","address":"730 South West Temple","zip":"84101","phone":"+1-855-959-1438","email":"","website":"","hours":"","brand":"Toyota","services":["general_repair"],"shopType":"general_repair"},{"id":"shop-ut-salt-lake-city-ken-garff-honda-downtown-repair","name":"Ken Garff Honda Downtown Repair","slug":"ut-salt-lake-city-ken-garff-honda-downtown-repair","lat":40.7488891,"lng":-111.8891907,"state":"UT","city":"Salt Lake City","address":"900 South State Street","zip":"84111","phone":"+1-801-526-1730","email":"","website":"https://www.kengarffhondadowntown.com/service/","hours":"","brand":"Honda","services":["general_repair"],"shopType":"general_repair"},{"id":"shop-ut-unknown-big-o-tires-5","name":"Big O Tires","slug":"ut-unknown-big-o-tires-5","lat":40.67284,"lng":-111.8661134,"state":"UT","city":"","address":"","zip":"","phone":"","email":"","website":"","hours":"","brand":"Big O Tires","services":["tires"],"shopType":"tire_shop"},{"id":"shop-ut-unknown-dekra-4","name":"Dekra","slug":"ut-unknown-dekra-4","lat":40.6424243,"lng":-111.8656046,"state":"UT","city":"","address":"","zip":"","phone":"","email":"","website":"","hours":"","brand":"","services":["inspection"],"shopType":"general_repair"},{"id":"shop-ut-pleasant-grove-major-league-auto-repair","name":"Major League Auto Repair","slug":"ut-pleasant-grove-major-league-auto-repair","lat":40.3708779,"lng":-111.768314,"state":"UT","city":"Pleasant Grove","address":"1983 West 680 North","zip":"84062","phone":"+1-801-708-0914","email":"","website":"","hours":"","brand":"","services":["general_repair"],"shopType":"general_repair"},{"id":"shop-ut-pleasant-grove-valvoline","name":"Valvoline","slug":"ut-pleasant-grove-valvoline","lat":40.3697067,"lng":-111.7687507,"state":"UT","city":"Pleasant Grove","address":"1975 West State Street","zip":"84062","phone":"","email":"","website":"https://store.vioc.com/ut/pleasantgrove/oil-change-gt0026.html","hours":"","brand":"Valvoline","services":["oil_change"],"shopType":"quick_lube"},{"id":"shop-ut-south-salt-lake-low-price-auto-glass","name":"Low Price Auto Glass","slug":"ut-south-salt-lake-low-price-auto-glass","lat":40.6995148,"lng":-111.9075718,"state":"UT","city":"South Salt Lake","address":"585 West 3300 South","zip":"84115","phone":"","email":"","website":"https://www.lowpriceslc.com/","hours":"Mo-Fr 08:30-16:30; Sa 08:30-15:30; Su off","brand":"","services":["general_repair"],"shopType":"general_repair"},{"id":"shop-ut-unknown-costco-tire-center","name":"Costco Tire Center","slug":"ut-unknown-costco-tire-center","lat":41.7528194,"lng":-111.8572353,"state":"UT","city":"","address":"","zip":"","phone":"+1 435-915-4226","email":"","website":"","hours":"Mo-Fr 10:00-20:30; Sa 09:30-07:00; Su 10:00-18:00","brand":"Costco","services":["tires"],"shopType":"tire_shop"},{"id":"shop-ut-logan-jiffy-lube","name":"Jiffy Lube","slug":"ut-logan-jiffy-lube","lat":41.7108431,"lng":-111.8341123,"state":"UT","city":"Logan","address":"1152 South Main Street","zip":"84321","phone":"","email":"","website":"","hours":"","brand":"Jiffy Lube","services":["oil_change"],"shopType":"quick_lube"},{"id":"shop-ut-unknown-hyrum-tire","name":"Hyrum Tire","slug":"ut-unknown-hyrum-tire","lat":41.637141,"lng":-111.8321314,"state":"UT","city":"","address":"","zip":"","phone":"","email":"","website":"","hours":"","brand":"","services":["tires"],"shopType":"tire_shop"},{"id":"shop-ut-unknown-les-schwab-tire-center-saratoga","name":"Les Schwab Tire Center - Saratoga","slug":"ut-unknown-les-schwab-tire-center-saratoga","lat":40.3736574,"lng":-111.9202532,"state":"UT","city":"","address":"148 West Pioneer Crossing","zip":"84045","phone":"+1 385-352-7407","email":"","website":"","hours":"Mo-Fr 08:00-18:00; Sa 08:00-17:00","brand":"Les Schwab","services":["tires"],"shopType":"tire_shop"},{"id":"shop-ut-north-salt-lake-lance-paul-automotive","name":"Lance Paul Automotive","slug":"ut-north-salt-lake-lance-paul-automotive","lat":40.852047,"lng":-111.9292335,"state":"UT","city":"North Salt Lake","address":"561 North 700 West","zip":"84054","phone":"+18019286325","email":"","website":"","hours":"Mo-Fr 08:30-17:00","brand":"","services":["car_repair","oil_change","tires","brakes","repairs","inspection","tyres"],"shopType":"general_repair"},{"id":"shop-ut-unknown-precision-tune","name":"Precision Tune","slug":"ut-unknown-precision-tune","lat":40.7151635,"lng":-111.887768,"state":"UT","city":"","address":"","zip":"","phone":"","email":"","website":"","hours":"","brand":"","services":["general_repair"],"shopType":"general_repair"},{"id":"shop-ut-unknown-south-valley-rv-repair","name":"South Valley RV Repair","slug":"ut-unknown-south-valley-rv-repair","lat":41.622396,"lng":-111.9289675,"state":"UT","city":"","address":"","zip":"","phone":"","email":"","website":"","hours":"","brand":"","services":["general_repair"],"shopType":"general_repair"},{"id":"shop-ut-unknown-scotty-s-auto-repair","name":"Scotty’s Auto Repair","slug":"ut-unknown-scotty-s-auto-repair","lat":40.6613129,"lng":-111.8991341,"state":"UT","city":"","address":"5066 South Commerce Drive","zip":"84107","phone":"+1 801-266-2331","email":"scottysauto319@gmail.com","website":"","hours":"Mo-Th 08:00-17:00; Fr 08:00-16:00","brand":"","services":["general_repair"],"shopType":"general_repair"},{"id":"shop-ut-unknown-preston-watts-collision-glass","name":"Preston Watts Collision & Glass","slug":"ut-unknown-preston-watts-collision-glass","lat":41.8341067,"lng":-111.8323652,"state":"UT","city":"","address":"","zip":"","phone":"","email":"","website":"","hours":"","brand":"","services":["body_work"],"shopType":"body_shop"},{"id":"shop-ut-unknown-carsmart","name":"CarSmart","slug":"ut-unknown-carsmart","lat":41.838915,"lng":-111.8321824,"state":"UT","city":"","address":"","zip":"","phone":"","email":"","website":"","hours":"","brand":"","services":["general_repair"],"shopType":"general_repair"},{"id":"shop-ut-logan-novus-glass","name":"NOVUS Glass","slug":"ut-logan-novus-glass","lat":41.7382022,"lng":-111.8366167,"state":"UT","city":"Logan","address":"355 North 50 West","zip":"84321","phone":"+1 435-770-8320","email":"","website":"https://www.novusglass.com/en-us/shop/logan/","hours":"Mo-Fr 09:00-17:00; Sa-Su off","brand":"NOVUS Glass","services":["glass"],"shopType":"general_repair"},{"id":"shop-ut-unknown-valvoline-2","name":"Valvoline","slug":"ut-unknown-valvoline-2","lat":41.7443266,"lng":-111.8351241,"state":"UT","city":"","address":"","zip":"","phone":"","email":"","website":"https://store.vioc.com/ut/logan/oil-change-gt0022.html","hours":"","brand":"Valvoline","services":["oil_change"],"shopType":"quick_lube"},{"id":"shop-ut-salt-lake-city-scotts-auto-clutch-repair","name":"Scotts Auto & Clutch Repair","slug":"ut-salt-lake-city-scotts-auto-clutch-repair","lat":40.7145187,"lng":-111.8957371,"state":"UT","city":"Salt Lake City","address":"144 West Crystal Avenue","zip":"84117","phone":"+1-801-485-4089","email":"","website":"https://slcautoshop.com","hours":"Mo-Su 09:00-21:00","brand":"","services":["repair","car_repair","electrical","air_conditioning","oil_change","truck_repair","diagnostics","car_parts","transmission","brakes","muffler","batteries","repairs","inspection","exhaust"],"shopType":"general_repair"},{"id":"shop-ut-unknown-hurricane-auto-repair","name":"Hurricane Auto Repair","slug":"ut-unknown-hurricane-auto-repair","lat":37.1761314,"lng":-113.2876363,"state":"UT","city":"","address":"","zip":"","phone":"","email":"","website":"","hours":"","brand":"","services":["general_repair"],"shopType":"general_repair"},{"id":"shop-ut-salt-lake-city-wade-automotive-products","name":"Wade Automotive Products","slug":"ut-salt-lake-city-wade-automotive-products","lat":40.7501445,"lng":-111.9048274,"state":"UT","city":"Salt Lake City","address":"863 South 500 West","zip":"84101","phone":"+1-801-355-0972","email":"","website":"https://wadeauto.com","hours":"Mo-Fr 08:30-17:30","brand":"","services":["general_repair"],"shopType":"general_repair"},{"id":"shop-ut-unknown-les-schwab-tire-center-4","name":"Les Schwab Tire Center","slug":"ut-unknown-les-schwab-tire-center-4","lat":38.7501012,"lng":-112.0867343,"state":"UT","city":"","address":"","zip":"","phone":"","email":"","website":"","hours":"","brand":"Les Schwab","services":["tires"],"shopType":"tire_shop"},{"id":"shop-ut-grantsville-flat-out-speed-shop","name":"Flat Out Speed Shop","slug":"ut-grantsville-flat-out-speed-shop","lat":40.5950184,"lng":-112.4690938,"state":"UT","city":"Grantsville","address":"205 South Center Street","zip":"84029","phone":"+14358509805","email":"Severeracing@gmail.com","website":"","hours":"","brand":"","services":["general_repair"],"shopType":"general_repair"},{"id":"shop-ut-cedar-city-wheeler-machinery-company","name":"Wheeler Machinery Company","slug":"ut-cedar-city-wheeler-machinery-company","lat":37.6858604,"lng":-113.1117812,"state":"UT","city":"Cedar City","address":"451 North Lund Highway","zip":"84720","phone":"","email":"","website":"https://wheelercat.com/company/locations/cedar-city/","hours":"","brand":"CAT","services":["general_repair"],"shopType":"general_repair"},{"id":"shop-ut-west-valley-city-the-back-shop","name":"The Back Shop","slug":"ut-west-valley-city-the-back-shop","lat":40.69621,"lng":-111.9654787,"state":"UT","city":"West Valley City","address":"3105 West 3500 South","zip":"84119","phone":"+1 801-417-8387","email":"","website":"","hours":"Mo-Fr 8:00-19:00","brand":"","services":["car_repair","oil_change","diagnostics","tires","inspection","tyres"],"shopType":"general_repair"},{"id":"shop-ut-unknown-gas-hole","name":"Gas Hole","slug":"ut-unknown-gas-hole","lat":39.9550146,"lng":-112.1193994,"state":"UT","city":"","address":"","zip":"","phone":"","email":"","website":"","hours":"","brand":"","services":["general_repair"],"shopType":"general_repair"},{"id":"shop-ut-unknown-accuracy-automotive","name":"Accuracy Automotive","slug":"ut-unknown-accuracy-automotive","lat":40.6382578,"lng":-111.8338568,"state":"UT","city":"","address":"","zip":"","phone":"","email":"","website":"","hours":"","brand":"","services":["general_repair"],"shopType":"general_repair"},{"id":"shop-ut-unknown-diesel-experts","name":"Diesel Experts","slug":"ut-unknown-diesel-experts","lat":41.7378245,"lng":-111.8591046,"state":"UT","city":"","address":"","zip":"","phone":"+1 435-787-4223","email":"","website":"https://dieselexperts.co/","hours":"Mo-Th 09:00-17:00","brand":"","services":["diesel"],"shopType":"general_repair"},{"id":"shop-ut-taylorsville-quick-emissions","name":"Quick Emissions","slug":"ut-taylorsville-quick-emissions","lat":40.6533557,"lng":-111.9584999,"state":"UT","city":"Taylorsville","address":"2724 West 5400 South","zip":"84129","phone":"+1 801 840 2250","email":"quickemissions@gmail.com","website":"https://quickemissionsutah.com/","hours":"Mo-Fr 08:00-18:00; Sa 8:00-17:00","brand":"","services":["inspection"],"shopType":"general_repair"},{"id":"shop-ut-provo-jiffy-lube","name":"Jiffy Lube","slug":"ut-provo-jiffy-lube","lat":40.2552271,"lng":-111.6622111,"state":"UT","city":"Provo","address":"1575 North Freedom Boulevard","zip":"84604","phone":"+1 801-377-2072","email":"","website":"","hours":"","brand":"Jiffy Lube","services":["oil_change"],"shopType":"quick_lube"},{"id":"shop-ut-logan-carsmart","name":"CarSmart","slug":"ut-logan-carsmart","lat":41.7384023,"lng":-111.8366205,"state":"UT","city":"Logan","address":"58 1/2 West 400 North","zip":"84321","phone":"+1 435-787-9458","email":"","website":"","hours":"Mo-Fr 08:00-17:00; Sa-Su off","brand":"","services":["general_repair"],"shopType":"general_repair"},{"id":"shop-ut-unknown-caliber-collision","name":"Caliber Collision","slug":"ut-unknown-caliber-collision","lat":40.7312989,"lng":-111.9883274,"state":"UT","city":"","address":"","zip":"","phone":"","email":"","website":"","hours":"","brand":"Caliber Collision","services":["body_work","body_repair"],"shopType":"body_shop"},{"id":"shop-ut-unknown-glen-s-tires","name":"Glen's Tires","slug":"ut-unknown-glen-s-tires","lat":40.6996717,"lng":-111.9395692,"state":"UT","city":"","address":"","zip":"","phone":"","email":"","website":"","hours":"","brand":"","services":["tires"],"shopType":"tire_shop"},{"id":"shop-ut-unknown-take-5","name":"Take 5","slug":"ut-unknown-take-5","lat":40.681739,"lng":-111.9385071,"state":"UT","city":"","address":"","zip":"","phone":"","email":"","website":"","hours":"","brand":"Take 5","services":["oil_change"],"shopType":"quick_lube"},{"id":"shop-ut-unknown-big-o-tires-6","name":"Big O Tires","slug":"ut-unknown-big-o-tires-6","lat":40.6685307,"lng":-111.8876369,"state":"UT","city":"","address":"","zip":"","phone":"","email":"","website":"","hours":"","brand":"Big O Tires","services":["tires"],"shopType":"tire_shop"},{"id":"shop-ut-taylorsville-aamco","name":"AAMCO","slug":"ut-taylorsville-aamco","lat":40.6534299,"lng":-111.9788823,"state":"UT","city":"Taylorsville","address":"3692 West 5400 South","zip":"84129","phone":"+1 801-410-7757","email":"","website":"","hours":"Tu-Sa 08:30-17:30","brand":"AAMCO","services":["transmission"],"shopType":"transmission_shop"},{"id":"shop-ut-kearns-master-autotech","name":"Master Autotech","slug":"ut-kearns-master-autotech","lat":40.6524603,"lng":-111.9913606,"state":"UT","city":"Kearns","address":"4219 West 5415 South","zip":"84118","phone":"+1 801-657-5000","email":"","website":"https://masterauto.tech/kearns/","hours":"Mo-Fr 7:45-18:00","brand":"","services":["exhaust"],"shopType":"general_repair"},{"id":"shop-ut-kearns-emissions-plus","name":"Emissions Plus","slug":"ut-kearns-emissions-plus","lat":40.6525679,"lng":-111.988656,"state":"UT","city":"Kearns","address":"4087 West 5415 South","zip":"84118","phone":"+1 801-964-5911","email":"","website":"http://emissions-plus.com/","hours":"","brand":"","services":["inspection"],"shopType":"general_repair"},{"id":"shop-ut-washington-pete-s-autoworks","name":"Pete's Autoworks","slug":"ut-washington-pete-s-autoworks","lat":37.1154595,"lng":-113.5086507,"state":"UT","city":"Washington","address":"35 Industrial Drive","zip":"84780","phone":"+1 435-773-7895","email":"","website":"http://www.petesautoworks.com/","hours":"","brand":"","services":["diagnostics","car_repair","oil_change"],"shopType":"general_repair"},{"id":"shop-ut-unknown-caliber-collision-2","name":"Caliber Collision","slug":"ut-unknown-caliber-collision-2","lat":41.788261,"lng":-111.8330957,"state":"UT","city":"","address":"","zip":"","phone":"","email":"","website":"","hours":"","brand":"Caliber Collision","services":["body_work","body_repair"],"shopType":"body_shop"},{"id":"shop-ut-st-george-st-george-muffler-and-radiator","name":"St. George Muffler and Radiator","slug":"ut-st-george-st-george-muffler-and-radiator","lat":37.1087233,"lng":-113.5682405,"state":"UT","city":"St. George","address":"28 North University Avenue","zip":"84770","phone":"+1 435-673-2948","email":"","website":"","hours":"Mo-Fr 09:00-17:00","brand":"","services":["exhausts","exhaust","muffler_installation"],"shopType":"general_repair"},{"id":"shop-ut-eden-eden-automotive","name":"Eden Automotive","slug":"ut-eden-eden-automotive","lat":41.3055515,"lng":-111.82973,"state":"UT","city":"Eden","address":"4931 East 2550 North","zip":"84310","phone":"+1-801-675-4931","email":"","website":"https://www.eden-automotive.com","hours":"Mo-Fr 08:00-18:00","brand":"","services":["diagnostics","car_repair","oil_change"],"shopType":"general_repair"},{"id":"shop-ut-unknown-leo-s-auto-service","name":"Leo's Auto Service","slug":"ut-unknown-leo-s-auto-service","lat":41.5102573,"lng":-112.0531924,"state":"UT","city":"","address":"","zip":"","phone":"","email":"","website":"","hours":"","brand":"","services":["general_repair"],"shopType":"general_repair"},{"id":"shop-ut-spanish-fork-axcess-accident-center","name":"Axcess Accident Center","slug":"ut-spanish-fork-axcess-accident-center","lat":40.1198626,"lng":-111.641578,"state":"UT","city":"Spanish Fork","address":"East 800 North Street","zip":"84660","phone":"","email":"","website":"","hours":"","brand":"","services":["general_repair"],"shopType":"general_repair"},{"id":"shop-ut-unknown-complete-automotive-solutions","name":"Complete Automotive Solutions","slug":"ut-unknown-complete-automotive-solutions","lat":40.3033755,"lng":-111.6968231,"state":"UT","city":"","address":"","zip":"","phone":"+1 801-222-3213","email":"","website":"","hours":"","brand":"","services":["general_repair"],"shopType":"general_repair"},{"id":"shop-ut-unknown-torque-motorsports","name":"Torque Motorsports","slug":"ut-unknown-torque-motorsports","lat":41.7367121,"lng":-111.8592841,"state":"UT","city":"","address":"","zip":"","phone":"","email":"","website":"","hours":"","brand":"","services":["general_repair"],"shopType":"general_repair"},{"id":"shop-ut-unknown-unique-auto-body","name":"Unique Auto Body","slug":"ut-unknown-unique-auto-body","lat":40.3721977,"lng":-111.7844582,"state":"UT","city":"","address":"","zip":"","phone":"","email":"","website":"","hours":"","brand":"","services":["body_work"],"shopType":"body_shop"},{"id":"shop-ut-lehi-cascade-collision-repair","name":"Cascade Collision Repair","slug":"ut-lehi-cascade-collision-repair","lat":40.3895831,"lng":-111.8307275,"state":"UT","city":"Lehi","address":"175 N 1200 E","zip":"84043","phone":"+1 801-768-8010","email":"","website":"https://cascadecollision.com/","hours":"Mo-Fr 08:00-17:00","brand":"","services":["collision_repair","dent_removal","body_work","body_repair"],"shopType":"body_shop"},{"id":"shop-ut-orem-cascade-collision-repair","name":"Cascade Collision Repair","slug":"ut-orem-cascade-collision-repair","lat":40.3158787,"lng":-111.7043482,"state":"UT","city":"Orem","address":"1005 N State St","zip":"84057","phone":"+1 801-224-8020","email":"","website":"https://cascadecollision.com/","hours":"Mo-Fr 08:00-17:00","brand":"","services":["collision_repair","body_work","body_repair"],"shopType":"body_shop"},{"id":"shop-ut-provo-cascade-collision-repair","name":"Cascade Collision Repair","slug":"ut-provo-cascade-collision-repair","lat":40.2185997,"lng":-111.6375492,"state":"UT","city":"Provo","address":"1155 S State St","zip":"84606","phone":"+1 801-373-8020","email":"","website":"https://cascadecollision.com/","hours":"Mo-Fr 08:00-17:00","brand":"","services":["collision_repair","dent_removal","body_work","body_repair"],"shopType":"body_shop"},{"id":"shop-ut-ogden-cascade-collision-repair","name":"Cascade Collision Repair","slug":"ut-ogden-cascade-collision-repair","lat":41.199451,"lng":-111.9788227,"state":"UT","city":"Ogden","address":"3520 Wall Avenue","zip":"84401","phone":"+1 801-395-1946","email":"","website":"https://cascadecollision.com/","hours":"Mo-Fr 08:00-17:00","brand":"","services":["collision_repair","body_work"],"shopType":"body_shop"},{"id":"shop-ut-park-city-cascade-collision-repair","name":"Cascade Collision Repair","slug":"ut-park-city-cascade-collision-repair","lat":40.6891975,"lng":-111.4642027,"state":"UT","city":"Park City","address":"4021 N Forestdale Dr","zip":"84098","phone":"+1 435-655-8010","email":"","website":"https://cascadecollision.com/","hours":"Mo-Fr 08:00-17:00","brand":"","services":["collision_repair","dent_removal","body_work","body_repair"],"shopType":"body_shop"},{"id":"shop-ut-spanish-fork-cascade-collision-repair","name":"Cascade Collision Repair","slug":"ut-spanish-fork-cascade-collision-repair","lat":40.1347598,"lng":-111.6544433,"state":"UT","city":"Spanish Fork","address":"1912 N Main St","zip":"84660","phone":"+1 801-794-9455","email":"","website":"https://cascadecollision.com/","hours":"Mo-Fr 08:00-17:00","brand":"","services":["collision_repair","dent_removal","body_work","body_repair"],"shopType":"body_shop"},{"id":"shop-ut-west-haven-cascade-collision-repair","name":"Cascade Collision Repair","slug":"ut-west-haven-cascade-collision-repair","lat":41.1956408,"lng":-112.0435191,"state":"UT","city":"West Haven","address":"3747 Midland Dr","zip":"84401","phone":"+1 801-731-2369","email":"","website":"https://cascadecollision.com/","hours":"Mo-Fr 08:00-17:00","brand":"","services":["collision_repair","dent_removal","body_work","body_repair"],"shopType":"body_shop"},{"id":"shop-ut-midvale-cascade-collision-repair","name":"Cascade Collision Repair","slug":"ut-midvale-cascade-collision-repair","lat":40.6049525,"lng":-111.8915575,"state":"UT","city":"Midvale","address":"8062 S State St","zip":"84047","phone":"+1 801-996-8369","email":"","website":"https://cascadecollision.com/","hours":"Mo-Fr 08:00-17:00","brand":"","services":["collision_repair","glass","dent_removal","body_work"],"shopType":"body_shop"},{"id":"shop-ut-murray-cascade-collision-repair","name":"Cascade Collision Repair","slug":"ut-murray-cascade-collision-repair","lat":40.6691667,"lng":-111.905113,"state":"UT","city":"Murray","address":"4759 South 500 West","zip":"84123","phone":"+1 801-355-5174","email":"","website":"https://cascadecollision.com/","hours":"Mo-Fr 08:00-17:00","brand":"","services":["collision_repair","painting","body_work","body_repair"],"shopType":"body_shop"},{"id":"shop-ut-unknown-excel-automotive-repair","name":"Excel Automotive Repair","slug":"ut-unknown-excel-automotive-repair","lat":40.6993426,"lng":-111.8830808,"state":"UT","city":"","address":"290 East 3300 South","zip":"84115","phone":"+1 801-467-9011","email":"","website":"https://excelautomotiverepair.com/","hours":"Mo-We, Fr 08:00-16:00; Th 08:00-11:00","brand":"","services":["general_repair"],"shopType":"general_repair"},{"id":"shop-ut-unknown-jiffy-lube-9","name":"Jiffy Lube","slug":"ut-unknown-jiffy-lube-9","lat":40.532478,"lng":-112.0140402,"state":"UT","city":"","address":"","zip":"","phone":"","email":"","website":"","hours":"","brand":"Jiffy Lube","services":["oil_change"],"shopType":"quick_lube"},{"id":"shop-ut-unknown-utah-moto-shop","name":"Utah Moto Shop","slug":"ut-unknown-utah-moto-shop","lat":41.2186567,"lng":-112.0107585,"state":"UT","city":"","address":"#10 1327 W 2550 S, Ogden, UT","zip":"","phone":"+1 801-589-3487","email":"","website":"https://utahmotoshop.com/","hours":"We-Su 08:00-17:00","brand":"","services":["general_repair"],"shopType":"general_repair"},{"id":"shop-ut-bountiful-point-s","name":"Point S","slug":"ut-bountiful-point-s","lat":40.8845478,"lng":-111.8896493,"state":"UT","city":"Bountiful","address":"400 West 500 South","zip":"84010","phone":"+1 801-294-2559","email":"","website":"https://gillspointstire.com/locations/400-w-500-s-tire-store-487","hours":"Mo-Fr 07:30-18:00","brand":"Point S","services":["tires"],"shopType":"general_repair"},{"id":"shop-ut-salt-lake-city-auto-car-solutions","name":"Auto Car Solutions","slug":"ut-salt-lake-city-auto-car-solutions","lat":40.7698771,"lng":-111.9173216,"state":"UT","city":"Salt Lake City","address":"15 North 900 West","zip":"84116","phone":"+1-801-953-6432","email":"","website":"","hours":"Mo-Sa 09:00-18:00","brand":"","services":["general_repair"],"shopType":"general_repair"},{"id":"shop-ut-salt-lake-city-colbys-tire","name":"Colbys Tire","slug":"ut-salt-lake-city-colbys-tire","lat":40.7688891,"lng":-111.9176697,"state":"UT","city":"Salt Lake City","address":"909 West South Temple","zip":"84104","phone":"+1 801-596-2425","email":"","website":"","hours":"Mo-Fr 08:00-17:30; Sa 09:00-15:00; Su off","brand":"","services":["tuning","tires","shocks","brakes","tyres"],"shopType":"general_repair"},{"id":"shop-ut-unknown-safelite-auto-glass","name":"Safelite Auto Glass","slug":"ut-unknown-safelite-auto-glass","lat":40.7588554,"lng":-111.8992728,"state":"UT","city":"","address":"","zip":"","phone":"","email":"","website":"","hours":"","brand":"","services":["general_repair"],"shopType":"general_repair"},{"id":"shop-ut-sunset-tanner-transmissions","name":"Tanner Transmissions","slug":"ut-sunset-tanner-transmissions","lat":41.141184,"lng":-112.0265012,"state":"UT","city":"Sunset","address":"1889 North Main Street","zip":"84010","phone":"+1 801-528-7014","email":"","website":"https://tannertransmissions.com/sunset-ut/","hours":"Mo-Fr 08:00-17:30; Sa 08:00-12:00","brand":"","services":["transmission"],"shopType":"transmission_shop"},{"id":"shop-ut-roy-paskett-auto-complete-car-care","name":"Paskett Auto Complete Car Care","slug":"ut-roy-paskett-auto-complete-car-care","lat":41.1579407,"lng":-112.0264806,"state":"UT","city":"Roy","address":"4852 South 1900 West","zip":"84067","phone":"+1 385-233-4886","email":"","website":"https://www.autorepairroy.com/","hours":"Mo-Fr 08:00-17:30; Sa 08:00-15:00; Su off","brand":"","services":["general_repair"],"shopType":"general_repair"},{"id":"shop-ut-unknown-king-s-auto-repair","name":"King's Auto Repair","slug":"ut-unknown-king-s-auto-repair","lat":41.0966047,"lng":-112.0077194,"state":"UT","city":"","address":"","zip":"","phone":"","email":"","website":"","hours":"","brand":"","services":["general_repair"],"shopType":"general_repair"},{"id":"shop-ut-clearfield-victor-s-tires-custom-wheels","name":"Victor's Tires & Custom Wheels","slug":"ut-clearfield-victor-s-tires-custom-wheels","lat":41.1065732,"lng":-112.0182708,"state":"UT","city":"Clearfield","address":"499 South State Street","zip":"84015","phone":"+1 801-639-9604","email":"","website":"https://www.victorstires.com/","hours":"Mo-Sa 08:00-18:00","brand":"","services":["tires"],"shopType":"tire_shop"},{"id":"shop-ut-orem-top-gear-auto-service","name":"Top Gear Auto Service","slug":"ut-orem-top-gear-auto-service","lat":40.2928281,"lng":-111.6923219,"state":"UT","city":"Orem","address":"225 State Street","zip":"84058","phone":"+1-385-221-4308","email":"","website":"https://topgearautoservice.io/","hours":"","brand":"","services":["general_repair"],"shopType":"general_repair"},{"id":"shop-ut-orem-martins-collision-repair","name":"Martins Collision Repair","slug":"ut-orem-martins-collision-repair","lat":40.2929512,"lng":-111.6923222,"state":"UT","city":"Orem","address":"225 State Street","zip":"84058","phone":"+1-801-226-2969","email":"","website":"https://martinscollision.com/","hours":"","brand":"","services":["body_work"],"shopType":"body_shop"},{"id":"shop-ut-unknown-cycles-and-sleds","name":"Cycles and Sleds","slug":"ut-unknown-cycles-and-sleds","lat":41.7956762,"lng":-111.8344193,"state":"UT","city":"","address":"","zip":"","phone":"+14355636280","email":"","website":"","hours":"Mo-Sa 09:00-18:00","brand":"","services":["general_repair"],"shopType":"general_repair"},{"id":"shop-ut-unknown-grease-monkey-6","name":"Grease Monkey","slug":"ut-unknown-grease-monkey-6","lat":40.5446224,"lng":-111.9783664,"state":"UT","city":"","address":"","zip":"","phone":"","email":"","website":"","hours":"","brand":"Grease Monkey","services":["general_repair"],"shopType":"general_repair"},{"id":"shop-ut-unknown-walmart-auto-care-center","name":"Walmart Auto Care Center","slug":"ut-unknown-walmart-auto-care-center","lat":40.0274755,"lng":-111.7575832,"state":"UT","city":"","address":"","zip":"","phone":"","email":"","website":"","hours":"","brand":"Walmart Auto Care Center","services":["general_repair"],"shopType":"general_repair"},{"id":"shop-ut-washington-fuzion-autoworks","name":"Fuzion Autoworks","slug":"ut-washington-fuzion-autoworks","lat":37.1154892,"lng":-113.5099508,"state":"UT","city":"Washington","address":"35 Industrial Drive","zip":"84780","phone":"+1 435-681-2161","email":"","website":"https://www.fuzionautoworks.com/","hours":"","brand":"","services":["general_repair"],"shopType":"general_repair"},{"id":"shop-ut-unknown-southtown-auto-repair-and-sales","name":"Southtown Auto repair and sales","slug":"ut-unknown-southtown-auto-repair-and-sales","lat":38.5519651,"lng":-109.5240177,"state":"UT","city":"","address":"","zip":"","phone":"","email":"","website":"","hours":"Mo-Fr 09:00-12:00","brand":"","services":["general_repair"],"shopType":"general_repair"},{"id":"shop-ut-unknown-mcj-tire-repair","name":"Mcj Tire Repair","slug":"ut-unknown-mcj-tire-repair","lat":38.5547884,"lng":-109.5380676,"state":"UT","city":"","address":"","zip":"","phone":"","email":"","website":"","hours":"","brand":"","services":["tires"],"shopType":"tire_shop"},{"id":"shop-ut-woods-cross-the-paint-spot-body-shop","name":"The Paint Spot Body Shop","slug":"ut-woods-cross-the-paint-spot-body-shop","lat":40.8799752,"lng":-111.8927663,"state":"UT","city":"Woods Cross","address":"952 South 500 West","zip":"84010","phone":"+1 385-399-6259","email":"","website":"https://www.thepaintspotutah.com/","hours":"Mo-Fr 08:30-17:30","brand":"","services":["painting","body_work","body_repair"],"shopType":"body_shop"},{"id":"shop-ut-cedar-city-cedar-city-tint-wraps","name":"Cedar City Tint Wraps","slug":"ut-cedar-city-cedar-city-tint-wraps","lat":37.6934858,"lng":-113.0629503,"state":"UT","city":"Cedar City","address":"987 Main Street","zip":"84721-5151","phone":"","email":"","website":"","hours":"","brand":"","services":["window_tinting"],"shopType":"general_repair"},{"id":"shop-ut-unknown-emissions-plus","name":"Emissions Plus","slug":"ut-unknown-emissions-plus","lat":40.5592685,"lng":-111.8717978,"state":"UT","city":"","address":"","zip":"","phone":"","email":"","website":"","hours":"","brand":"","services":["inspection"],"shopType":"general_repair"},{"id":"shop-ut-unknown-jiffy-lube-10","name":"Jiffy Lube","slug":"ut-unknown-jiffy-lube-10","lat":40.5583945,"lng":-111.8725833,"state":"UT","city":"","address":"","zip":"","phone":"","email":"","website":"","hours":"","brand":"Jiffy Lube","services":["oil_change"],"shopType":"quick_lube"},{"id":"shop-ut-unknown-mcneil-s-auto-care","name":"McNeil's Auto Care","slug":"ut-unknown-mcneil-s-auto-care","lat":40.557733,"lng":-111.8716332,"state":"UT","city":"","address":"","zip":"","phone":"","email":"","website":"","hours":"","brand":"","services":["general_repair"],"shopType":"general_repair"},{"id":"shop-ut-bountiful-quick-emissions","name":"Quick Emissions","slug":"ut-bountiful-quick-emissions","lat":40.8481173,"lng":-111.9064996,"state":"UT","city":"Bountiful","address":"3819 Highway 89","zip":"84010","phone":"+1 801 294 2404","email":"quickemissions@gmail.com","website":"https://quickemissionsutah.com/","hours":"Mo-Fr 08:00-18:00; Sa 08:00-17:00","brand":"","services":["inspection"],"shopType":"general_repair"},{"id":"shop-ut-salt-lake-city-western-service-center","name":"Western Service Center","slug":"ut-salt-lake-city-western-service-center","lat":40.7373855,"lng":-111.9028036,"state":"UT","city":"Salt Lake City","address":"1490 South 400 West","zip":"84115","phone":"+1-888-615-1388","email":"","website":"https://www.westerntruck.com","hours":"Mo-Fr 08:00-17","brand":"","services":["general_repair"],"shopType":"general_repair"},{"id":"shop-ut-lehi-garrin-s-automotive","name":"Garrin's Automotive","slug":"ut-lehi-garrin-s-automotive","lat":40.3877293,"lng":-111.845003,"state":"UT","city":"Lehi","address":"266 East Main Street","zip":"84043","phone":"+1-385-786-6583","email":"","website":"https://www.garrinsauto.com","hours":"Mo-Fr 08:00-17:00","brand":"","services":["general_repair"],"shopType":"general_repair"},{"id":"shop-ut-unknown-valvoline-instant-oil-change","name":"Valvoline Instant Oil Change","slug":"ut-unknown-valvoline-instant-oil-change","lat":40.7332437,"lng":-111.8989944,"state":"UT","city":"","address":"1707 South 300 West","zip":"84115","phone":"","email":"","website":"","hours":"","brand":"Valvoline","services":["oil_change"],"shopType":"quick_lube"},{"id":"shop-ut-unknown-grease-monkey-7","name":"Grease Monkey","slug":"ut-unknown-grease-monkey-7","lat":41.1401286,"lng":-112.0671294,"state":"UT","city":"","address":"","zip":"","phone":"","email":"","website":"","hours":"","brand":"Grease Monkey","services":["general_repair"],"shopType":"general_repair"},{"id":"shop-ut-farr-west-jiffy-lube","name":"Jiffy Lube","slug":"ut-farr-west-jiffy-lube","lat":41.3062891,"lng":-112.0217863,"state":"UT","city":"Farr West","address":"1783 W 2700 North","zip":"84404","phone":"","email":"","website":"","hours":"","brand":"Jiffy Lube","services":["oil_change"],"shopType":"quick_lube"},{"id":"shop-ut-layton-les-schwab-tire-center","name":"Les Schwab Tire Center","slug":"ut-layton-les-schwab-tire-center","lat":41.0785563,"lng":-111.9854143,"state":"UT","city":"Layton","address":"1270 North Main Street","zip":"84041","phone":"+1 801-544-0777","email":"","website":"https://www.lesschwab.com/stores/ut/layton/1270-n-main-st","hours":"Mo-Fr 08:00-18:00; Sa 08:00-17:00","brand":"Les Schwab","services":["tires"],"shopType":"tire_shop"},{"id":"shop-ut-unknown-car-star","name":"Car Star","slug":"ut-unknown-car-star","lat":41.0635652,"lng":-111.9683474,"state":"UT","city":"","address":"","zip":"","phone":"","email":"","website":"","hours":"","brand":"","services":["general_repair"],"shopType":"general_repair"},{"id":"shop-ut-syracuse-jiffy-lube","name":"Jiffy Lube","slug":"ut-syracuse-jiffy-lube","lat":41.0886631,"lng":-112.0482105,"state":"UT","city":"Syracuse","address":"1129 West 1700 South","zip":"84075","phone":"+1 801-825-9300","email":"","website":"https://www.jiffylube.com/locations/ut/syracuse/3335","hours":"Mo-Fr 08:00-18:30; Sa 08:00-17:30; Su 09:00-16:30","brand":"Jiffy Lube","services":["oil_change"],"shopType":"quick_lube"},{"id":"shop-ut-layton-master-autotech","name":"Master Autotech","slug":"ut-layton-master-autotech","lat":41.0831939,"lng":-111.99544,"state":"UT","city":"Layton","address":"1591 North Main Street","zip":"84041","phone":"+1 801-663-7420","email":"","website":"https://masterauto.tech/layton/","hours":"Mo-Fr 07:30-18:00; Sa 07:30-17:00","brand":"","services":["brakes"],"shopType":"general_repair"},{"id":"shop-ut-layton-discount-tire","name":"Discount Tire","slug":"ut-layton-discount-tire","lat":41.0713839,"lng":-111.9823033,"state":"UT","city":"Layton","address":"881 West Hill Field Road","zip":"84041","phone":"+1 801-544-0104","email":"","website":"https://www.discounttire.com/store/ut/layton/s/1542","hours":"Mo-Fr 08:00-18:00; Sa 08:00-17:00; Su off","brand":"Discount Tire","services":["tires"],"shopType":"tire_shop"},{"id":"shop-ut-bountiful-discount-tire","name":"Discount Tire","slug":"ut-bountiful-discount-tire","lat":40.862319,"lng":-111.895187,"state":"UT","city":"Bountiful","address":"2527 South Main Street","zip":"84010","phone":"+1 801-298-7312","email":"","website":"https://www.discounttire.com/store/ut/bountiful/s/1462","hours":"Mo-Fr 08:00-18:00; Sa 08:00-17:00; Su off","brand":"Discount Tire","services":["tires"],"shopType":"tire_shop"},{"id":"shop-ut-bountiful-les-schwab-tire-center","name":"Les Schwab Tire Center","slug":"ut-bountiful-les-schwab-tire-center","lat":40.8611289,"lng":-111.8959284,"state":"UT","city":"Bountiful","address":"2651 South Main Street","zip":"84010","phone":"+1 801-298-0050","email":"","website":"https://www.lesschwab.com/stores/ut/woods-cross/2651-s-main-st","hours":"Mo-Fr 08:00-18:00; Sa 08:00-17:00; Su off","brand":"Les Schwab","services":["tires"],"shopType":"tire_shop"},{"id":"shop-ut-north-salt-lake-jiffy-lube","name":"Jiffy Lube","slug":"ut-north-salt-lake-jiffy-lube","lat":40.8593264,"lng":-111.8986073,"state":"UT","city":"North Salt Lake","address":"989 North Highway 89","zip":"84054","phone":"+1-801-296-1921","email":"","website":"https://www.jiffylube.com/locations/ut/north-salt-lake/2636","hours":"Mo-Fr 08:00-19:00; Sa 08:00-18:00; Su off","brand":"Jiffy Lube","services":["oil_change"],"shopType":"quick_lube"},{"id":"shop-ut-unknown-master-autotech","name":"Master AutoTech","slug":"ut-unknown-master-autotech","lat":40.7546031,"lng":-111.8915348,"state":"UT","city":"","address":"690 South Main Street","zip":"","phone":"+1-801-305-3049","email":"","website":"https://masterauto.tech/downtown-slc/","hours":"Mo-Fr 07:30-18:00; Sa 08:00-16:00","brand":"","services":["general_repair"],"shopType":"general_repair"},{"id":"shop-ut-unknown-dave-s-auto-center","name":"Dave's Auto Center","slug":"ut-unknown-dave-s-auto-center","lat":40.914414,"lng":-111.8898573,"state":"UT","city":"","address":"","zip":"","phone":"","email":"","website":"","hours":"","brand":"","services":["general_repair"],"shopType":"general_repair"},{"id":"shop-ut-springville-big-o-tires","name":"Big O Tires","slug":"ut-springville-big-o-tires","lat":40.1605627,"lng":-111.6418733,"state":"UT","city":"Springville","address":"495 S 1750 West","zip":"84663","phone":"","email":"","website":"","hours":"","brand":"Big O Tires","services":["tires","car_repair","tyres"],"shopType":"general_repair"},{"id":"shop-ut-spanish-fork-jiffy-lube","name":"Jiffy Lube","slug":"ut-spanish-fork-jiffy-lube","lat":40.1218523,"lng":-111.6411319,"state":"UT","city":"Spanish Fork","address":"901 East US-6","zip":"84660","phone":"","email":"","website":"","hours":"","brand":"Jiffy Lube","services":["oil_change"],"shopType":"quick_lube"},