[{"id":"shop-ut-clearfield-c-m-tires","name":"C & M Tires","slug":"ut-clearfield-c-m-tires","lat":41.1215126,"lng":-112.0256357,"state":"UT","city":"Clearfield","address":"548 N Main St","zip":"84015","phone":"+1 801 7738159","email":"","website":"https://www.cmtires.com/","hours":"Mo-Fr 08:00-18:00; Sa 08:00-17:00","brand":"","services":["tires"],"shopType":"tire_shop"},{"id":"shop-ut-blanding-canyonlands-tire","name":"Canyonlands Tire","slug":"ut-blanding-canyonlands-tire","lat":37.6236716,"lng":-109.4775847,"state":"UT","city":"Blanding","address":"111 South Main Street","zip":"84511","phone":"","email":"","website":"","hours":"","brand":"","services":["tires"],"shopType":"tire_shop"},{"id":"shop-ut-brigham-city-techna-glass","name":"Techna Glass","slug":"ut-brigham-city-techna-glass","lat":41.5063275,"lng":-112.0154839,"state":"UT","city":"Brigham City","address":"200 South Main Street","zip":"84302","phone":"","email":"","website":"","hours":"","brand":"","services":["general_repair"],"shopType":"general_repair"},{"id":"shop-ut-draper-jiffy-lube","name":"Jiffy Lube","slug":"ut-draper-jiffy-lube","lat":40.4983219,"lng":-111.884705,"state":"UT","city":"Draper","address":"13955 S Bangerter Parkway","zip":"84020","phone":"","email":"","website":"","hours":"","brand":"Jiffy Lube","services":["oil_change"],"shopType":"quick_lube"},{"id":"shop-ut-santaquin-oil-changers","name":"Oil Changers","slug":"ut-santaquin-oil-changers","lat":39.9758835,"lng":-111.7782996,"state":"UT","city":"Santaquin","address":"315 E Main Street","zip":"84655","phone":"","email":"","website":"","hours":"","brand":"Oil Changers","services":["oil_change"],"shopType":"quick_lube"},{"id":"shop-ut-salt-lake-city-a-broken-windshield","name":"A Broken Windshield","slug":"ut-salt-lake-city-a-broken-windshield","lat":40.7558964,"lng":-111.9029402,"state":"UT","city":"Salt Lake City","address":"South 400 West","zip":"84101","phone":"+1 801-597-0438","email":"","website":"","hours":"","brand":"","services":["glass_repair"],"shopType":"general_repair"},{"id":"shop-ut-provo-j-m-s-transmission-clinic","name":"J&M's Transmission Clinic","slug":"ut-provo-j-m-s-transmission-clinic","lat":40.2227008,"lng":-111.658424,"state":"UT","city":"Provo","address":"855 South University Avenue","zip":"84601","phone":"","email":"","website":"","hours":"","brand":"","services":["transmission"],"shopType":"transmission_shop"},{"id":"shop-ut-provo-master-muffler-shop","name":"Master Muffler Shop","slug":"ut-provo-master-muffler-shop","lat":40.2228359,"lng":-111.658427,"state":"UT","city":"Provo","address":"835 South University Avenue","zip":"84601","phone":"","email":"","website":"","hours":"","brand":"","services":["muffler","exhaust"],"shopType":"general_repair"},{"id":"shop-ut-logan-discount-tire","name":"Discount Tire","slug":"ut-logan-discount-tire","lat":41.7478399,"lng":-111.8349316,"state":"UT","city":"Logan","address":"885 North Main Street","zip":"84321","phone":"","email":"","website":"","hours":"","brand":"Discount Tire","services":["tires"],"shopType":"tire_shop"},{"id":"shop-ut-st-george-bracken-s-auto-tech","name":"Bracken's Auto Tech","slug":"ut-st-george-bracken-s-auto-tech","lat":37.1093871,"lng":-113.5616702,"state":"UT","city":"St. George","address":"86 North 1000 East","zip":"84770","phone":"","email":"","website":"","hours":"Mo-Fr 08:00-18:00, Sa 08:00-17:00","brand":"","services":["general_repair"],"shopType":"general_repair"},{"id":"shop-ut-salt-lake-city-schneider-auto-body","name":"Schneider Auto Body","slug":"ut-salt-lake-city-schneider-auto-body","lat":40.7433487,"lng":-111.9027467,"state":"UT","city":"Salt Lake City","address":"1180 South 400 West","zip":"84101","phone":"+1 801-484-9400","email":"","website":"https://www.schneiderauto.net/","hours":"Mo-Fr 08:30-17:30","brand":"","services":["body_work"],"shopType":"body_shop"},{"id":"shop-ut-roy-c-m-tires","name":"C & M Tires","slug":"ut-roy-c-m-tires","lat":41.170416,"lng":-112.0255839,"state":"UT","city":"Roy","address":"5140 South 1900 West","zip":"84067","phone":"+1 801 7746378","email":"","website":"http://cmtires.com/","hours":"Mo-Fr 08:00-18:00; Sa 08:00-17:00","brand":"","services":["tires"],"shopType":"tire_shop"},{"id":"shop-ut-salt-lake-city-alpine-foreign-repair","name":"Alpine Foreign Repair","slug":"ut-salt-lake-city-alpine-foreign-repair","lat":40.750057,"lng":-111.881306,"state":"UT","city":"Salt Lake City","address":"341 East 900 South","zip":"","phone":"+1-801-355-6459","email":"","website":"https://www.alpineforeignrepair.com/","hours":"Mo-Th 07:30-16:30","brand":"Audi;BMW;Mercedes-Benz","services":["general_repair"],"shopType":"general_repair"},{"id":"shop-ut-layton-chesty-s-auto-repair","name":"Chesty's Auto Repair","slug":"ut-layton-chesty-s-auto-repair","lat":41.0701557,"lng":-111.976716,"state":"UT","city":"Layton","address":"687 North Main Street","zip":"84041","phone":"+1 801-513-5227","email":"","website":"","hours":"Mo-Th 08:30-17:30; Fr 8:30-17:00","brand":"","services":["general_repair"],"shopType":"general_repair"},{"id":"shop-ut-bountiful-premier-auto-glass","name":"Premier Auto Glass","slug":"ut-bountiful-premier-auto-glass","lat":40.8461149,"lng":-111.9046165,"state":"UT","city":"Bountiful","address":"874 W 4000 S","zip":"84010","phone":"+1 801-839-9389","email":"","website":"http://premierautoglassut.net","hours":"","brand":"","services":["glass"],"shopType":"general_repair"},{"id":"shop-ut-salt-lake-city-tip-top-transmissions","name":"Tip Top Transmissions","slug":"ut-salt-lake-city-tip-top-transmissions","lat":40.7366242,"lng":-111.897147,"state":"UT","city":"Salt Lake City","address":"2211 North Warm Springs Road","zip":"84116","phone":"+1 801-484-1688","email":"info@tiptoptransmissions.com","website":"https://www.tiptoptransmissions.com","hours":"Mo-Fr 08:00-17:00","brand":"","services":["transmission"],"shopType":"transmission_shop"},{"id":"shop-ut-layton-quick-emissions","name":"Quick Emissions","slug":"ut-layton-quick-emissions","lat":41.0675704,"lng":-111.9740195,"state":"UT","city":"Layton","address":"505 North Main Street","zip":"84041","phone":"+1 801 682 8799","email":"quickemissions@gmail.com","website":"https://quickemissionsutah.com/","hours":"Mo-Fr 08:00-18:00; Sa 08:00-17:00","brand":"","services":["inspection"],"shopType":"general_repair"},{"id":"shop-ut-midvale-rush-diesel-automotive","name":"RUSH Diesel & Automotive","slug":"ut-midvale-rush-diesel-automotive","lat":40.607184,"lng":-111.8917529,"state":"UT","city":"Midvale","address":"7936 South State Street","zip":"84047","phone":"+1-801-565-3634","email":"","website":"https://www.rushdieselrepair.com/","hours":"Mo-Fr 08:00-18:00","brand":"","services":["car_repair","tires","brakes","diesel","tyres"],"shopType":"general_repair"},{"id":"shop-ut-vernal-big-o-tires","name":"Big O Tires","slug":"ut-vernal-big-o-tires","lat":40.4371549,"lng":-109.566964,"state":"UT","city":"Vernal","address":"2045 W Hwy 40","zip":"84078","phone":"+1 435-781-2446","email":"","website":"","hours":"","brand":"Big O Tires","services":["tires"],"shopType":"tire_shop"},{"id":"shop-ut-vernal-sam-s-body-shop","name":"Sam's Body Shop","slug":"ut-vernal-sam-s-body-shop","lat":40.4410834,"lng":-109.5614081,"state":"UT","city":"Vernal","address":"1732 West 1000 South","zip":"84078","phone":"+1 435-789-6718","email":"","website":"","hours":"","brand":"","services":["body_work","body_repair"],"shopType":"body_shop"},{"id":"shop-ut-vernal-basin-collision-repair","name":"Basin Collision Repair","slug":"ut-vernal-basin-collision-repair","lat":40.4330267,"lng":-109.5705855,"state":"UT","city":"Vernal","address":"2243 W 1500 S","zip":"84078","phone":"+1 435-789-7568","email":"","website":"","hours":"","brand":"","services":["car_repair","body_work"],"shopType":"body_shop"},{"id":"shop-ut-orem-taysom-tire-muffler-auto-repair","name":"Taysom Tire Muffler & Auto Repair","slug":"ut-orem-taysom-tire-muffler-auto-repair","lat":40.3091443,"lng":-111.700524,"state":"UT","city":"Orem","address":"651 North State Street","zip":"84057","phone":"+1 801-225-6343","email":"","website":"https://taysomtire.com/","hours":"","brand":"","services":["tires","exhaust"],"shopType":"general_repair"},{"id":"shop-ut-west-valley-city-christensen-s-point-s","name":"Christensen's Point S","slug":"ut-west-valley-city-christensen-s-point-s","lat":40.6698035,"lng":-112.024051,"state":"UT","city":"West Valley City","address":"4607 South 5600 West","zip":"84120","phone":"+1 801-840-0772","email":"","website":"https://pointstire.com/","hours":"Mo-Fr 07:30-18:00; Sa 07:30-17:00","brand":"","services":["tires"],"shopType":"general_repair"},{"id":"shop-ut-provo-s-r-automotive","name":"S & R Automotive","slug":"ut-provo-s-r-automotive","lat":40.2036779,"lng":-111.623764,"state":"UT","city":"Provo","address":"2255 S State St","zip":"84606","phone":"+1-801-377-2365","email":"","website":"https://www.sandrautomotiveut.com/","hours":"Mo-Fr 09:00-18:00","brand":"","services":["general_repair"],"shopType":"general_repair"},{"id":"shop-ut-orem-mitch-s-autoworks","name":"Mitch's Autoworks","slug":"ut-orem-mitch-s-autoworks","lat":40.315462,"lng":-111.7008442,"state":"UT","city":"Orem","address":"238 West 990 North","zip":"84057","phone":"+1-801-426-9990","email":"","website":"https://www.mitchsautoworks.com/","hours":"","brand":"","services":["general_repair"],"shopType":"general_repair"},{"id":"shop-ut-salt-lake-city-big-o-tires","name":"Big O Tires","slug":"ut-salt-lake-city-big-o-tires","lat":40.7690931,"lng":-111.8857101,"state":"UT","city":"Salt Lake City","address":"178 East South Temple","zip":"84111","phone":"+1 801-386-9387","email":"","website":"https://www.bigotires.com/location/ut/salt-lake-city/178-e-south-temple-84111/044206","hours":"Mo-Fr 07:00-18:00; Sa 07:00-16:00; Su off","brand":"Big O Tires","services":["tires"],"shopType":"tire_shop"},{"id":"shop-ut-salt-lake-city-burt-bros-auto","name":"Burt Bros. Auto","slug":"ut-salt-lake-city-burt-bros-auto","lat":40.762574,"lng":-111.884965,"state":"UT","city":"Salt Lake City","address":"204 East 300 South","zip":"84111","phone":"","email":"","website":"","hours":"Mo-Fr 08:00-18:00; Sa 08:00-17:00","brand":"","services":["general_repair"],"shopType":"general_repair"},{"id":"shop-ut-south-ogden-master-autotech","name":"Master Autotech","slug":"ut-south-ogden-master-autotech","lat":41.1639648,"lng":-111.9524999,"state":"UT","city":"South Ogden","address":"1025 E Chambers Street","zip":"84403","phone":"","email":"","website":"https://southogden.mastermuffler.net","hours":"Mo-Fr 07:30-18:00","brand":"","services":["car_repair","oil_change","air_conditioning","diagnostics","brakes","muffler","exhaust"],"shopType":"general_repair"},{"id":"shop-ut-salt-lake-city-romaine-electric","name":"Romaine Electric","slug":"ut-salt-lake-city-romaine-electric","lat":40.7442403,"lng":-111.899306,"state":"UT","city":"Salt Lake City","address":"1125 South 300 West","zip":"84101","phone":"+1-800-294-3664","email":"","website":"https://www.romaineelectric.com","hours":"","brand":"","services":["general_repair"],"shopType":"general_repair"},{"id":"shop-ut-logan-economy-auto-repair","name":"Economy Auto Repair","slug":"ut-logan-economy-auto-repair","lat":41.7589468,"lng":-111.8415612,"state":"UT","city":"Logan","address":"1456 North 300 West","zip":"84341","phone":"","email":"","website":"","hours":"","brand":"","services":["general_repair"],"shopType":"general_repair"},{"id":"shop-ut-kanab-ramsay-towing","name":"Ramsay Towing","slug":"ut-kanab-ramsay-towing","lat":37.0459514,"lng":-112.526095,"state":"UT","city":"Kanab","address":"131 South 100 East","zip":"84741","phone":"+1 435 644 8070","email":"","website":"","hours":"","brand":"","services":["general_repair"],"shopType":"general_repair"},{"id":"shop-ut-logan-ridgeline-automotive","name":"Ridgeline Automotive","slug":"ut-logan-ridgeline-automotive","lat":41.7691324,"lng":-111.8042902,"state":"UT","city":"Logan","address":"1200 East 2100 North","zip":"84341","phone":"+1 435 753 2592","email":"","website":"https://ridgelineautomotive.net/","hours":"Mo-Fr 08:00-17:00","brand":"","services":["inspection","car_repair"],"shopType":"general_repair"},{"id":"shop-ut-sandy-rush-diesel-automotive","name":"RUSH Diesel & Automotive","slug":"ut-sandy-rush-diesel-automotive","lat":40.5813159,"lng":-111.8913392,"state":"UT","city":"Sandy","address":"9356 South State Street","zip":"84070","phone":"+1-801-565-3634","email":"","website":"https://www.rushdieselrepair.com/","hours":"Mo-Fr 08:00-17:00","brand":"","services":["diesel"],"shopType":"general_repair"},{"id":"shop-ut-salt-lake-city-t-h-auto-repair","name":"T. H. Auto Repair","slug":"ut-salt-lake-city-t-h-auto-repair","lat":40.7331263,"lng":-111.9008796,"state":"UT","city":"Salt Lake City","address":"335 West 1700 South","zip":"84115","phone":"+1-801-879-5509","email":"","website":"","hours":"","brand":"","services":["general_repair"],"shopType":"general_repair"},{"id":"shop-ut-west-valley-city-castrol-premium-lube-express","name":"Castrol Premium Lube Express","slug":"ut-west-valley-city-castrol-premium-lube-express","lat":40.6964261,"lng":-111.9654374,"state":"UT","city":"West Valley City","address":"3105 West 3500 South","zip":"84119","phone":"+1 801-417-8387","email":"","website":"http://www.castrolpremiumlube.com/Store/1630/","hours":"Mo-Fr 08:00-19:00; Sa 08:00-17:00; Su off","brand":"","services":["oil_change"],"shopType":"quick_lube"},{"id":"shop-ut-west-valley-city-tim-s-automotive-tires","name":"Tim's Automotive & Tires","slug":"ut-west-valley-city-tim-s-automotive-tires","lat":40.694863,"lng":-111.976613,"state":"UT","city":"West Valley City","address":"3555 South 3600 West","zip":"84119","phone":"+1-801-969-3555","email":"","website":"https://www.takeittotims.com/","hours":"Mo-Fr 08:00-18:00; Sa 08:00-12:00; Su off","brand":"","services":["tires"],"shopType":"tire_shop"},{"id":"shop-ut-clearfield-master-autotech","name":"Master AutoTech","slug":"ut-clearfield-master-autotech","lat":41.1112901,"lng":-112.022026,"state":"UT","city":"Clearfield","address":"239 East 200 South","zip":"84015","phone":"+1 801-416-2064","email":"","website":"https://masterauto.tech/clearfield/","hours":"Mo-Fr 08:00-18:00; Sa-Su off","brand":"","services":["general_repair"],"shopType":"general_repair"},{"id":"shop-ut-murray-german-car-service","name":"German Car Service","slug":"ut-murray-german-car-service","lat":40.6766239,"lng":-111.8994776,"state":"UT","city":"Murray","address":"4325 South Commerce Drive","zip":"84107","phone":"","email":"","website":"","hours":"","brand":"","services":["general_repair"],"shopType":"general_repair"},{"id":"shop-ut-salt-lake-city-victor-s-tires","name":"Victor's Tires","slug":"ut-salt-lake-city-victor-s-tires","lat":40.6986641,"lng":-111.8887146,"state":"UT","city":"Salt Lake City","address":"3550 South State Street","zip":"84115","phone":"+1-801-485-2077","email":"","website":"","hours":"Mo-Sa 08:00-18:00; Su 08:00-15:00","brand":"","services":["tires"],"shopType":"tire_shop"},{"id":"shop-ut-south-salt-lake-lucie-s-seat-covers","name":"Lucie's Seat Covers","slug":"ut-south-salt-lake-lucie-s-seat-covers","lat":40.6939953,"lng":-111.8885512,"state":"UT","city":"South Salt Lake","address":"3554 South State Street","zip":"84115","phone":"+1-801-262-8123","email":"","website":"https://lucieseatcovers.com/","hours":"Mo-Fr 09:00-17:00; Sa 09:00-14:00; Su off","brand":"","services":["general_repair"],"shopType":"general_repair"},{"id":"shop-ut-salt-lake-city-wasatch-motor-werks","name":"Wasatch Motor Werks","slug":"ut-salt-lake-city-wasatch-motor-werks","lat":40.6824875,"lng":-111.8872724,"state":"UT","city":"Salt Lake City","address":"4091 South State Street","zip":"84107","phone":"+1-801-290-8536","email":"","website":"https://www.wasatchmotorwerks.com/","hours":"Mo-Fr 08:00-17:00; Sa-Su off","brand":"","services":["general_repair"],"shopType":"general_repair"},{"id":"shop-ut-salt-lake-city-jeanette-auto-service","name":"Jeanette Auto Service","slug":"ut-salt-lake-city-jeanette-auto-service","lat":40.6825224,"lng":-111.8875521,"state":"UT","city":"Salt Lake City","address":"4091 South State Street","zip":"84107","phone":"+1-801-262-2065","email":"","website":"","hours":"","brand":"","services":["general_repair"],"shopType":"general_repair"},{"id":"shop-ut-salt-lake-city-master-muffler-and-brake","name":"Master Muffler And Brake","slug":"ut-salt-lake-city-master-muffler-and-brake","lat":40.7545722,"lng":-111.89147,"state":"UT","city":"Salt Lake City","address":"690 South Main Street","zip":"84101","phone":"+1 801-355-9224","email":"","website":"https://masterauto.tech/downtown-slc/","hours":"Mo-Fr 08:00-18:00; Sa 08:00-16:00","brand":"","services":["exhaust","brakes"],"shopType":"general_repair"},{"id":"shop-ut-murray-elite-emissions-sales","name":"Elite Emissions & Sales","slug":"ut-murray-elite-emissions-sales","lat":40.6704896,"lng":-111.8878658,"state":"UT","city":"Murray","address":"4659 South State Street","zip":"84107","phone":"","email":"","website":"https://eliteemissions.com/","hours":"","brand":"","services":["general_repair"],"shopType":"general_repair"},{"id":"shop-ut-logan-m-m-autocare","name":"M&M Autocare","slug":"ut-logan-m-m-autocare","lat":41.7624296,"lng":-111.8374751,"state":"UT","city":"Logan","address":"1650 North 100 West","zip":"84341","phone":"+1 435 753 0211","email":"","website":"https://mmautocare.com/","hours":"","brand":"","services":["general_repair"],"shopType":"general_repair"},{"id":"shop-ut-providence-master-mechanic","name":"Master Mechanic","slug":"ut-providence-master-mechanic","lat":41.7108559,"lng":-111.828654,"state":"UT","city":"Providence","address":"142 North Gateway Drive","zip":"84332","phone":"+1 435-265-4345","email":"","website":"https://mastermechanicauto.com/","hours":"Mo-Fr 08:00-17:00","brand":"","services":["general_repair"],"shopType":"general_repair"},{"id":"shop-ut-salt-lake-city-mark-miller-toyota-service","name":"Mark Miller Toyota Service","slug":"ut-salt-lake-city-mark-miller-toyota-service","lat":40.7534487,"lng":-111.8951749,"state":"UT","city":"Salt Lake City","address":"730 South West Temple","zip":"84101","phone":"+1-855-959-1438","email":"","website":"","hours":"","brand":"Toyota","services":["general_repair"],"shopType":"general_repair"},{"id":"shop-ut-salt-lake-city-ken-garff-honda-downtown-repair","name":"Ken Garff Honda Downtown Repair","slug":"ut-salt-lake-city-ken-garff-honda-downtown-repair","lat":40.7488891,"lng":-111.8891907,"state":"UT","city":"Salt Lake City","address":"900 South State Street","zip":"84111","phone":"+1-801-526-1730","email":"","website":"https://www.kengarffhondadowntown.com/service/","hours":"","brand":"Honda","services":["general_repair"],"shopType":"general_repair"},{"id":"shop-ut-pleasant-grove-major-league-auto-repair","name":"Major League Auto Repair","slug":"ut-pleasant-grove-major-league-auto-repair","lat":40.3708779,"lng":-111.768314,"state":"UT","city":"Pleasant Grove","address":"1983 West 680 North","zip":"84062","phone":"+1-801-708-0914","email":"","website":"","hours":"","brand":"","services":["general_repair"],"shopType":"general_repair"},{"id":"shop-ut-pleasant-grove-valvoline","name":"Valvoline","slug":"ut-pleasant-grove-valvoline","lat":40.3697067,"lng":-111.7687507,"state":"UT","city":"Pleasant Grove","address":"1975 West State Street","zip":"84062","phone":"","email":"","website":"https://store.vioc.com/ut/pleasantgrove/oil-change-gt0026.html","hours":"","brand":"Valvoline","services":["oil_change"],"shopType":"quick_lube"},{"id":"shop-ut-south-salt-lake-low-price-auto-glass","name":"Low Price Auto Glass","slug":"ut-south-salt-lake-low-price-auto-glass","lat":40.6995148,"lng":-111.9075718,"state":"UT","city":"South Salt Lake","address":"585 West 3300 South","zip":"84115","phone":"","email":"","website":"https://www.lowpriceslc.com/","hours":"Mo-Fr 08:30-16:30; Sa 08:30-15:30; Su off","brand":"","services":["general_repair"],"shopType":"general_repair"},{"id":"shop-ut-logan-jiffy-lube","name":"Jiffy Lube","slug":"ut-logan-jiffy-lube","lat":41.7108431,"lng":-111.8341123,"state":"UT","city":"Logan","address":"1152 South Main Street","zip":"84321","phone":"","email":"","website":"","hours":"","brand":"Jiffy Lube","services":["oil_change"],"shopType":"quick_lube"},{"id":"shop-ut-north-salt-lake-lance-paul-automotive","name":"Lance Paul Automotive","slug":"ut-north-salt-lake-lance-paul-automotive","lat":40.852047,"lng":-111.9292335,"state":"UT","city":"North Salt Lake","address":"561 North 700 West","zip":"84054","phone":"+18019286325","email":"","website":"","hours":"Mo-Fr 08:30-17:00","brand":"","services":["car_repair","oil_change","tires","brakes","repairs","inspection","tyres"],"shopType":"general_repair"},{"id":"shop-ut-logan-novus-glass","name":"NOVUS Glass","slug":"ut-logan-novus-glass","lat":41.7382022,"lng":-111.8366167,"state":"UT","city":"Logan","address":"355 North 50 West","zip":"84321","phone":"+1 435-770-8320","email":"","website":"https://www.novusglass.com/en-us/shop/logan/","hours":"Mo-Fr 09:00-17:00; Sa-Su off","brand":"NOVUS Glass","services":["glass"],"shopType":"general_repair"},{"id":"shop-ut-salt-lake-city-scotts-auto-clutch-repair","name":"Scotts Auto & Clutch Repair","slug":"ut-salt-lake-city-scotts-auto-clutch-repair","lat":40.7145187,"lng":-111.8957371,"state":"UT","city":"Salt Lake City","address":"144 West Crystal Avenue","zip":"84117","phone":"+1-801-485-4089","email":"","website":"https://slcautoshop.com","hours":"Mo-Su 09:00-21:00","brand":"","services":["repair","car_repair","electrical","air_conditioning","oil_change","truck_repair","diagnostics","car_parts","transmission","brakes","muffler","batteries","repairs","inspection","exhaust"],"shopType":"general_repair"},{"id":"shop-ut-salt-lake-city-wade-automotive-products","name":"Wade Automotive Products","slug":"ut-salt-lake-city-wade-automotive-products","lat":40.7501445,"lng":-111.9048274,"state":"UT","city":"Salt Lake City","address":"863 South 500 West","zip":"84101","phone":"+1-801-355-0972","email":"","website":"https://wadeauto.com","hours":"Mo-Fr 08:30-17:30","brand":"","services":["general_repair"],"shopType":"general_repair"},{"id":"shop-ut-grantsville-flat-out-speed-shop","name":"Flat Out Speed Shop","slug":"ut-grantsville-flat-out-speed-shop","lat":40.5950184,"lng":-112.4690938,"state":"UT","city":"Grantsville","address":"205 South Center Street","zip":"84029","phone":"+14358509805","email":"Severeracing@gmail.com","website":"","hours":"","brand":"","services":["general_repair"],"shopType":"general_repair"},{"id":"shop-ut-cedar-city-wheeler-machinery-company","name":"Wheeler Machinery Company","slug":"ut-cedar-city-wheeler-machinery-company","lat":37.6858604,"lng":-113.1117812,"state":"UT","city":"Cedar City","address":"451 North Lund Highway","zip":"84720","phone":"","email":"","website":"https://wheelercat.com/company/locations/cedar-city/","hours":"","brand":"CAT","services":["general_repair"],"shopType":"general_repair"},{"id":"shop-ut-west-valley-city-the-back-shop","name":"The Back Shop","slug":"ut-west-valley-city-the-back-shop","lat":40.69621,"lng":-111.9654787,"state":"UT","city":"West Valley City","address":"3105 West 3500 South","zip":"84119","phone":"+1 801-417-8387","email":"","website":"","hours":"Mo-Fr 8:00-19:00","brand":"","services":["car_repair","oil_change","diagnostics","tires","inspection","tyres"],"shopType":"general_repair"},{"id":"shop-ut-taylorsville-quick-emissions","name":"Quick Emissions","slug":"ut-taylorsville-quick-emissions","lat":40.6533557,"lng":-111.9584999,"state":"UT","city":"Taylorsville","address":"2724 West 5400 South","zip":"84129","phone":"+1 801 840 2250","email":"quickemissions@gmail.com","website":"https://quickemissionsutah.com/","hours":"Mo-Fr 08:00-18:00; Sa 8:00-17:00","brand":"","services":["inspection"],"shopType":"general_repair"},{"id":"shop-ut-provo-jiffy-lube","name":"Jiffy Lube","slug":"ut-provo-jiffy-lube","lat":40.2552271,"lng":-111.6622111,"state":"UT","city":"Provo","address":"1575 North Freedom Boulevard","zip":"84604","phone":"+1 801-377-2072","email":"","website":"","hours":"","brand":"Jiffy Lube","services":["oil_change"],"shopType":"quick_lube"},{"id":"shop-ut-logan-carsmart","name":"CarSmart","slug":"ut-logan-carsmart","lat":41.7384023,"lng":-111.8366205,"state":"UT","city":"Logan","address":"58 1/2 West 400 North","zip":"84321","phone":"+1 435-787-9458","email":"","website":"","hours":"Mo-Fr 08:00-17:00; Sa-Su off","brand":"","services":["general_repair"],"shopType":"general_repair"},{"id":"shop-ut-taylorsville-aamco","name":"AAMCO","slug":"ut-taylorsville-aamco","lat":40.6534299,"lng":-111.9788823,"state":"UT","city":"Taylorsville","address":"3692 West 5400 South","zip":"84129","phone":"+1 801-410-7757","email":"","website":"","hours":"Tu-Sa 08:30-17:30","brand":"AAMCO","services":["transmission"],"shopType":"transmission_shop"},{"id":"shop-ut-kearns-master-autotech","name":"Master Autotech","slug":"ut-kearns-master-autotech","lat":40.6524603,"lng":-111.9913606,"state":"UT","city":"Kearns","address":"4219 West 5415 South","zip":"84118","phone":"+1 801-657-5000","email":"","website":"https://masterauto.tech/kearns/","hours":"Mo-Fr 7:45-18:00","brand":"","services":["exhaust"],"shopType":"general_repair"},{"id":"shop-ut-kearns-emissions-plus","name":"Emissions Plus","slug":"ut-kearns-emissions-plus","lat":40.6525679,"lng":-111.988656,"state":"UT","city":"Kearns","address":"4087 West 5415 South","zip":"84118","phone":"+1 801-964-5911","email":"","website":"http://emissions-plus.com/","hours":"","brand":"","services":["inspection"],"shopType":"general_repair"},{"id":"shop-ut-washington-pete-s-autoworks","name":"Pete's Autoworks","slug":"ut-washington-pete-s-autoworks","lat":37.1154595,"lng":-113.5086507,"state":"UT","city":"Washington","address":"35 Industrial Drive","zip":"84780","phone":"+1 435-773-7895","email":"","website":"http://www.petesautoworks.com/","hours":"","brand":"","services":["diagnostics","car_repair","oil_change"],"shopType":"general_repair"},{"id":"shop-ut-st-george-st-george-muffler-and-radiator","name":"St. George Muffler and Radiator","slug":"ut-st-george-st-george-muffler-and-radiator","lat":37.1087233,"lng":-113.5682405,"state":"UT","city":"St. George","address":"28 North University Avenue","zip":"84770","phone":"+1 435-673-2948","email":"","website":"","hours":"Mo-Fr 09:00-17:00","brand":"","services":["exhausts","exhaust","muffler_installation"],"shopType":"general_repair"},{"id":"shop-ut-eden-eden-automotive","name":"Eden Automotive","slug":"ut-eden-eden-automotive","lat":41.3055515,"lng":-111.82973,"state":"UT","city":"Eden","address":"4931 East 2550 North","zip":"84310","phone":"+1-801-675-4931","email":"","website":"https://www.eden-automotive.com","hours":"Mo-Fr 08:00-18:00","brand":"","services":["diagnostics","car_repair","oil_change"],"shopType":"general_repair"},{"id":"shop-ut-spanish-fork-axcess-accident-center","name":"Axcess Accident Center","slug":"ut-spanish-fork-axcess-accident-center","lat":40.1198626,"lng":-111.641578,"state":"UT","city":"Spanish Fork","address":"East 800 North Street","zip":"84660","phone":"","email":"","website":"","hours":"","brand":"","services":["general_repair"],"shopType":"general_repair"},{"id":"shop-ut-lehi-cascade-collision-repair","name":"Cascade Collision Repair","slug":"ut-lehi-cascade-collision-repair","lat":40.3895831,"lng":-111.8307275,"state":"UT","city":"Lehi","address":"175 N 1200 E","zip":"84043","phone":"+1 801-768-8010","email":"","website":"https://cascadecollision.com/","hours":"Mo-Fr 08:00-17:00","brand":"","services":["collision_repair","dent_removal","body_work","body_repair"],"shopType":"body_shop"},{"id":"shop-ut-orem-cascade-collision-repair","name":"Cascade Collision Repair","slug":"ut-orem-cascade-collision-repair","lat":40.3158787,"lng":-111.7043482,"state":"UT","city":"Orem","address":"1005 N State St","zip":"84057","phone":"+1 801-224-8020","email":"","website":"https://cascadecollision.com/","hours":"Mo-Fr 08:00-17:00","brand":"","services":["collision_repair","body_work","body_repair"],"shopType":"body_shop"},{"id":"shop-ut-provo-cascade-collision-repair","name":"Cascade Collision Repair","slug":"ut-provo-cascade-collision-repair","lat":40.2185997,"lng":-111.6375492,"state":"UT","city":"Provo","address":"1155 S State St","zip":"84606","phone":"+1 801-373-8020","email":"","website":"https://cascadecollision.com/","hours":"Mo-Fr 08:00-17:00","brand":"","services":["collision_repair","dent_removal","body_work","body_repair"],"shopType":"body_shop"},{"id":"shop-ut-ogden-cascade-collision-repair","name":"Cascade Collision Repair","slug":"ut-ogden-cascade-collision-repair","lat":41.199451,"lng":-111.9788227,"state":"UT","city":"Ogden","address":"3520 Wall Avenue","zip":"84401","phone":"+1 801-395-1946","email":"","website":"https://cascadecollision.com/","hours":"Mo-Fr 08:00-17:00","brand":"","services":["collision_repair","body_work"],"shopType":"body_shop"},{"id":"shop-ut-park-city-cascade-collision-repair","name":"Cascade Collision Repair","slug":"ut-park-city-cascade-collision-repair","lat":40.6891975,"lng":-111.4642027,"state":"UT","city":"Park City","address":"4021 N Forestdale Dr","zip":"84098","phone":"+1 435-655-8010","email":"","website":"https://cascadecollision.com/","hours":"Mo-Fr 08:00-17:00","brand":"","services":["collision_repair","dent_removal","body_work","body_repair"],"shopType":"body_shop"},{"id":"shop-ut-spanish-fork-cascade-collision-repair","name":"Cascade Collision Repair","slug":"ut-spanish-fork-cascade-collision-repair","lat":40.1347598,"lng":-111.6544433,"state":"UT","city":"Spanish Fork","address":"1912 N Main St","zip":"84660","phone":"+1 801-794-9455","email":"","website":"https://cascadecollision.com/","hours":"Mo-Fr 08:00-17:00","brand":"","services":["collision_repair","dent_removal","body_work","body_repair"],"shopType":"body_shop"},{"id":"shop-ut-west-haven-cascade-collision-repair","name":"Cascade Collision Repair","slug":"ut-west-haven-cascade-collision-repair","lat":41.1956408,"lng":-112.0435191,"state":"UT","city":"West Haven","address":"3747 Midland Dr","zip":"84401","phone":"+1 801-731-2369","email":"","website":"https://cascadecollision.com/","hours":"Mo-Fr 08:00-17:00","brand":"","services":["collision_repair","dent_removal","body_work","body_repair"],"shopType":"body_shop"},{"id":"shop-ut-midvale-cascade-collision-repair","name":"Cascade Collision Repair","slug":"ut-midvale-cascade-collision-repair","lat":40.6049525,"lng":-111.8915575,"state":"UT","city":"Midvale","address":"8062 S State St","zip":"84047","phone":"+1 801-996-8369","email":"","website":"https://cascadecollision.com/","hours":"Mo-Fr 08:00-17:00","brand":"","services":["collision_repair","glass","dent_removal","body_work"],"shopType":"body_shop"},{"id":"shop-ut-murray-cascade-collision-repair","name":"Cascade Collision Repair","slug":"ut-murray-cascade-collision-repair","lat":40.6691667,"lng":-111.905113,"state":"UT","city":"Murray","address":"4759 South 500 West","zip":"84123","phone":"+1 801-355-5174","email":"","website":"https://cascadecollision.com/","hours":"Mo-Fr 08:00-17:00","brand":"","services":["collision_repair","painting","body_work","body_repair"],"shopType":"body_shop"},{"id":"shop-ut-bountiful-point-s","name":"Point S","slug":"ut-bountiful-point-s","lat":40.8845478,"lng":-111.8896493,"state":"UT","city":"Bountiful","address":"400 West 500 South","zip":"84010","phone":"+1 801-294-2559","email":"","website":"https://gillspointstire.com/locations/400-w-500-s-tire-store-487","hours":"Mo-Fr 07:30-18:00","brand":"Point S","services":["tires"],"shopType":"general_repair"},{"id":"shop-ut-salt-lake-city-auto-car-solutions","name":"Auto Car Solutions","slug":"ut-salt-lake-city-auto-car-solutions","lat":40.7698771,"lng":-111.9173216,"state":"UT","city":"Salt Lake City","address":"15 North 900 West","zip":"84116","phone":"+1-801-953-6432","email":"","website":"","hours":"Mo-Sa 09:00-18:00","brand":"","services":["general_repair"],"shopType":"general_repair"},{"id":"shop-ut-salt-lake-city-colbys-tire","name":"Colbys Tire","slug":"ut-salt-lake-city-colbys-tire","lat":40.7688891,"lng":-111.9176697,"state":"UT","city":"Salt Lake City","address":"909 West South Temple","zip":"84104","phone":"+1 801-596-2425","email":"","website":"","hours":"Mo-Fr 08:00-17:30; Sa 09:00-15:00; Su off","brand":"","services":["tuning","tires","shocks","brakes","tyres"],"shopType":"general_repair"},{"id":"shop-ut-sunset-tanner-transmissions","name":"Tanner Transmissions","slug":"ut-sunset-tanner-transmissions","lat":41.141184,"lng":-112.0265012,"state":"UT","city":"Sunset","address":"1889 North Main Street","zip":"84010","phone":"+1 801-528-7014","email":"","website":"https://tannertransmissions.com/sunset-ut/","hours":"Mo-Fr 08:00-17:30; Sa 08:00-12:00","brand":"","services":["transmission"],"shopType":"transmission_shop"},{"id":"shop-ut-roy-paskett-auto-complete-car-care","name":"Paskett Auto Complete Car Care","slug":"ut-roy-paskett-auto-complete-car-care","lat":41.1579407,"lng":-112.0264806,"state":"UT","city":"Roy","address":"4852 South 1900 West","zip":"84067","phone":"+1 385-233-4886","email":"","website":"https://www.autorepairroy.com/","hours":"Mo-Fr 08:00-17:30; Sa 08:00-15:00; Su off","brand":"","services":["general_repair"],"shopType":"general_repair"},{"id":"shop-ut-clearfield-victor-s-tires-custom-wheels","name":"Victor's Tires & Custom Wheels","slug":"ut-clearfield-victor-s-tires-custom-wheels","lat":41.1065732,"lng":-112.0182708,"state":"UT","city":"Clearfield","address":"499 South State Street","zip":"84015","phone":"+1 801-639-9604","email":"","website":"https://www.victorstires.com/","hours":"Mo-Sa 08:00-18:00","brand":"","services":["tires"],"shopType":"tire_shop"},{"id":"shop-ut-orem-top-gear-auto-service","name":"Top Gear Auto Service","slug":"ut-orem-top-gear-auto-service","lat":40.2928281,"lng":-111.6923219,"state":"UT","city":"Orem","address":"225 State Street","zip":"84058","phone":"+1-385-221-4308","email":"","website":"https://topgearautoservice.io/","hours":"","brand":"","services":["general_repair"],"shopType":"general_repair"},{"id":"shop-ut-orem-martins-collision-repair","name":"Martins Collision Repair","slug":"ut-orem-martins-collision-repair","lat":40.2929512,"lng":-111.6923222,"state":"UT","city":"Orem","address":"225 State Street","zip":"84058","phone":"+1-801-226-2969","email":"","website":"https://martinscollision.com/","hours":"","brand":"","services":["body_work"],"shopType":"body_shop"},{"id":"shop-ut-washington-fuzion-autoworks","name":"Fuzion Autoworks","slug":"ut-washington-fuzion-autoworks","lat":37.1154892,"lng":-113.5099508,"state":"UT","city":"Washington","address":"35 Industrial Drive","zip":"84780","phone":"+1 435-681-2161","email":"","website":"https://www.fuzionautoworks.com/","hours":"","brand":"","services":["general_repair"],"shopType":"general_repair"},{"id":"shop-ut-woods-cross-the-paint-spot-body-shop","name":"The Paint Spot Body Shop","slug":"ut-woods-cross-the-paint-spot-body-shop","lat":40.8799752,"lng":-111.8927663,"state":"UT","city":"Woods Cross","address":"952 South 500 West","zip":"84010","phone":"+1 385-399-6259","email":"","website":"https://www.thepaintspotutah.com/","hours":"Mo-Fr 08:30-17:30","brand":"","services":["painting","body_work","body_repair"],"shopType":"body_shop"},{"id":"shop-ut-cedar-city-cedar-city-tint-wraps","name":"Cedar City Tint Wraps","slug":"ut-cedar-city-cedar-city-tint-wraps","lat":37.6934858,"lng":-113.0629503,"state":"UT","city":"Cedar City","address":"987 Main Street","zip":"84721-5151","phone":"","email":"","website":"","hours":"","brand":"","services":["window_tinting"],"shopType":"general_repair"},{"id":"shop-ut-bountiful-quick-emissions","name":"Quick Emissions","slug":"ut-bountiful-quick-emissions","lat":40.8481173,"lng":-111.9064996,"state":"UT","city":"Bountiful","address":"3819 Highway 89","zip":"84010","phone":"+1 801 294 2404","email":"quickemissions@gmail.com","website":"https://quickemissionsutah.com/","hours":"Mo-Fr 08:00-18:00; Sa 08:00-17:00","brand":"","services":["inspection"],"shopType":"general_repair"},{"id":"shop-ut-salt-lake-city-western-service-center","name":"Western Service Center","slug":"ut-salt-lake-city-western-service-center","lat":40.7373855,"lng":-111.9028036,"state":"UT","city":"Salt Lake City","address":"1490 South 400 West","zip":"84115","phone":"+1-888-615-1388","email":"","website":"https://www.westerntruck.com","hours":"Mo-Fr 08:00-17","brand":"","services":["general_repair"],"shopType":"general_repair"},{"id":"shop-ut-lehi-garrin-s-automotive","name":"Garrin's Automotive","slug":"ut-lehi-garrin-s-automotive","lat":40.3877293,"lng":-111.845003,"state":"UT","city":"Lehi","address":"266 East Main Street","zip":"84043","phone":"+1-385-786-6583","email":"","website":"https://www.garrinsauto.com","hours":"Mo-Fr 08:00-17:00","brand":"","services":["general_repair"],"shopType":"general_repair"},{"id":"shop-ut-farr-west-jiffy-lube","name":"Jiffy Lube","slug":"ut-farr-west-jiffy-lube","lat":41.3062891,"lng":-112.0217863,"state":"UT","city":"Farr West","address":"1783 W 2700 North","zip":"84404","phone":"","email":"","website":"","hours":"","brand":"Jiffy Lube","services":["oil_change"],"shopType":"quick_lube"},{"id":"shop-ut-layton-les-schwab-tire-center","name":"Les Schwab Tire Center","slug":"ut-layton-les-schwab-tire-center","lat":41.0785563,"lng":-111.9854143,"state":"UT","city":"Layton","address":"1270 North Main Street","zip":"84041","phone":"+1 801-544-0777","email":"","website":"https://www.lesschwab.com/stores/ut/layton/1270-n-main-st","hours":"Mo-Fr 08:00-18:00; Sa 08:00-17:00","brand":"Les Schwab","services":["tires"],"shopType":"tire_shop"},{"id":"shop-ut-syracuse-jiffy-lube","name":"Jiffy Lube","slug":"ut-syracuse-jiffy-lube","lat":41.0886631,"lng":-112.0482105,"state":"UT","city":"Syracuse","address":"1129 West 1700 South","zip":"84075","phone":"+1 801-825-9300","email":"","website":"https://www.jiffylube.com/locations/ut/syracuse/3335","hours":"Mo-Fr 08:00-18:30; Sa 08:00-17:30; Su 09:00-16:30","brand":"Jiffy Lube","services":["oil_change"],"shopType":"quick_lube"},{"id":"shop-ut-layton-master-autotech","name":"Master Autotech","slug":"ut-layton-master-autotech","lat":41.0831939,"lng":-111.99544,"state":"UT","city":"Layton","address":"1591 North Main Street","zip":"84041","phone":"+1 801-663-7420","email":"","website":"https://masterauto.tech/layton/","hours":"Mo-Fr 07:30-18:00; Sa 07:30-17:00","brand":"","services":["brakes"],"shopType":"general_repair"},{"id":"shop-ut-layton-discount-tire","name":"Discount Tire","slug":"ut-layton-discount-tire","lat":41.0713839,"lng":-111.9823033,"state":"UT","city":"Layton","address":"881 West Hill Field Road","zip":"84041","phone":"+1 801-544-0104","email":"","website":"https://www.discounttire.com/store/ut/layton/s/1542","hours":"Mo-Fr 08:00-18:00; Sa 08:00-17:00; Su off","brand":"Discount Tire","services":["tires"],"shopType":"tire_shop"},{"id":"shop-ut-bountiful-discount-tire","name":"Discount Tire","slug":"ut-bountiful-discount-tire","lat":40.862319,"lng":-111.895187,"state":"UT","city":"Bountiful","address":"2527 South Main Street","zip":"84010","phone":"+1 801-298-7312","email":"","website":"https://www.discounttire.com/store/ut/bountiful/s/1462","hours":"Mo-Fr 08:00-18:00; Sa 08:00-17:00; Su off","brand":"Discount Tire","services":["tires"],"shopType":"tire_shop"},{"id":"shop-ut-bountiful-les-schwab-tire-center","name":"Les Schwab Tire Center","slug":"ut-bountiful-les-schwab-tire-center","lat":40.8611289,"lng":-111.8959284,"state":"UT","city":"Bountiful","address":"2651 South Main Street","zip":"84010","phone":"+1 801-298-0050","email":"","website":"https://www.lesschwab.com/stores/ut/woods-cross/2651-s-main-st","hours":"Mo-Fr 08:00-18:00; Sa 08:00-17:00; Su off","brand":"Les Schwab","services":["tires"],"shopType":"tire_shop"},{"id":"shop-ut-north-salt-lake-jiffy-lube","name":"Jiffy Lube","slug":"ut-north-salt-lake-jiffy-lube","lat":40.8593264,"lng":-111.8986073,"state":"UT","city":"North Salt Lake","address":"989 North Highway 89","zip":"84054","phone":"+1-801-296-1921","email":"","website":"https://www.jiffylube.com/locations/ut/north-salt-lake/2636","hours":"Mo-Fr 08:00-19:00; Sa 08:00-18:00; Su off","brand":"Jiffy Lube","services":["oil_change"],"shopType":"quick_lube"},{"id":"shop-ut-springville-big-o-tires","name":"Big O Tires","slug":"ut-springville-big-o-tires","lat":40.1605627,"lng":-111.6418733,"state":"UT","city":"Springville","address":"495 S 1750 West","zip":"84663","phone":"","email":"","website":"","hours":"","brand":"Big O Tires","services":["tires","car_repair","tyres"],"shopType":"general_repair"},{"id":"shop-ut-spanish-fork-jiffy-lube","name":"Jiffy Lube","slug":"ut-spanish-fork-jiffy-lube","lat":40.1218523,"lng":-111.6411319,"state":"UT","city":"Spanish Fork","address":"901 East US-6","zip":"84660","phone":"","email":"","website":"","hours":"","brand":"Jiffy Lube","services":["oil_change"],"shopType":"quick_lube"},{"id":"shop-ut-lake-point-speedco","name":"Speedco","slug":"ut-lake-point-speedco","lat":40.6837253,"lng":-112.2726134,"state":"UT","city":"Lake Point","address":"8513 North Commerce Drive","zip":"84074","phone":"","email":"","website":"https://www.loves.com/locations/934","hours":"","brand":"Speedco","services":["general_repair"],"shopType":"general_repair"},{"id":"shop-ut-north-salt-lake-master-autotech","name":"Master Autotech","slug":"ut-north-salt-lake-master-autotech","lat":40.8600201,"lng":-111.8980946,"state":"UT","city":"North Salt Lake","address":"1025 North Highway 89","zip":"84054","phone":"+1-801-682-4406","email":"","website":"https://bountiful.mastermuffler.net/","hours":"Mo-Fr 08:00-18:00; Sa 08:00-17:00; Su off","brand":"","services":["oil_change","electrical","motor","tyres","diagnostics","tires","brakes","wheels","muffler","batteries","exhaust"],"shopType":"general_repair"},{"id":"shop-ut-woods-cross-tunex-automotive-service","name":"Tunex Automotive Service","slug":"ut-woods-cross-tunex-automotive-service","lat":40.86283,"lng":-111.8960482,"state":"UT","city":"Woods Cross","address":"2494 South Main Street","zip":"84010","phone":"+1-801-295-5551","email":"","website":"","hours":"","brand":"","services":["general_repair"],"shopType":"general_repair"},{"id":"shop-ut-kaysville-big-o-tires","name":"Big O Tires","slug":"ut-kaysville-big-o-tires","lat":41.040296,"lng":-111.9404166,"state":"UT","city":"Kaysville","address":"320 North Main Street","zip":"84037","phone":"+1 801-336-4982","email":"","website":"https://www.bigotires.com/location/ut/kaysville/320-n-main-st-84037/044263","hours":"Mo-Fr 07:30-18:00; Sa 07:30-16:00; Su off","brand":"Big O Tires","services":["tires"],"shopType":"tire_shop"},{"id":"shop-ut-sunset-charlie-s-service-center","name":"Charlie's Service Center","slug":"ut-sunset-charlie-s-service-center","lat":41.141647,"lng":-112.0265457,"state":"UT","city":"Sunset","address":"1901 North Main Street","zip":"84015","phone":"+1-801-416-3373","email":"","website":"https://www.charliesservice.com","hours":"Mo-Fr 07:30-18:00","brand":"","services":["car_repair","oil_change","diagnostics","brakes","repairs"],"shopType":"general_repair"},{"id":"shop-ut-layton-trav-s-tire-pros","name":"Trav's Tire Pros","slug":"ut-layton-trav-s-tire-pros","lat":41.0888814,"lng":-111.9867828,"state":"UT","city":"Layton","address":"1159 West Antelope Drive","zip":"84041","phone":"+1 801-776-5510","email":"","website":"https://www.travstirepros.com/","hours":"","brand":"","services":["tires"],"shopType":"tire_shop"},{"id":"shop-ut-layton-tunex","name":"Tunex","slug":"ut-layton-tunex","lat":41.0887115,"lng":-111.9865105,"state":"UT","city":"Layton","address":"1141 West Antelope Drive","zip":"84041","phone":"+1 801-776-1786","email":"","website":"https://tunex.com/locations/layton/","hours":"Mo-Fr 08:00-18:00; Sa 08:00-15:00; Su off","brand":"","services":["general_repair"],"shopType":"general_repair"},{"id":"shop-ut-ogden-everest-collision-repair","name":"Everest Collision Repair","slug":"ut-ogden-everest-collision-repair","lat":41.245638,"lng":-111.9878862,"state":"UT","city":"Ogden","address":"1148 Century Drive","zip":"84404","phone":"+1 801-393-1148","email":"","website":"http://www.everestcollisionrepairogden.com","hours":"Mo-Fr 07:30-05:30","brand":"","services":["body_work"],"shopType":"body_shop"},{"id":"shop-ut-layton-shadetree-automotive","name":"Shadetree Automotive","slug":"ut-layton-shadetree-automotive","lat":41.1032968,"lng":-111.9520466,"state":"UT","city":"Layton","address":"757 E Highway 193","zip":"84041","phone":"+1 801 771 6711","email":"","website":"https://www.shadetreeautomotive.net/","hours":"Mo-Fr 08:00-18:00","brand":"","services":["tires","ac","brakes"],"shopType":"general_repair"},{"id":"shop-ut-ogden-master-autotech","name":"Master Autotech","slug":"ut-ogden-master-autotech","lat":41.1981545,"lng":-111.9790859,"state":"UT","city":"Ogden","address":"3590 Wall Avenue","zip":"84401","phone":"+1 801-938-8037","email":"","website":"https://masterauto.tech/ogden/","hours":"Mo-Fr 07:45-17:00; Sa-Su off","brand":"","services":["car_repair","oil_change","air_conditioning","tyres","tires","brakes","muffler","exhaust"],"shopType":"general_repair"},{"id":"shop-ut-american-fork-discount-tire","name":"Discount Tire","slug":"ut-american-fork-discount-tire","lat":40.3846105,"lng":-111.8174525,"state":"UT","city":"American Fork","address":"661 West State Street","zip":"84003","phone":"+1 801 763 8604","email":"","website":"https://www.discounttire.com/store/ut/american-fork/s/1626","hours":"Mo-Fr 08:00-18:00, Sa 08:00-17:00","brand":"Discount Tire","services":["tires"],"shopType":"tire_shop"},{"id":"shop-ut-orem-discount-tire","name":"Discount Tire","slug":"ut-orem-discount-tire","lat":40.2728217,"lng":-111.6837266,"state":"UT","city":"Orem","address":"1325 South State Street","zip":"84097","phone":"+1-801-224-8220","email":"","website":"https://www.discounttire.com/store/UT/Orem/s/1257","hours":"Mo-Fr 08:00-18:00; Sa 08:00-17:00","brand":"Discount Tire","services":["tires"],"shopType":"tire_shop"},{"id":"shop-ut-pleasant-grove-grease-monkey","name":"Grease Monkey","slug":"ut-pleasant-grove-grease-monkey","lat":40.3662884,"lng":-111.7541027,"state":"UT","city":"Pleasant Grove","address":"919 West State Street","zip":"84062","phone":"+1-801-785-7272","email":"","website":"https://www.greasemonkey.com/locations/ut/pleasant-grove/919-west-state-st/","hours":"Mo-Fr 08:00-18:00; Sa 08:00-17:00","brand":"Grease Monkey","services":["general_repair"],"shopType":"general_repair"},{"id":"shop-ut-provo-jiffy-lube-2","name":"Jiffy Lube","slug":"ut-provo-jiffy-lube-2","lat":40.2508749,"lng":-111.6636788,"state":"UT","city":"Provo","address":"290 West Cougar Boulevard","zip":"84604","phone":"","email":"","website":"","hours":"Mo-Fr 08:00-18:00; Sa 08:00-17:00; Su off","brand":"Jiffy Lube","services":["oil_change"],"shopType":"quick_lube"},{"id":"shop-ut-springville-jiffy-lube","name":"Jiffy Lube","slug":"ut-springville-jiffy-lube","lat":40.1609466,"lng":-111.6410285,"state":"UT","city":"Springville","address":"1703 West 400 South","zip":"84663","phone":"","email":"","website":"","hours":"","brand":"Jiffy Lube","services":["tires","oil_change"],"shopType":"quick_lube"},{"id":"shop-ut-millcreek-goodyear-tires","name":"Goodyear Tires","slug":"ut-millcreek-goodyear-tires","lat":40.6701148,"lng":-111.864835,"state":"UT","city":"Millcreek","address":"4621 South 900 East","zip":"84117","phone":"","email":"","website":"","hours":"","brand":"Goodyear","services":["tires"],"shopType":"tire_shop"},{"id":"shop-ut-salt-lake-city-jiffy-lube","name":"Jiffy Lube","slug":"ut-salt-lake-city-jiffy-lube","lat":40.7711839,"lng":-111.9128176,"state":"UT","city":"Salt Lake City","address":"757 West North Temple","zip":"84116","phone":"+1-801-355-1385","email":"","website":"https://www.jiffylube.com/locations/ut/salt-lake-city/2021","hours":"Mo-Fr 08:00-18:30; Sa 08:00-17:30; Su 09:00-16:30","brand":"Jiffy Lube","services":["oil_change","car_repair","inspection"],"shopType":"quick_lube"},{"id":"shop-ut-salt-lake-city-neil-s-pro-service","name":"Neil's Pro Service","slug":"ut-salt-lake-city-neil-s-pro-service","lat":40.7827237,"lng":-111.9259812,"state":"UT","city":"Salt Lake City","address":"1204 West 600 North","zip":"84116","phone":"+1 801-521-0604","email":"","website":"","hours":"Mo-Fr 08:00-18:00; Sa 08:00-13:00","brand":"","services":["diagnostics","inspection","car_repair"],"shopType":"general_repair"},{"id":"shop-ut-riverton-jiffy-lube","name":"Jiffy Lube","slug":"ut-riverton-jiffy-lube","lat":40.5093421,"lng":-111.9810764,"state":"UT","city":"Riverton","address":"13318 S Market Center Drive","zip":"84065","phone":"+1-801-676-7528","email":"","website":"https://www.jiffylubeutah.com/locations","hours":"Mo-Fr 08:00-18:30; Sa 08:00-17:30; Su 09:00-16:30","brand":"Jiffy Lube","services":["oil_change"],"shopType":"quick_lube"},{"id":"shop-ut-provo-cougar-tire-auto","name":"Cougar Tire & Auto","slug":"ut-provo-cougar-tire-auto","lat":40.2510542,"lng":-111.6566045,"state":"UT","city":"Provo","address":"125 East 1230 North","zip":"84604","phone":"+1 801-374-6240","email":"sales@cougartire.com","website":"https://cougartire.com/","hours":"Mo-Fr 08:00-18:00; Sa-Su off","brand":"","services":["tires"],"shopType":"tire_shop"},{"id":"shop-ut-provo-ray-bradford-automotive","name":"Ray Bradford Automotive","slug":"ut-provo-ray-bradford-automotive","lat":40.2446293,"lng":-111.6461997,"state":"UT","city":"Provo","address":"816 North 700 east","zip":"84606","phone":"+1 801-377-7587","email":"kirkbradford19@icloud.com","website":"","hours":"Mo-Fr 08:00-17:00; Sa-Su off","brand":"","services":["general_repair"],"shopType":"general_repair"},{"id":"shop-ut-salt-lake-city-sapp-bros-service-center","name":"Sapp Bros. Service Center","slug":"ut-salt-lake-city-sapp-bros-service-center","lat":40.7397615,"lng":-111.9452834,"state":"UT","city":"Salt Lake City","address":"1953 West California Avenue","zip":"84104","phone":"+1-801-977-3900","email":"","website":"https://www.sappbros.net/location/salt-lake-city-ut-service-center/","hours":"","brand":"Sapp Bros","services":["truck_repair"],"shopType":"general_repair"},{"id":"shop-ut-logan-cache-valley-autocare","name":"Cache Valley Autocare","slug":"ut-logan-cache-valley-autocare","lat":41.7526191,"lng":-111.8297319,"state":"UT","city":"Logan","address":"1175 North 200 East","zip":"84341","phone":"","email":"","website":"","hours":"","brand":"","services":["general_repair"],"shopType":"general_repair"},{"id":"shop-ut-draper-burt-brothers-tire-service","name":"Burt Brothers Tire & Service","slug":"ut-draper-burt-brothers-tire-service","lat":40.5273578,"lng":-111.883091,"state":"UT","city":"Draper","address":"263 E 12300 South","zip":"84020","phone":"+1-801-438-8198","email":"draper@burtbrothers.com","website":"https://burtbrothers.com/draper","hours":"Mo-Fr 08:00-18:00; Sa 08:00-17:00; Su off","brand":"","services":["tires"],"shopType":"tire_shop"},{"id":"shop-ut-draper-hillside-tire-service","name":"Hillside Tire & Service","slug":"ut-draper-hillside-tire-service","lat":40.5276853,"lng":-111.8881564,"state":"UT","city":"Draper","address":"12241 S State Street","zip":"84020","phone":"+1-801-619-6363","email":"","website":"https://www.hillsidetire.com/","hours":"Mo-Fr 07:00-18:00; Sa 07:00-17:00; Su off","brand":"Goodyear","services":["tires"],"shopType":"tire_shop"},{"id":"shop-ut-pleasant-grove-carter-s-automotive","name":"Carter's Automotive","slug":"ut-pleasant-grove-carter-s-automotive","lat":40.3645187,"lng":-111.7503052,"state":"UT","city":"Pleasant Grove","address":"681 West State Street","zip":"84062","phone":"+1-801-785-3941","email":"","website":"https://www.cartersrepair.com/","hours":"Mo-Fr 08:00-13:00; Sa 08:00-12:00","brand":"","services":["general_repair"],"shopType":"general_repair"},{"id":"shop-ut-pleasant-grove-jake-s-automotive","name":"Jake's Automotive","slug":"ut-pleasant-grove-jake-s-automotive","lat":40.3662684,"lng":-111.7500493,"state":"UT","city":"Pleasant Grove","address":"215 North 600 West","zip":"84062","phone":"+1-801-785-0337","email":"","website":"https://www.jakesautomotiveutah.com/","hours":"Mo-Fr 08:00-17:30","brand":"","services":["general_repair"],"shopType":"general_repair"},{"id":"shop-ut-murray-discount-tire","name":"Discount Tire","slug":"ut-murray-discount-tire","lat":40.6392278,"lng":-111.8356914,"state":"UT","city":"Murray","address":"6180 South Vine Way","zip":"84121","phone":"","email":"","website":"","hours":"","brand":"Discount Tire","services":["tires"],"shopType":"tire_shop"},{"id":"shop-ut-midvale-les-schwab-tire-center","name":"Les Schwab Tire Center","slug":"ut-midvale-les-schwab-tire-center","lat":40.6214158,"lng":-111.8951244,"state":"UT","city":"Midvale","address":"144 West 7200 South","zip":"84047","phone":"","email":"","website":"","hours":"","brand":"Les Schwab","services":["tires"],"shopType":"tire_shop"},{"id":"shop-ut-west-jordan-discount-tire","name":"Discount Tire","slug":"ut-west-jordan-discount-tire","lat":40.6244619,"lng":-111.9374923,"state":"UT","city":"West Jordan","address":"1652 W 7000 South","zip":"84084","phone":"+1-801-561-9560","email":"","website":"https://www.discounttire.com/store/ut/west-jordan/s/1447","hours":"Mo-Fr 08:00-18:00; Sa 08:00-17:00; Su off","brand":"Discount Tire","services":["tires"],"shopType":"tire_shop"},{"id":"shop-ut-american-fork-tire-buster-s-supreme-auto-care","name":"Tire Buster's Supreme Auto Care","slug":"ut-american-fork-tire-buster-s-supreme-auto-care","lat":40.3841357,"lng":-111.8147527,"state":"UT","city":"American Fork","address":"338 North West State Road","zip":"84003","phone":"+1 801 763 9060","email":"","website":"https://www.tirebustersauto.com/","hours":"Mo-Fr 08:00-18:00, Sa 08:00-16:00","brand":"","services":["tires"],"shopType":"tire_shop"},{"id":"shop-ut-american-fork-grease-monkey","name":"Grease Monkey","slug":"ut-american-fork-grease-monkey","lat":40.3793027,"lng":-111.8139987,"state":"UT","city":"American Fork","address":"589 West 130 North","zip":"84003","phone":"+1 801 763 7572","email":"","website":"https://www.greasemonkeyauto.com/locations/us/ut/american-fork/589-130-north","hours":"Mo-Fr 0800:19:00, Sa 08:00-18:00, Su 10:00-16:00","brand":"Grease Monkey","services":["smog_check","emissions","oil_filter_change"],"shopType":"general_repair"},{"id":"shop-ut-salt-lake-city-jiffy-lube-2","name":"Jiffy Lube","slug":"ut-salt-lake-city-jiffy-lube-2","lat":40.7603898,"lng":-111.8676653,"state":"UT","city":"Salt Lake City","address":"804 East 400 South","zip":"84102","phone":"+1-801-355-7803","email":"","website":"https://www.jiffylube.com/locations/ut/salt-lake-city/2038","hours":"","brand":"Jiffy Lube","services":["oil_change"],"shopType":"quick_lube"},{"id":"shop-ut-cedar-city-jiffy-lube","name":"Jiffy Lube","slug":"ut-cedar-city-jiffy-lube","lat":37.6562572,"lng":-113.0845984,"state":"UT","city":"Cedar City","address":"1240 S Sage Drive","zip":"84720","phone":"","email":"","website":"","hours":"","brand":"Jiffy Lube","services":["oil_change"],"shopType":"quick_lube"},{"id":"shop-ut-cedar-city-tek-shine","name":"Tek Shine","slug":"ut-cedar-city-tek-shine","lat":37.6563397,"lng":-113.0840163,"state":"UT","city":"Cedar City","address":"1220 S Sage Drive","zip":"84720","phone":"","email":"","website":"","hours":"","brand":"","services":["general_repair"],"shopType":"general_repair"},{"id":"shop-ut-provo-jiffy-lube-3","name":"Jiffy Lube","slug":"ut-provo-jiffy-lube-3","lat":40.22276,"lng":-111.6591071,"state":"UT","city":"Provo","address":"South University Avenue","zip":"84601","phone":"","email":"","website":"","hours":"","brand":"Jiffy Lube","services":["oil_change"],"shopType":"quick_lube"},{"id":"shop-ut-provo-les-schwab-tire-center","name":"Les Schwab Tire Center","slug":"ut-provo-les-schwab-tire-center","lat":40.2213385,"lng":-111.6570291,"state":"UT","city":"Provo","address":"965 South University Avenue","zip":"84601","phone":"","email":"","website":"https://www.lesschwab.com/","hours":"","brand":"Les Schwab","services":["tires"],"shopType":"tire_shop"},{"id":"shop-ut-provo-auto-performance","name":"Auto Performance","slug":"ut-provo-auto-performance","lat":40.2238335,"lng":-111.658273,"state":"UT","city":"Provo","address":"763 South University Avenue","zip":"84601","phone":"","email":"","website":"","hours":"","brand":"","services":["general_repair"],"shopType":"general_repair"},{"id":"shop-ut-panguitch-paul-s-auto-repair-and-power-sports","name":"Paul's Auto Repair and Power Sports","slug":"ut-panguitch-paul-s-auto-repair-and-power-sports","lat":37.8313136,"lng":-112.4352409,"state":"UT","city":"Panguitch","address":"530 N Main Street","zip":"84759","phone":"+1 435-676-8856","email":"","website":"","hours":"","brand":"","services":["general_repair"],"shopType":"general_repair"},{"id":"shop-ut-murray-les-schwab-tire-center","name":"Les Schwab Tire Center","slug":"ut-murray-les-schwab-tire-center","lat":40.6768293,"lng":-111.8874835,"state":"UT","city":"Murray","address":"4355 South State Street","zip":"84107","phone":"+1-801-288-0660","email":"","website":"https://www.lesschwab.com/stores/ut/murray/4355-s-state-st","hours":"Mo-Fr 08:00-18:00; Sa 08:00-17:00; Su off","brand":"Les Schwab","services":["tires"],"shopType":"tire_shop"},{"id":"shop-ut-west-valley-city-master-muffler-brakes","name":"Master Muffler & Brakes","slug":"ut-west-valley-city-master-muffler-brakes","lat":40.6969321,"lng":-111.9895017,"state":"UT","city":"West Valley City","address":"4118 West 3500 South","zip":"84120","phone":"","email":"","website":"","hours":"","brand":"","services":["exhaust","brakes"],"shopType":"general_repair"},{"id":"shop-ut-west-valley-city-grease-monkey","name":"Grease Monkey","slug":"ut-west-valley-city-grease-monkey","lat":40.6972538,"lng":-111.9393994,"state":"UT","city":"West Valley City","address":"3480 South Redwood Road","zip":"84119","phone":"","email":"","website":"","hours":"","brand":"Grease Monkey","services":["general_repair"],"shopType":"general_repair"},{"id":"shop-ut-west-valley-city-jack-it","name":"Jack-It","slug":"ut-west-valley-city-jack-it","lat":40.6969722,"lng":-111.9407772,"state":"UT","city":"West Valley City","address":"1800 West 3500 South","zip":"84119","phone":"","email":"","website":"","hours":"","brand":"","services":["general_repair"],"shopType":"general_repair"},{"id":"shop-ut-salt-lake-city-emissions-plus","name":"Emissions Plus","slug":"ut-salt-lake-city-emissions-plus","lat":40.7710438,"lng":-111.9387079,"state":"UT","city":"Salt Lake City","address":"1699 West North Temple","zip":"84116","phone":"+1 801-364-0215","email":"","website":"http://emissions-plus.com/","hours":"","brand":"","services":["diagnostics","inspection"],"shopType":"general_repair"},{"id":"shop-ut-panguitch-bob-orton-trucking","name":"Bob Orton Trucking","slug":"ut-panguitch-bob-orton-trucking","lat":37.8223835,"lng":-112.4255469,"state":"UT","city":"Panguitch","address":"550 E Center Street","zip":"84759","phone":"","email":"","website":"","hours":"","brand":"","services":["general_repair"],"shopType":"general_repair"},{"id":"shop-ut-layton-jiffy-lube","name":"Jiffy Lube","slug":"ut-layton-jiffy-lube","lat":41.0635559,"lng":-111.9462915,"state":"UT","city":"Layton","address":"236 North Fairfield Road","zip":"84041","phone":"+1 801-544-5041","email":"","website":"https://www.jiffylube.com/locations/ut/layton/1919","hours":"Mo-Fr 08:00-18:30; Sa 08:00-17:30; Su off","brand":"Jiffy Lube","services":["oil_change"],"shopType":"quick_lube"},{"id":"shop-ut-unknown-cooper-tires","name":"Cooper Tires","slug":"ut-unknown-cooper-tires","lat":40.6665373,"lng":-111.822987,"state":"UT","city":"","address":"4736 South Holladay Boulevard","zip":"","phone":"","email":"","website":"","hours":"","brand":"","services":["tires"],"shopType":"tire_shop"},{"id":"shop-ut-salt-lake-city-burt-brothers-tire-service","name":"Burt Brothers Tire & Service","slug":"ut-salt-lake-city-burt-brothers-tire-service","lat":40.6675771,"lng":-111.839955,"state":"UT","city":"Salt Lake City","address":"4712 South Highland Drive","zip":"84117","phone":"","email":"","website":"https://burtbrothers.com/","hours":"","brand":"","services":["tires"],"shopType":"tire_shop"},{"id":"shop-ut-bountiful-safelite-autoglass","name":"Safelite AutoGlass","slug":"ut-bountiful-safelite-autoglass","lat":40.8833592,"lng":-111.892644,"state":"UT","city":"Bountiful","address":"530 South 500 West","zip":"84010","phone":"","email":"","website":"https://www.safelite.com/stores/bountiful","hours":"Mo-Sa 08:00-17:00","brand":"Safelite AutoGlass","services":["glass"],"shopType":"general_repair"},{"id":"shop-ut-bountiful-jay-s-tire-pros","name":"Jay's Tire Pros","slug":"ut-bountiful-jay-s-tire-pros","lat":40.8826337,"lng":-111.8926977,"state":"UT","city":"Bountiful","address":"620 South 500 West","zip":"84010","phone":"+1 801-397-2707","email":"customercare@jaysaccc.com","website":"https://www.jaystirepros.com/","hours":"Mo-Fr 07:00-18:00; Sa 07:00-16:00","brand":"","services":["tires"],"shopType":"tire_shop"},{"id":"shop-ut-woods-cross-ray-s-muffler","name":"Ray's Muffler","slug":"ut-woods-cross-ray-s-muffler","lat":40.8815676,"lng":-111.8926357,"state":"UT","city":"Woods Cross","address":"792 South 500 West","zip":"84010","phone":"+1 801-292-4731","email":"","website":"https://www.raysmuffler.com/","hours":"Mo-Fr 07:00-18:00","brand":"","services":["exhaust"],"shopType":"general_repair"},{"id":"shop-ut-bountiful-new-image-body-paint","name":"New Image Body & Paint","slug":"ut-bountiful-new-image-body-paint","lat":40.8814849,"lng":-111.8915764,"state":"UT","city":"Bountiful","address":"751 South 500 West","zip":"84010","phone":"+1 801-294-4210","email":"","website":"https://www.newimagebodypaint.com/","hours":"Mo-Fr 08:00-12:00,13:00-17:00","brand":"","services":["body_work"],"shopType":"body_shop"},{"id":"shop-ut-millcreek-quality-emissions","name":"Quality Emissions","slug":"ut-millcreek-quality-emissions","lat":40.6797192,"lng":-111.8878091,"state":"UT","city":"Millcreek","address":"4221 South State Street","zip":"84107","phone":"+1-801-904-2275","email":"","website":"https://qualityemissionandinspection.business.site/","hours":"Mo-Fr 09:00-18:00; Sa 09:00-14:00; Su off","brand":"","services":["inspection"],"shopType":"general_repair"},{"id":"shop-ut-salt-lake-city-hinkley-overlanding","name":"Hinkley Overlanding","slug":"ut-salt-lake-city-hinkley-overlanding","lat":40.6793474,"lng":-111.8874947,"state":"UT","city":"Salt Lake City","address":"4231 South State Street","zip":"84107","phone":"+1-801-484-8883","email":"","website":"https://www.hinckleyautomotive.com/","hours":"","brand":"","services":["general_repair"],"shopType":"general_repair"},{"id":"shop-ut-cottonwood-heights-big-o-tires","name":"Big O Tires","slug":"ut-cottonwood-heights-big-o-tires","lat":40.6235372,"lng":-111.8256303,"state":"UT","city":"Cottonwood Heights","address":"2284 East Fort Union Boulevard","zip":"84121","phone":"","email":"","website":"","hours":"","brand":"Big O Tires","services":["tires"],"shopType":"tire_shop"},{"id":"shop-ut-orem-jiffy-lube","name":"Jiffy Lube","slug":"ut-orem-jiffy-lube","lat":40.3122824,"lng":-111.7021683,"state":"UT","city":"Orem","address":"809 North State Street","zip":"84057","phone":"+1 801-764-9500","email":"","website":"","hours":"Mo-Fr 08:00-18:00; Sa 08:00-17:00; Su off","brand":"Jiffy Lube","services":["oil_change","diagnostics","tires","transmission","brakes","batteries","transmission_repair","tyres"],"shopType":"quick_lube"},{"id":"shop-ut-salt-lake-city-utah-valley-tire-inc","name":"Utah Valley Tire Inc","slug":"ut-salt-lake-city-utah-valley-tire-inc","lat":40.7600329,"lng":-111.877353,"state":"UT","city":"Salt Lake City","address":"420 South 500 East","zip":"84102","phone":"","email":"","website":"","hours":"","brand":"","services":["tires"],"shopType":"tire_shop"},{"id":"shop-ut-riverton-prime-auto-glass","name":"Prime Auto Glass","slug":"ut-riverton-prime-auto-glass","lat":40.522728,"lng":-111.9399304,"state":"UT","city":"Riverton","address":"1754 W 12600 South","zip":"84065","phone":"+1-801-372-9705","email":"primeautoglassriverton@gmail.com","website":"https://primeautoglassutah.com/riverton/","hours":"Mo-Sa 08:00-18:00; Su off","brand":"","services":["glass"],"shopType":"general_repair"},{"id":"shop-ut-unknown-discount-tires","name":"Discount Tires","slug":"ut-unknown-discount-tires","lat":40.5217061,"lng":-111.9372879,"state":"UT","city":"","address":"1643 West 12600 South","zip":"","phone":"+1 801 446-2539","email":"","website":"","hours":"Mo-Fr 08:00-18:00; Sa 08:00-17:00","brand":"Discount Tire","services":["tires"],"shopType":"tire_shop"},{"id":"shop-ut-payson-payson-auto-care","name":"Payson Auto Care","slug":"ut-payson-payson-auto-care","lat":40.0442024,"lng":-111.7293289,"state":"UT","city":"Payson","address":"208 E 100 North","zip":"84651","phone":"","email":"","website":"","hours":"","brand":"","services":["general_repair"],"shopType":"general_repair"},{"id":"shop-ut-riverton-master-muffler","name":"Master Muffler","slug":"ut-riverton-master-muffler","lat":40.5228674,"lng":-111.9497223,"state":"UT","city":"Riverton","address":"2284 W 12600 South","zip":"84065","phone":"+1-801-436-5659","email":"","website":"https://riverton.mastermuffler.net/","hours":"Mo-Fr 08:00-17:00; Sa-Su off","brand":"","services":["exhaust"],"shopType":"general_repair"},{"id":"shop-ut-draper-p-auto-works","name":"P Auto Works","slug":"ut-draper-p-auto-works","lat":40.5270815,"lng":-111.8781703,"state":"UT","city":"Draper","address":"445 12300 South","zip":"","phone":"","email":"","website":"","hours":"","brand":"","services":["general_repair"],"shopType":"general_repair"},{"id":"shop-ut-draper-discount-tire","name":"Discount Tire","slug":"ut-draper-discount-tire","lat":40.5251445,"lng":-111.8883395,"state":"UT","city":"Draper","address":"89 E 12450 South","zip":"84020","phone":"+1-801-619-4791","email":"","website":"https://www.discounttire.com/store/ut/draper/s/1697","hours":"Mo-Fr 08:00-18:00; Sa 08:00-17:00; Su off","brand":"Discount Tire","services":["tires"],"shopType":"tire_shop"},{"id":"shop-ut-draper-safelite-autoglass","name":"Safelite AutoGlass","slug":"ut-draper-safelite-autoglass","lat":40.5270086,"lng":-111.8788422,"state":"UT","city":"Draper","address":"417 12300 South","zip":"","phone":"","email":"","website":"","hours":"","brand":"Safelite AutoGlass","services":["glass"],"shopType":"general_repair"},{"id":"shop-ut-draper-karl-malone-s-body-paint","name":"Karl Malone's Body & Paint","slug":"ut-draper-karl-malone-s-body-paint","lat":40.5417074,"lng":-111.8957547,"state":"UT","city":"Draper","address":"11535 Lone Peak Parkway","zip":"84020","phone":"+1 801 553 5880","email":"","website":"https://www.karlmalonesbodyandpaint.com/","hours":"Mo-Fr 07:00-18:00; Sa 08:00-12:00","brand":"","services":["car_repair","body_work"],"shopType":"general_repair"},{"id":"shop-ut-riverton-fix-auto-riverton","name":"Fix Auto Riverton","slug":"ut-riverton-fix-auto-riverton","lat":40.5227955,"lng":-111.9857552,"state":"UT","city":"Riverton","address":"3978 W 12600 South","zip":"84096","phone":"+1-801-302-9111","email":"","website":"","hours":"Mo-Fr 07:30-17:30; Sa-Su off","brand":"","services":["general_repair"],"shopType":"general_repair"},{"id":"shop-ut-draper-les-schwab-tire-center","name":"Les Schwab Tire Center","slug":"ut-draper-les-schwab-tire-center","lat":40.52744,"lng":-111.8725584,"state":"UT","city":"Draper","address":"653 12300 South","zip":"","phone":"","email":"","website":"","hours":"","brand":"Les Schwab","services":["tires"],"shopType":"tire_shop"},{"id":"shop-ut-sandy-city-hillside-tire","name":"Hillside Tire","slug":"ut-sandy-city-hillside-tire","lat":40.5579586,"lng":-111.8933618,"state":"UT","city":"Sandy City","address":"10651 South Auto Mall Drive","zip":"84070","phone":"","email":"","website":"","hours":"","brand":"","services":["tires"],"shopType":"tire_shop"},{"id":"shop-ut-south-jordan-unique-auto-body","name":"Unique Auto Body","slug":"ut-south-jordan-unique-auto-body","lat":40.5417304,"lng":-111.9379685,"state":"UT","city":"South Jordan","address":"11521 South Redwood Road","zip":"84095","phone":"","email":"","website":"https://uniqueautobody.com/collision-repair-south-jordan/","hours":"","brand":"","services":["body_work"],"shopType":"body_shop"},{"id":"shop-ut-riverton-denny-s-auto","name":"Denny's Auto","slug":"ut-riverton-denny-s-auto","lat":40.5329872,"lng":-111.9382269,"state":"UT","city":"Riverton","address":"11999 South Redwood Road","zip":"84065","phone":"","email":"","website":"","hours":"","brand":"","services":["general_repair"],"shopType":"general_repair"},{"id":"shop-ut-payson-ron-gordon-s-tire-pros","name":"Ron Gordon's Tire Pros","slug":"ut-payson-ron-gordon-s-tire-pros","lat":40.0440576,"lng":-111.7282261,"state":"UT","city":"Payson","address":"318 East 100 North","zip":"84651","phone":"+1-801-465-9935","email":"","website":"","hours":"","brand":"Tire Pros","services":["tires"],"shopType":"tire_shop"},{"id":"shop-ut-payson-autoworks-car-care","name":"AutoWorks Car Care","slug":"ut-payson-autoworks-car-care","lat":40.0440562,"lng":-111.7256676,"state":"UT","city":"Payson","address":"484 East 100 North","zip":"84651","phone":"+1-801-465-9096","email":"","website":"https://autoworkscarcare.com/","hours":"","brand":"","services":["car_repair","electrical","air_conditioning","oil_change","diagnostics","transmission","brakes","wheels","batteries","repairs","inspection","alignment"],"shopType":"general_repair"},{"id":"shop-ut-payson-payson-autobody-glass-llc","name":"Payson Autobody & Glass, LLC.","slug":"ut-payson-payson-autobody-glass-llc","lat":40.0376899,"lng":-111.7342847,"state":"UT","city":"Payson","address":"438 South 100 West","zip":"84651","phone":"+1-801-465-3368","email":"","website":"","hours":"Mo-Fr 08:30-18:00, Sa-Su Closed","brand":"","services":["body_work"],"shopType":"body_shop"},{"id":"shop-ut-layton-jed-s-treads-tires-service","name":"Jed's Treads Tires & Service","slug":"ut-layton-jed-s-treads-tires-service","lat":41.0637209,"lng":-111.970141,"state":"UT","city":"Layton","address":"235 North Main Street","zip":"84041","phone":"+1 801-544-4476","email":"","website":"https://www.napaonline.com/en/autocare/?facilityId=148820","hours":"Mo-Fr 08:00-18:00; Sa 08:00-16:00","brand":"Big O Tires","services":["tires"],"shopType":"tire_shop"},{"id":"shop-ut-murray-master-muffler-and-brake","name":"Master Muffler and Brake","slug":"ut-murray-master-muffler-and-brake","lat":40.6282555,"lng":-111.8904349,"state":"UT","city":"Murray","address":"6790 South State Street","zip":"84107","phone":"","email":"","website":"","hours":"","brand":"","services":["exhaust","brakes"],"shopType":"general_repair"},{"id":"shop-ut-tooele-big-o-tires","name":"Big O Tires","slug":"ut-tooele-big-o-tires","lat":40.5465189,"lng":-112.2988456,"state":"UT","city":"Tooele","address":"855 North Main Street","zip":"84074","phone":"+1-435-243-7344","email":"","website":"","hours":"Mo-Sa 07:30-18:00","brand":"Big O Tires","services":["tires"],"shopType":"tire_shop"},{"id":"shop-ut-eagle-mountain-jiffy-lube","name":"Jiffy Lube","slug":"ut-eagle-mountain-jiffy-lube","lat":40.3624961,"lng":-111.9663617,"state":"UT","city":"Eagle Mountain","address":"4019 East Pony Express Parkway","zip":"84005","phone":"+1 801-789-4166","email":"","website":"","hours":"Mo-Sa 08:00-18:00","brand":"Jiffy Lube","services":["oil_change","batteries","brakes","inspection"],"shopType":"quick_lube"},{"id":"shop-ut-salt-lake-city-jiffy-lube-3","name":"Jiffy Lube","slug":"ut-salt-lake-city-jiffy-lube-3","lat":40.7256507,"lng":-111.8565523,"state":"UT","city":"Salt Lake City","address":"2097 South 1200 East","zip":"84106","phone":"","email":"","website":"","hours":"","brand":"Jiffy Lube","services":["oil_change"],"shopType":"quick_lube"},{"id":"shop-ut-layton-safelite-autoglass","name":"Safelite AutoGlass","slug":"ut-layton-safelite-autoglass","lat":41.0794837,"lng":-111.9887381,"state":"UT","city":"Layton","address":"1357 North Main Street","zip":"84041","phone":"","email":"","website":"https://www.safelite.com/stores/layton","hours":"Mo-Sa 08:00-17:00; Su off","brand":"Safelite AutoGlass","services":["glass"],"shopType":"general_repair"},{"id":"shop-ut-layton-young-chevrolet-body-shop","name":"Young Chevrolet Body Shop","slug":"ut-layton-young-chevrolet-body-shop","lat":41.0678824,"lng":-111.9757638,"state":"UT","city":"Layton","address":"645 N Main Street","zip":"84041","phone":"","email":"","website":"","hours":"","brand":"","services":["body_work","body_repair"],"shopType":"body_shop"},{"id":"shop-ut-layton-discount-tire-2","name":"Discount Tire","slug":"ut-layton-discount-tire-2","lat":41.090248,"lng":-111.9741393,"state":"UT","city":"Layton","address":"2059 North Hill Field Road","zip":"84041","phone":"+1 801-776-2810","email":"","website":"https://www.discounttire.com/store/UT/Layton/s/1413","hours":"Mo-Fr 08:00-18:00; Sa 08:00-17:00","brand":"Discount Tire","services":["tires"],"shopType":"tire_shop"},{"id":"shop-ut-murray-freeway-transmissions-clutches","name":"Freeway Transmissions & Clutches","slug":"ut-murray-freeway-transmissions-clutches","lat":40.632724,"lng":-111.8665291,"state":"UT","city":"Murray","address":"6530 South 900 East","zip":"84121","phone":"","email":"","website":"","hours":"","brand":"","services":["transmission"],"shopType":"transmission_shop"},{"id":"shop-ut-providence-discount-tire","name":"Discount Tire","slug":"ut-providence-discount-tire","lat":41.7060036,"lng":-111.8339969,"state":"UT","city":"Providence","address":"110 South Highway 165","zip":"84332","phone":"","email":"","website":"","hours":"Mo-Fr 08:30-20:00; Sa 08:30-18:00","brand":"Discount Tire","services":["tires"],"shopType":"tire_shop"},{"id":"shop-ut-gunnison-otten-auto-works","name":"Otten Auto Works","slug":"ut-gunnison-otten-auto-works","lat":39.1478727,"lng":-111.8182332,"state":"UT","city":"Gunnison","address":"445 S Main Street","zip":"84043","phone":"","email":"","website":"","hours":"","brand":"","services":["general_repair"],"shopType":"general_repair"},{"id":"shop-ut-holladay-les-schwab-tire-center","name":"Les Schwab Tire Center","slug":"ut-holladay-les-schwab-tire-center","lat":40.6846554,"lng":-111.8437775,"state":"UT","city":"Holladay","address":"4011 South Highland Drive","zip":"84124","phone":"","email":"","website":"","hours":"Mo-Sa 08:00-18:00","brand":"Les Schwab","services":["tires"],"shopType":"tire_shop"},{"id":"shop-ut-unknown-millcreek-automotive","name":"Millcreek Automotive","slug":"ut-unknown-millcreek-automotive","lat":40.6979314,"lng":-111.8496884,"state":"UT","city":"","address":"3385 South Highland Drive","zip":"","phone":"+1 801-484-8311","email":"","website":"","hours":"","brand":"","services":["general_repair"],"shopType":"general_repair"},{"id":"shop-ut-millcreek-emissions-plus","name":"Emissions Plus","slug":"ut-millcreek-emissions-plus","lat":40.6995203,"lng":-111.8510045,"state":"UT","city":"Millcreek","address":"1390 East 3300 South","zip":"84106","phone":"","email":"","website":"","hours":"","brand":"","services":["general_repair"],"shopType":"general_repair"},{"id":"shop-ut-salt-lake-city-big-o-tires-2","name":"Big O Tires","slug":"ut-salt-lake-city-big-o-tires-2","lat":40.7031716,"lng":-111.852273,"state":"UT","city":"Salt Lake City","address":"3120 South Highland Drive","zip":"84106","phone":"","email":"","website":"","hours":"","brand":"Big O Tires","services":["tires"],"shopType":"tire_shop"},{"id":"shop-ut-orem-the-car-doctor","name":"The Car Doctor","slug":"ut-orem-the-car-doctor","lat":40.3040906,"lng":-111.7143312,"state":"UT","city":"Orem","address":"771 West 400 North","zip":"84057","phone":"","email":"","website":"","hours":"","brand":"","services":["general_repair"],"shopType":"general_repair"},{"id":"shop-ut-salt-lake-city-airview-service","name":"Airview Service","slug":"ut-salt-lake-city-airview-service","lat":40.7337393,"lng":-111.8600483,"state":"UT","city":"Salt Lake City","address":"1646 South 1100 East","zip":"84105","phone":"+1 801-484-5807","email":"","website":"https://airviewservice.com/","hours":"Mo-Fr 07:30-19:00","brand":"","services":["inspection","car_repair"],"shopType":"general_repair"},{"id":"shop-ut-hurricane-hurricane-tire-pros","name":"Hurricane Tire Pros","slug":"ut-hurricane-hurricane-tire-pros","lat":37.1769569,"lng":-113.3038727,"state":"UT","city":"Hurricane","address":"848 West State Street","zip":"84737","phone":"+1-435-315-2214","email":"hurricaneaccc@gmail.com","website":"https://www.hurricanetirepros.com/","hours":"Mo-Fr 08:00-18:00; Sa 08:00-16:00; Su off","brand":"","services":["tires"],"shopType":"tire_shop"},{"id":"shop-ut-holladay-techna-glass","name":"Techna Glass","slug":"ut-holladay-techna-glass","lat":40.6663371,"lng":-111.8389939,"state":"UT","city":"Holladay","address":"1851 East Murray Holladay Road","zip":"84117","phone":"","email":"","website":"","hours":"","brand":"","services":["general_repair"],"shopType":"general_repair"},{"id":"shop-ut-salt-lake-city-emissions-clinic","name":"Emissions Clinic","slug":"ut-salt-lake-city-emissions-clinic","lat":40.752286,"lng":-111.899176,"state":"UT","city":"Salt Lake City","address":"775 South 300 West","zip":"84101","phone":"+1 801-410-4544","email":"","website":"","hours":"Mo-Fr 08:30-17:00, Sa 08:30-16:30","brand":"","services":["car_repair","oil_change","tires","inspection","tyres"],"shopType":"general_repair"},{"id":"shop-ut-murray-big-o-tires","name":"Big O Tires","slug":"ut-murray-big-o-tires","lat":40.6397766,"lng":-111.8880707,"state":"UT","city":"Murray","address":"6039 South State Street","zip":"84107","phone":"","email":"","website":"https://www.bigotires.com/location/ut/murray/6039-s-state-st-84107/044268","hours":"","brand":"Big O Tires","services":["tires"],"shopType":"tire_shop"},{"id":"shop-ut-provo-master-autotech","name":"Master Autotech","slug":"ut-provo-master-autotech","lat":40.2332435,"lng":-111.6733297,"state":"UT","city":"Provo","address":"825 West Center Street","zip":"84601","phone":"","email":"","website":"https://masterauto.tech/provo/","hours":"","brand":"","services":["general_repair"],"shopType":"general_repair"},{"id":"shop-ut-salt-lake-city-uptown-service","name":"Uptown Service","slug":"ut-salt-lake-city-uptown-service","lat":40.7250258,"lng":-111.8254077,"state":"UT","city":"Salt Lake City","address":"2276 East 2100 South","zip":"84109","phone":"","email":"","website":"","hours":"","brand":"","services":["general_repair"],"shopType":"general_repair"},{"id":"shop-ut-lehi-les-schwab-tire-center","name":"Les Schwab Tire Center","slug":"ut-lehi-les-schwab-tire-center","lat":40.4312695,"lng":-111.8311136,"state":"UT","city":"Lehi","address":"3451 North 1200 East","zip":"84043","phone":"+1 801-901-1099","email":"","website":"https://www.lesschwab.com/stores/ut/lehi/3451-n-1200-e","hours":"Mo-Fr 08:00-18:00; Sa 08:00-17:00","brand":"Les Schwab","services":["tires"],"shopType":"tire_shop"},{"id":"shop-ut-saratoga-springs-discount-tire","name":"Discount Tire","slug":"ut-saratoga-springs-discount-tire","lat":40.3879252,"lng":-111.9231057,"state":"UT","city":"Saratoga Springs","address":"1413 North Exchange Drive","zip":"84045","phone":"","email":"","website":"","hours":"Mo-Fr 08:00-18:00; Sa 8:00-17:00","brand":"Discount Tire","services":["tires"],"shopType":"tire_shop"},{"id":"shop-ut-draper-grease-monkey","name":"Grease Monkey","slug":"ut-draper-grease-monkey","lat":40.5003509,"lng":-111.8844486,"state":"UT","city":"Draper","address":"214 13800 S","zip":"84020","phone":"+1-801-542-0366","email":"","website":"http://www.greasemonkeydraper805.com","hours":"Mo-Fr 08:00-18:00, Sa 08:00-17:00","brand":"Grease Monkey","services":["oil_change","air_conditioning","tires","brakes","batteries","tyres"],"shopType":"general_repair"},{"id":"shop-ut-logan-les-schwab-tire-center","name":"Les Schwab Tire Center","slug":"ut-logan-les-schwab-tire-center","lat":41.7097285,"lng":-111.8359784,"state":"UT","city":"Logan","address":"36 West 1200 South","zip":"84321","phone":"","email":"","website":"","hours":"Mo-Sa 08:00-18:00","brand":"Les Schwab","services":["tires"],"shopType":"tire_shop"},{"id":"shop-ut-salt-lake-city-caliber-collision","name":"Caliber Collision","slug":"ut-salt-lake-city-caliber-collision","lat":40.7373162,"lng":-111.8877604,"state":"UT","city":"Salt Lake City","address":"1489 South State Street","zip":"84115","phone":"","email":"","website":"","hours":"","brand":"Caliber Collision","services":["body_work"],"shopType":"body_shop"},{"id":"shop-ut-salt-lake-city-master-tech-automotive","name":"Master Tech Automotive","slug":"ut-salt-lake-city-master-tech-automotive","lat":40.7329627,"lng":-111.8874935,"state":"UT","city":"Salt Lake City","address":"1717 South State Street","zip":"84115","phone":"+1 801-485-1212","email":"","website":"https://www.mastertechautomotive.com/","hours":"Mo-Fr 07:30-17:30; Sa, Su off","brand":"","services":["car_repair","electrical","air_conditioning","oil_change","tyres","diagnostics","tires","transmission","brakes","muffler","inspection","transmission_repair","exhaust","alignment"],"shopType":"general_repair"},{"id":"shop-ut-salt-lake-city-jiffy-lube-4","name":"Jiffy Lube","slug":"ut-salt-lake-city-jiffy-lube-4","lat":40.7609774,"lng":-111.8715003,"state":"UT","city":"Salt Lake City","address":"677 East 400 South","zip":"84102","phone":"","email":"","website":"","hours":"","brand":"Jiffy Lube","services":["oil_change"],"shopType":"quick_lube"},{"id":"shop-ut-midvale-unique-auto-body-midvale","name":"Unique Auto Body Midvale","slug":"ut-midvale-unique-auto-body-midvale","lat":40.6109078,"lng":-111.9125614,"state":"UT","city":"Midvale","address":"798 West Center Street","zip":"84047","phone":"+1-801-566-0791","email":"","website":"https://www.uniqueautobody.com/locations/midvale/","hours":"","brand":"","services":["body_work"],"shopType":"body_shop"},{"id":"shop-ut-ogden-jiffy-lube","name":"Jiffy Lube","slug":"ut-ogden-jiffy-lube","lat":41.2446292,"lng":-111.9688058,"state":"UT","city":"Ogden","address":"442 12th Street","zip":"84404","phone":"+1-801-689-2870","email":"","website":"https://www.jiffylube.com/locations/ut/ogden/3778","hours":"","brand":"Jiffy Lube","services":["oil_change"],"shopType":"quick_lube"},{"id":"shop-ut-salt-lake-city-bimmer-motorwerks","name":"Bimmer Motorwerks","slug":"ut-salt-lake-city-bimmer-motorwerks","lat":40.7338003,"lng":-111.8890251,"state":"UT","city":"Salt Lake City","address":"59 East 1700 South","zip":"84115","phone":"+1-801-485-4565","email":"","website":"","hours":"Mo-Fr 08:00-18:00","brand":"","services":["general_repair"],"shopType":"general_repair"},{"id":"shop-ut-salt-lake-city-land-rover-service","name":"Land Rover Service","slug":"ut-salt-lake-city-land-rover-service","lat":40.7337827,"lng":-111.9006181,"state":"UT","city":"Salt Lake City","address":"320 West 1700 South","zip":"84115","phone":"+1-801-503-2683","email":"","website":"","hours":"","brand":"","services":["car_repair"],"shopType":"general_repair"},{"id":"shop-ut-salt-lake-city-jiffy-lube-5","name":"Jiffy Lube","slug":"ut-salt-lake-city-jiffy-lube-5","lat":40.6995911,"lng":-111.8344501,"state":"UT","city":"Salt Lake City","address":"3302 South 2000 East","zip":"84109","phone":"","email":"","website":"","hours":"","brand":"Jiffy Lube","services":["oil_change"],"shopType":"quick_lube"},{"id":"shop-ut-salt-lake-city-big-o-tires-3","name":"Big O Tires","slug":"ut-salt-lake-city-big-o-tires-3","lat":40.6995219,"lng":-111.8336904,"state":"UT","city":"Salt Lake City","address":"2002 East 3300 South","zip":"84109","phone":"","email":"","website":"","hours":"","brand":"Big O Tires","services":["tires"],"shopType":"tire_shop"},{"id":"shop-ut-salt-lake-city-steve-s-automotive-specialists","name":"Steve's Automotive Specialists","slug":"ut-salt-lake-city-steve-s-automotive-specialists","lat":40.7104544,"lng":-111.824038,"state":"UT","city":"Salt Lake City","address":"2809 South 2300 East","zip":"84109","phone":"+1 801 466 2886","email":"","website":"https://stevesautomotivespecialists.com/","hours":"Mo-Fr 07:30-17:30","brand":"","services":["general_repair"],"shopType":"general_repair"},{"id":"shop-ut-salt-lake-city-fulton-automotive","name":"Fulton Automotive","slug":"ut-salt-lake-city-fulton-automotive","lat":40.7001581,"lng":-111.8138825,"state":"UT","city":"Salt Lake City","address":"2755 East 3300 South","zip":"84109","phone":"+1-801-935-4572","email":"","website":"https://fultonautomotive.com/","hours":"Mo-Fr 08:00-18:00; Sa 08:00-17:00; Su off","brand":"","services":["general_repair"],"shopType":"general_repair"},{"id":"shop-ut-salt-lake-city-addictive-behavior-motor-works","name":"Addictive Behavior Motor Works","slug":"ut-salt-lake-city-addictive-behavior-motor-works","lat":40.7592206,"lng":-111.9060869,"state":"UT","city":"Salt Lake City","address":"454 South 500 West","zip":"84101","phone":"+1 801-839-3999","email":"","website":"https://www.abmotorworks.com/","hours":"","brand":"","services":["general_repair"],"shopType":"general_repair"},{"id":"shop-ut-salt-lake-city-mr-muffler","name":"Mr Muffler","slug":"ut-salt-lake-city-mr-muffler","lat":40.7251498,"lng":-111.8942507,"state":"UT","city":"Salt Lake City","address":"105 West 2100 South","zip":"84115","phone":"","email":"","website":"","hours":"Mo-Fr 08:00-17:00","brand":"","services":["exhaust"],"shopType":"general_repair"},{"id":"shop-ut-salt-lake-city-jiffy-lube-6","name":"Jiffy Lube","slug":"ut-salt-lake-city-jiffy-lube-6","lat":40.725196,"lng":-111.8914586,"state":"UT","city":"Salt Lake City","address":"2102 South Main Street","zip":"84115","phone":"+1-801-467-1861","email":"","website":"https://www.jiffylube.com/locations/ut/salt-lake-city/2026","hours":"Mo-Fr 08:00-18:00; Sa 08:00-17:00; Su 09:00-16:00","brand":"Jiffy Lube","services":["oil_change"],"shopType":"quick_lube"},{"id":"shop-ut-salt-lake-city-168-auto-repair","name":"168 Auto Repair","slug":"ut-salt-lake-city-168-auto-repair","lat":40.7251684,"lng":-111.8930323,"state":"UT","city":"Salt Lake City","address":"61 West 2100 South","zip":"84115","phone":"","email":"","website":"","hours":"","brand":"","services":["general_repair"],"shopType":"general_repair"},{"id":"shop-ut-salt-lake-city-technaglass","name":"TechnaGlass","slug":"ut-salt-lake-city-technaglass","lat":40.7188998,"lng":-111.8886813,"state":"UT","city":"Salt Lake City","address":"2390 South State Street","zip":"84115","phone":"","email":"","website":"","hours":"","brand":"","services":["general_repair"],"shopType":"general_repair"},{"id":"shop-ut-south-salt-lake-k-c-cars","name":"K C Cars","slug":"ut-south-salt-lake-k-c-cars","lat":40.7002517,"lng":-111.8794937,"state":"UT","city":"South Salt Lake","address":"407 East 3300 South","zip":"84115","phone":"","email":"","website":"","hours":"","brand":"","services":["general_repair"],"shopType":"general_repair"},{"id":"shop-ut-salt-lake-city-jiffy-lube-7","name":"Jiffy Lube","slug":"ut-salt-lake-city-jiffy-lube-7","lat":40.6995238,"lng":-111.8914772,"state":"UT","city":"Salt Lake City","address":"3300 South Main Street","zip":"84115","phone":"","email":"","website":"","hours":"","brand":"Jiffy Lube","services":["oil_change"],"shopType":"quick_lube"},{"id":"shop-ut-taylorsville-les-schwab-tire-center","name":"Les Schwab Tire Center","slug":"ut-taylorsville-les-schwab-tire-center","lat":40.6525483,"lng":-111.9683553,"state":"UT","city":"Taylorsville","address":"3235 West 5400 South","zip":"84129","phone":"","email":"","website":"","hours":"","brand":"Les Schwab","services":["tires"],"shopType":"tire_shop"},{"id":"shop-ut-cottonwood-heights-hillside-tire","name":"Hillside Tire","slug":"ut-cottonwood-heights-hillside-tire","lat":40.6243497,"lng":-111.8260299,"state":"UT","city":"Cottonwood Heights","address":"2255 East Fort Union Boulevard","zip":"84121","phone":"","email":"","website":"","hours":"","brand":"","services":["tires"],"shopType":"tire_shop"},{"id":"shop-ut-salt-lake-city-j-s-auto-service","name":"J & S Auto Service","slug":"ut-salt-lake-city-j-s-auto-service","lat":40.7913908,"lng":-111.9309755,"state":"UT","city":"Salt Lake City","address":"1376 West 1000 North","zip":"84116","phone":"+1-801-355-5573","email":"","website":"","hours":"","brand":"","services":["general_repair"],"shopType":"general_repair"},{"id":"shop-ut-provo-jimmy-s-love-bug-service","name":"Jimmy's Love Bug Service","slug":"ut-provo-jimmy-s-love-bug-service","lat":40.2301754,"lng":-111.6625642,"state":"UT","city":"Provo","address":"222 West 300 South","zip":"84601","phone":"","email":"","website":"","hours":"","brand":"","services":["general_repair"],"shopType":"general_repair"},{"id":"shop-ut-provo-japanese-auto-repair","name":"Japanese Auto Repair","slug":"ut-provo-japanese-auto-repair","lat":40.2294796,"lng":-111.6629028,"state":"UT","city":"Provo","address":"235 West 300 South","zip":"84601","phone":"","email":"","website":"","hours":"","brand":"","services":["general_repair"],"shopType":"general_repair"},{"id":"shop-ut-provo-edgemont-auto-services","name":"Edgemont Auto Services","slug":"ut-provo-edgemont-auto-services","lat":40.2300104,"lng":-111.6601667,"state":"UT","city":"Provo","address":"92;100 West 300 South","zip":"84601","phone":"","email":"","website":"","hours":"","brand":"","services":["general_repair"],"shopType":"general_repair"},{"id":"shop-ut-murray-larry-h-miller-collision-center","name":"Larry H. Miller Collision Center","slug":"ut-murray-larry-h-miller-collision-center","lat":40.647138,"lng":-111.8880029,"state":"UT","city":"Murray","address":"5749 South State Street","zip":"84107","phone":"","email":"","website":"","hours":"","brand":"","services":["body_work"],"shopType":"body_shop"},{"id":"shop-ut-cedar-city-midtown-tire-auto","name":"Midtown Tire & Auto","slug":"ut-cedar-city-midtown-tire-auto","lat":37.669463,"lng":-113.0612275,"state":"UT","city":"Cedar City","address":"433 S Main Street","zip":"84720","phone":"+1 435-586-0460","email":"","website":"","hours":"","brand":"","services":["tires"],"shopType":"tire_shop"},{"id":"shop-ut-cedar-city-jiffy-lube-2","name":"Jiffy Lube","slug":"ut-cedar-city-jiffy-lube-2","lat":37.6648548,"lng":-113.0650261,"state":"UT","city":"Cedar City","address":"707 S Main Street","zip":"84720","phone":"","email":"","website":"","hours":"","brand":"Jiffy Lube","services":["oil_change"],"shopType":"quick_lube"},{"id":"shop-ut-cedar-city-big-o-tires","name":"Big O Tires","slug":"ut-cedar-city-big-o-tires","lat":37.6645305,"lng":-113.0653545,"state":"UT","city":"Cedar City","address":"721 S Main Street","zip":"84720","phone":"","email":"","website":"","hours":"","brand":"Big O Tires","services":["tires"],"shopType":"tire_shop"},{"id":"shop-ut-murray-precision-tune-auto-care","name":"Precision Tune Auto Care","slug":"ut-murray-precision-tune-auto-care","lat":40.6441131,"lng":-111.888368,"state":"UT","city":"Murray","address":"5851 South State Street","zip":"84107","phone":"+1 801-747-0145","email":"","website":"","hours":"Mo-Fr 08:00-18:00; Sa 08:00-17:00","brand":"Precision Tune Auto Care","services":["general_repair"],"shopType":"general_repair"},{"id":"shop-ut-murray-murray-car-care-center","name":"Murray Car Care Center","slug":"ut-murray-murray-car-care-center","lat":40.6446198,"lng":-111.8884329,"state":"UT","city":"Murray","address":"5815 South State Street","zip":"84107","phone":"","email":"","website":"","hours":"Mo-Fr 08:00-18:00; Sa 08:00-15:00","brand":"","services":["general_repair"],"shopType":"general_repair"},{"id":"shop-ut-west-jordan-carbmaster","name":"Carbmaster","slug":"ut-west-jordan-carbmaster","lat":40.5982933,"lng":-111.9727337,"state":"UT","city":"West Jordan","address":"8409 W Old Bingham Highway","zip":"84088","phone":"+1-801-280-1011","email":"","website":"https://www.carbmaster.com/","hours":"","brand":"","services":["general_repair"],"shopType":"general_repair"},{"id":"shop-ut-west-jordan-ace-auto","name":"Ace Auto","slug":"ut-west-jordan-ace-auto","lat":40.598372,"lng":-111.9724791,"state":"UT","city":"West Jordan","address":"3399 W 8395 South","zip":"84088","phone":"+1-801-803-6016","email":"","website":"https://aceautoutah.com/","hours":"Su-Mo off; Tu-Sa 09:00-18:00","brand":"Acura;Buick;Cadillac;Chevrolet;Chrysler;Dodge;Ford;GMC;Honda;Hyundai;Jeep;Kia;Lexus;Lincoln;Mazda;Mitsubishi;Nissan;Subaru;Toyota;Volkswagen","services":["general_repair"],"shopType":"general_repair"},{"id":"shop-ut-herriman-les-schwab-tire-center","name":"Les Schwab Tire Center","slug":"ut-herriman-les-schwab-tire-center","lat":40.5361306,"lng":-112.0161077,"state":"UT","city":"Herriman","address":"5232 Anthem Peak Lane","zip":"84096","phone":"","email":"","website":"","hours":"","brand":"Les Schwab","services":["tires"],"shopType":"tire_shop"},{"id":"shop-ut-riverton-big-o-tires","name":"Big O Tires","slug":"ut-riverton-big-o-tires","lat":40.5219812,"lng":-112.0026798,"state":"UT","city":"Riverton","address":"4689 W 12600 South","zip":"84065","phone":"","email":"","website":"","hours":"","brand":"Big O Tires","services":["tires"],"shopType":"tire_shop"},{"id":"shop-ut-taylorsville-jones-complete-car-care","name":"Jones Complete Car Care","slug":"ut-taylorsville-jones-complete-car-care","lat":40.6662415,"lng":-111.9393082,"state":"UT","city":"Taylorsville","address":"4752 South Redwood Road","zip":"84123","phone":"","email":"","website":"","hours":"","brand":"","services":["general_repair"],"shopType":"general_repair"},{"id":"shop-ut-syracuse-pearson-auto","name":"Pearson Auto","slug":"ut-syracuse-pearson-auto","lat":41.089342,"lng":-112.0566246,"state":"UT","city":"Syracuse","address":"1586 West 1700 South","zip":"84075","phone":"","email":"","website":"","hours":"","brand":"","services":["general_repair"],"shopType":"general_repair"},{"id":"shop-ut-orem-westside-auto-repair","name":"Westside Auto Repair","slug":"ut-orem-westside-auto-repair","lat":40.2895063,"lng":-111.7293542,"state":"UT","city":"Orem","address":"1401 West 400 South","zip":"84058","phone":"","email":"","website":"","hours":"","brand":"","services":["general_repair"],"shopType":"general_repair"},{"id":"shop-ut-taylorsville-my-tire-place-llc","name":"My Tire Place LLC","slug":"ut-taylorsville-my-tire-place-llc","lat":40.6647099,"lng":-111.9392568,"state":"UT","city":"Taylorsville","address":"4804 South Redwood Road","zip":"84123","phone":"","email":"","website":"","hours":"","brand":"","services":["tires","oil_change","tyres"],"shopType":"general_repair"},{"id":"shop-ut-west-valley-city-tunex","name":"Tunex","slug":"ut-west-valley-city-tunex","lat":40.6954414,"lng":-112.0242941,"state":"UT","city":"West Valley City","address":"3543 South 5600 West","zip":"84120","phone":"","email":"","website":"","hours":"","brand":"","services":["general_repair"],"shopType":"general_repair"},{"id":"shop-ut-west-valley-city-big-o-tires","name":"Big O Tires","slug":"ut-west-valley-city-big-o-tires","lat":40.695208,"lng":-112.0241503,"state":"UT","city":"West Valley City","address":"3557 South 5600 West","zip":"84120","phone":"","email":"","website":"","hours":"","brand":"Big O Tires","services":["tires"],"shopType":"tire_shop"},{"id":"shop-ut-riverdale-jiffy-lube","name":"Jiffy Lube","slug":"ut-riverdale-jiffy-lube","lat":41.1767148,"lng":-112.0013273,"state":"UT","city":"Riverdale","address":"913 West Riverdale Road","zip":"","phone":"","email":"","website":"https://www.jiffylube.com/locations/ut/riverdale/3423","hours":"","brand":"Jiffy Lube","services":["oil_change"],"shopType":"quick_lube"},{"id":"shop-ut-brigham-city-big-o-tires","name":"Big O Tires","slug":"ut-brigham-city-big-o-tires","lat":41.5034779,"lng":-112.0163613,"state":"UT","city":"Brigham City","address":"390 South Main Street","zip":"84302","phone":"","email":"","website":"","hours":"","brand":"Big O Tires","services":["tires"],"shopType":"tire_shop"},{"id":"shop-ut-salt-lake-city-discount-tire","name":"Discount Tire","slug":"ut-salt-lake-city-discount-tire","lat":40.7212339,"lng":-111.8876906,"state":"UT","city":"Salt Lake City","address":"2269 South State Street","zip":"84115","phone":"+1-801-487-1797","email":"","website":"https://www.discounttire.com/store/ut/salt-lake-city/s/1256?y_source=1_NjI4MDcwLTcxNS1sb2NhdGlvbi53ZWJzaXRl","hours":"","brand":"Discount Tire","services":["tires"],"shopType":"tire_shop"},{"id":"shop-ut-syracuse-jer-s-elite-auto","name":"Jer's Elite Auto","slug":"ut-syracuse-jer-s-elite-auto","lat":41.1100243,"lng":-112.0536106,"state":"UT","city":"Syracuse","address":"1448 West 300 South","zip":"84075","phone":"","email":"","website":"","hours":"Mo-Fr 08:00-18:00","brand":"","services":["general_repair"],"shopType":"general_repair"},{"id":"shop-ut-new-harmony-blackridge-service","name":"Blackridge Service","slug":"ut-new-harmony-blackridge-service","lat":37.4812752,"lng":-113.2226666,"state":"UT","city":"New Harmony","address":"3802 East Highway 144","zip":"84757","phone":"+1-435-218-1767","email":"","website":"https://www.blackridgeservice.net","hours":"","brand":"","services":["general_repair"],"shopType":"general_repair"},{"id":"shop-ut-logan-jiffy-lube-2","name":"Jiffy Lube","slug":"ut-logan-jiffy-lube-2","lat":41.757141,"lng":-111.8335802,"state":"UT","city":"Logan","address":"30 East 1400 North","zip":"84341","phone":"","email":"","website":"","hours":"","brand":"Jiffy Lube","services":["oil_change"],"shopType":"quick_lube"},{"id":"shop-ut-stansbury-park-grease-monkey","name":"Grease Monkey","slug":"ut-stansbury-park-grease-monkey","lat":40.6499817,"lng":-112.2893345,"state":"UT","city":"Stansbury Park","address":"6663 North State Route 36","zip":"84074","phone":"+1 435-255-1720","email":"","website":"https://www.greasemonkey.com/locations/ut/stansbury-park/6663-utah-36/","hours":"Mo-Fr 08:00-18:00; Sa 08:00-17:00","brand":"Grease Monkey","services":["general_repair"],"shopType":"general_repair"},{"id":"shop-ut-west-valley-city-grease-monkey-2","name":"Grease Monkey","slug":"ut-west-valley-city-grease-monkey-2","lat":40.7068719,"lng":-112.0263007,"state":"UT","city":"West Valley City","address":"2928 South Glen Eagle Drive","zip":"84128","phone":"+1-801-969-0094","email":"","website":"https://www.greasemonkeyauto.com/locations/us/ut/west-valley-city/2928-south-glen-eagle-dr","hours":"Mo-Fr 08:00-19:00; Sa 08:00-18:00; Su off","brand":"Grease Monkey","services":["general_repair"],"shopType":"general_repair"},{"id":"shop-ut-bountiful-burt-brothers","name":"Burt Brothers","slug":"ut-bountiful-burt-brothers","lat":40.8585784,"lng":-111.8980796,"state":"UT","city":"Bountiful","address":"2885 South Highway 89","zip":"84010","phone":"+1 801-299-1142","email":"bountiful@burtbrothers.com","website":"https://burtbrothers.com/bountiful","hours":"","brand":"","services":["oil_change","air_conditioning","diagnostics","tires","brakes","inspection","tyres"],"shopType":"general_repair"},{"id":"shop-ut-murray-discount-tire-2","name":"Discount Tire","slug":"ut-murray-discount-tire-2","lat":40.6737939,"lng":-111.8873983,"state":"UT","city":"Murray","address":"120 East 4500 South","zip":"84107","phone":"","email":"","website":"https://www.discounttire.com/store/ut/murray/s/1401","hours":"","brand":"Discount Tire","services":["tires"],"shopType":"tire_shop"},{"id":"shop-ut-west-jordan-take-5-oil-change","name":"Take 5 Oil Change","slug":"ut-west-jordan-take-5-oil-change","lat":40.5880224,"lng":-111.9391199,"state":"UT","city":"West Jordan","address":"8980 S Redwood Road","zip":"84088","phone":"","email":"","website":"","hours":"","brand":"Take 5","services":["oil_change"],"shopType":"quick_lube"},