[{"id":"shop-va-alexandria-duke-street-liberty","name":"Duke Street Liberty","slug":"va-alexandria-duke-street-liberty","lat":38.8126769,"lng":-77.1258168,"state":"VA","city":"Alexandria","address":"5412 Duke Street","zip":"22304","phone":"","email":"","website":"","hours":"","brand":"Liberty","services":["diesel"],"shopType":"general_repair"},{"id":"shop-va-springfield-capitol-auto-repair","name":"Capitol Auto Repair","slug":"va-springfield-capitol-auto-repair","lat":38.8088723,"lng":-77.2209533,"state":"VA","city":"Springfield","address":"7649 Fullerton Road","zip":"22153","phone":"","email":"","website":"","hours":"","brand":"","services":["general_repair"],"shopType":"general_repair"},{"id":"shop-va-fairfax-ourisman-fairfax-toyota-service-and-parts","name":"Ourisman Fairfax Toyota Service and Parts","slug":"va-fairfax-ourisman-fairfax-toyota-service-and-parts","lat":38.8579793,"lng":-77.305608,"state":"VA","city":"Fairfax","address":"10441 Fairfax Boulevard","zip":"22030","phone":"+1 703 359 2955","email":"","website":"https://www.ourismanfairfaxtoyota.com/","hours":"","brand":"","services":["general_repair"],"shopType":"general_repair"},{"id":"shop-va-blacksburg-jiffy-lube-multicare","name":"Jiffy Lube Multicare","slug":"va-blacksburg-jiffy-lube-multicare","lat":37.2463987,"lng":-80.4144945,"state":"VA","city":"Blacksburg","address":"1402 North Main Street","zip":"","phone":"","email":"","website":"","hours":"","brand":"Jiffy Lube","services":["oil_change"],"shopType":"quick_lube"},{"id":"shop-va-leesburg-the-tire-shop","name":"The Tire Shop","slug":"va-leesburg-the-tire-shop","lat":39.1124703,"lng":-77.539243,"state":"VA","city":"Leesburg","address":"925 Edwards Ferry Road","zip":"20176","phone":"","email":"","website":"https://thetireshop.net/index.htm","hours":"","brand":"","services":["tires"],"shopType":"tire_shop"},{"id":"shop-va-lorton-metro-automotive-repair-service","name":"Metro Automotive Repair Service","slug":"va-lorton-metro-automotive-repair-service","lat":38.7321919,"lng":-77.1882182,"state":"VA","city":"Lorton","address":"8249 Backlick Road","zip":"22079","phone":"+1 703-550-1219","email":"","website":"https://www.metroautova.com/","hours":"","brand":"","services":["car_repair","brakes","oil_change"],"shopType":"general_repair"},{"id":"shop-va-burke-mr-tire","name":"Mr. Tire","slug":"va-burke-mr-tire","lat":38.801076,"lng":-77.326232,"state":"VA","city":"Burke","address":"5624 Ox Road","zip":"22039","phone":"","email":"","website":"","hours":"","brand":"Mr. Tire","services":["tires"],"shopType":"tire_shop"},{"id":"shop-va-reston-merchant-s-tire","name":"Merchant's Tire","slug":"va-reston-merchant-s-tire","lat":38.9670601,"lng":-77.3554183,"state":"VA","city":"Reston","address":"11800 Baron Cameron Road","zip":"20190","phone":"","email":"","website":"https://www.merchantstire.com/","hours":"","brand":"Merchant's","services":["tires"],"shopType":"tire_shop"},{"id":"shop-va-leesburg-hogan-and-sons-tire-auto","name":"Hogan and Sons Tire & Auto","slug":"va-leesburg-hogan-and-sons-tire-auto","lat":39.1126669,"lng":-77.5585775,"state":"VA","city":"Leesburg","address":"314 East Market Street","zip":"20176","phone":"+1 703-777-4055","email":"","website":"https://hoganandsonsinc.com","hours":"Mo-Sa 07:30-18:00; Su off","brand":"Goodyear","services":["tires"],"shopType":"tire_shop"},{"id":"shop-va-leesburg-hpf-automotive","name":"HPF Automotive","slug":"va-leesburg-hpf-automotive","lat":39.1041974,"lng":-77.5709465,"state":"VA","city":"Leesburg","address":"809 South King Street","zip":"20175","phone":"","email":"","website":"","hours":"","brand":"","services":["general_repair"],"shopType":"general_repair"},{"id":"shop-va-alexandria-jc-new-used-tires","name":"JC New & Used Tires","slug":"va-alexandria-jc-new-used-tires","lat":38.8332215,"lng":-77.0516594,"state":"VA","city":"Alexandria","address":"Evans Ln","zip":"22305","phone":"","email":"","website":"","hours":"","brand":"","services":["tires"],"shopType":"tire_shop"},{"id":"shop-va-burke-ntb","name":"NTB","slug":"va-burke-ntb","lat":38.795772,"lng":-77.2728777,"state":"VA","city":"Burke","address":"9568 Burke Road","zip":"22015","phone":"","email":"","website":"https://www.ntb.com/store/va/burke/9568-burke-rd-22015/4528","hours":"","brand":"NTB","services":["tires"],"shopType":"general_repair"},{"id":"shop-va-springfield-national-tire-and-battery","name":"National Tire and Battery","slug":"va-springfield-national-tire-and-battery","lat":38.7808336,"lng":-77.234948,"state":"VA","city":"Springfield","address":"6230 Rolling Road","zip":"22152","phone":"","email":"","website":"https://www.ntb.com/store/va/springfield/6230-rolling-rd-22152/4575","hours":"","brand":"NTB","services":["tires"],"shopType":"tire_shop"},{"id":"shop-va-blackstone-rick-s-auto-service","name":"Rick's Auto Service","slug":"va-blackstone-rick-s-auto-service","lat":37.068563,"lng":-78.0032731,"state":"VA","city":"Blackstone","address":"","zip":"","phone":"","email":"","website":"","hours":"","brand":"","services":["general_repair"],"shopType":"general_repair"},{"id":"shop-va-gainesville-curry-s-auto-service","name":"Curry's Auto Service","slug":"va-gainesville-curry-s-auto-service","lat":38.793357,"lng":-77.592628,"state":"VA","city":"Gainesville","address":"5611 Wellington Road","zip":"20155","phone":"+1 703-753-1650","email":"gainseville@currysauto.com","website":"http://www.currysauto.com","hours":"Mo-Fr 07:00-19:30; Sa 08:00-16:00","brand":"","services":["general_repair"],"shopType":"general_repair"},{"id":"shop-va-warrenton-broadview-automotive","name":"Broadview Automotive","slug":"va-warrenton-broadview-automotive","lat":38.6227273,"lng":-77.8000443,"state":"VA","city":"Warrenton","address":"10049 James Madison Highway","zip":"20187","phone":"+1 540-439-3737","email":"","website":"https://www.broadviewautomotiveva.com/","hours":"","brand":"","services":["general_repair"],"shopType":"general_repair"},{"id":"shop-va-reston-firestone","name":"Firestone","slug":"va-reston-firestone","lat":39.0124054,"lng":-77.3721309,"state":"VA","city":"Reston","address":"12304 Towncenter Plaza","zip":"","phone":"","email":"","website":"https://local.firestonecompleteautocare.com/virginia/sterling/21800-towncenter-plaza/","hours":"","brand":"Firestone","services":["general_repair"],"shopType":"general_repair"},{"id":"shop-va-manassas-monro-muffler-break-service","name":"Monro Muffler Break & Service","slug":"va-manassas-monro-muffler-break-service","lat":38.7735305,"lng":-77.4994362,"state":"VA","city":"Manassas","address":"8443 Sudley Road","zip":"20109","phone":"","email":"","website":"","hours":"","brand":"Monro","services":["exhaust","brakes"],"shopType":"general_repair"},{"id":"shop-va-fairfax-county-volkswagen-springfield-parts-divison","name":"Volkswagen Springfield - Parts Divison","slug":"va-fairfax-county-volkswagen-springfield-parts-divison","lat":38.7755077,"lng":-77.1830002,"state":"VA","city":"Fairfax County","address":"6601 Backlick Road","zip":"22150","phone":"","email":"","website":"https://www.sheehyspringfieldvw.com/","hours":"","brand":"Volkswagen","services":["general_repair"],"shopType":"general_repair"},{"id":"shop-va-alexandria-liberty","name":"Liberty","slug":"va-alexandria-liberty","lat":38.7542272,"lng":-77.0829721,"state":"VA","city":"Alexandria","address":"7501 Richmond Highway","zip":"22306","phone":"+1 703-768-6333","email":"","website":"","hours":"","brand":"Liberty","services":["diesel"],"shopType":"general_repair"},{"id":"shop-va-alexandria-woodlawn-auto-center-inc","name":"Woodlawn Auto Center Inc","slug":"va-alexandria-woodlawn-auto-center-inc","lat":38.7162585,"lng":-77.1317379,"state":"VA","city":"Alexandria","address":"5634 Mount Vernon Memorial Highway","zip":"22309","phone":"","email":"","website":"https://www.clarkbrands.com/","hours":"","brand":"","services":["general_repair"],"shopType":"general_repair"},{"id":"shop-va-falls-church-liberty","name":"Liberty","slug":"va-falls-church-liberty","lat":38.8551181,"lng":-77.137368,"state":"VA","city":"Falls Church","address":"5930 Leesburg Pike","zip":"22041","phone":"","email":"","website":"","hours":"Mo-Fr 08:30-18:00; Sa 08:30-15:00","brand":"Liberty","services":["general_repair"],"shopType":"general_repair"},{"id":"shop-va-newport-news-colony-tire","name":"Colony Tire","slug":"va-newport-news-colony-tire","lat":37.1049515,"lng":-76.502258,"state":"VA","city":"Newport News","address":"508 Oyster Point Road","zip":"23602","phone":"+1-757-249-4068","email":"","website":"","hours":"","brand":"","services":["tires"],"shopType":"tire_shop"},{"id":"shop-va-newport-news-sprinkle-and-williams","name":"Sprinkle And Williams","slug":"va-newport-news-sprinkle-and-williams","lat":37.0793371,"lng":-76.4969625,"state":"VA","city":"Newport News","address":"","zip":"","phone":"","email":"","website":"","hours":"","brand":"","services":["general_repair"],"shopType":"general_repair"},{"id":"shop-va-poquoson-poquoson-auto-repair","name":"Poquoson Auto Repair","slug":"va-poquoson-poquoson-auto-repair","lat":37.11968,"lng":-76.3927291,"state":"VA","city":"Poquoson","address":"365 Wythe Creek Road","zip":"23662","phone":"","email":"","website":"","hours":"","brand":"","services":["general_repair"],"shopType":"general_repair"},{"id":"shop-va-sterling-zaf-s-auto-repair","name":"Zaf's Auto Repair","slug":"va-sterling-zaf-s-auto-repair","lat":38.9845731,"lng":-77.451336,"state":"VA","city":"Sterling","address":"","zip":"","phone":"+1 703-689-2711","email":"","website":"","hours":"","brand":"","services":["general_repair"],"shopType":"general_repair"},{"id":"shop-va-henrico-county-glass-america-auto-glass","name":"Glass America Auto Glass","slug":"va-henrico-county-glass-america-auto-glass","lat":37.5953643,"lng":-77.5095496,"state":"VA","city":"Henrico County","address":"","zip":"","phone":"","email":"","website":"","hours":"","brand":"","services":["general_repair"],"shopType":"general_repair"},{"id":"shop-va-roanoke-priority-honda-service-center","name":"Priority Honda Service Center","slug":"va-roanoke-priority-honda-service-center","lat":37.3208958,"lng":-79.9966623,"state":"VA","city":"Roanoke","address":"3311 Peters Creek Road Northwest","zip":"24019","phone":"","email":"","website":"https://www.priorityhondaroanoke.com/","hours":"","brand":"Honda","services":["general_repair"],"shopType":"general_repair"},{"id":"shop-va-roanoke-jiffy-lube","name":"Jiffy Lube","slug":"va-roanoke-jiffy-lube","lat":37.3032367,"lng":-80.006657,"state":"VA","city":"Roanoke","address":"1477 Peters Creek Road Northwest","zip":"24017","phone":"","email":"","website":"","hours":"","brand":"Jiffy Lube","services":["oil_change"],"shopType":"quick_lube"},{"id":"shop-va-christiansburg-ntb","name":"NTB","slug":"va-christiansburg-ntb","lat":37.1616231,"lng":-80.4314189,"state":"VA","city":"Christiansburg","address":"400 Peppers Ferry Road Northwest","zip":"24073","phone":"","email":"","website":"https://www.ntb.com/store/va/christiansburg/400-peppers-fry-rd-nw-24073/4537","hours":"","brand":"NTB","services":["tires"],"shopType":"general_repair"},{"id":"shop-va-south-riding-hogan-and-sons-tire-and-auto","name":"Hogan and Sons Tire and Auto","slug":"va-south-riding-hogan-and-sons-tire-and-auto","lat":38.9233829,"lng":-77.5093169,"state":"VA","city":"South Riding","address":"43180 Amberwood Place","zip":"20152","phone":"","email":"","website":"https://hoganandsonsinc.com/MyInstallers/view/7/South%20Riding-VA","hours":"","brand":"","services":["tires"],"shopType":"tire_shop"},{"id":"shop-va-virginia-beach-jiffy-lube-4","name":"Jiffy Lube","slug":"va-virginia-beach-jiffy-lube-4","lat":36.8497787,"lng":-76.1790192,"state":"VA","city":"Virginia Beach","address":"","zip":"","phone":"","email":"","website":"","hours":"","brand":"Jiffy Lube","services":["oil_change"],"shopType":"quick_lube"},{"id":"shop-va-hanover-county-hanover-auto-service","name":"Hanover Auto Service","slug":"va-hanover-county-hanover-auto-service","lat":37.7047183,"lng":-77.4649051,"state":"VA","city":"Hanover County","address":"11090 Washington Highway","zip":"23059","phone":"","email":"","website":"","hours":"Mo-Fr 08:00-17:00","brand":"","services":["general_repair"],"shopType":"general_repair"},{"id":"shop-va-hanover-county-ac-glass","name":"AC Glass","slug":"va-hanover-county-ac-glass","lat":37.7059959,"lng":-77.4649371,"state":"VA","city":"Hanover County","address":"","zip":"","phone":"","email":"","website":"","hours":"","brand":"","services":["ac"],"shopType":"general_repair"},{"id":"shop-va-richmond-jackson-s-exhaust-and-automotive-services","name":"Jackson's Exhaust and Automotive Services","slug":"va-richmond-jackson-s-exhaust-and-automotive-services","lat":37.5496195,"lng":-77.4697475,"state":"VA","city":"Richmond","address":"2220 West Cary Street","zip":"23220","phone":"","email":"","website":"","hours":"","brand":"","services":["exhaust"],"shopType":"general_repair"},{"id":"shop-va-richmond-fan-auto-repair","name":"Fan Auto Repair","slug":"va-richmond-fan-auto-repair","lat":37.5515922,"lng":-77.4750387,"state":"VA","city":"Richmond","address":"2700 West Cary Street","zip":"23220","phone":"+1 804-254-3838","email":"","website":"","hours":"","brand":"","services":["general_repair"],"shopType":"general_repair"},{"id":"shop-va-norton-norton-gulf-services-center","name":"Norton Gulf Services Center","slug":"va-norton-norton-gulf-services-center","lat":36.9332397,"lng":-82.6314731,"state":"VA","city":"Norton","address":"874 Park Avenue Northwest","zip":"24273","phone":"","email":"","website":"","hours":"","brand":"","services":["general_repair"],"shopType":"general_repair"},{"id":"shop-va-chesterfield-county-jiffy-lube","name":"Jiffy Lube","slug":"va-chesterfield-county-jiffy-lube","lat":37.3588238,"lng":-77.4142422,"state":"VA","city":"Chesterfield County","address":"","zip":"","phone":"","email":"","website":"","hours":"","brand":"Jiffy Lube","services":["oil_change"],"shopType":"quick_lube"},{"id":"shop-va-richmond-auto-glass-now","name":"Auto Glass Now","slug":"va-richmond-auto-glass-now","lat":37.5030018,"lng":-77.5189296,"state":"VA","city":"Richmond","address":"","zip":"","phone":"","email":"","website":"","hours":"","brand":"","services":["general_repair"],"shopType":"general_repair"},{"id":"shop-va-chesterfield-county-pep-boys","name":"Pep Boys","slug":"va-chesterfield-county-pep-boys","lat":37.5067833,"lng":-77.5817671,"state":"VA","city":"Chesterfield County","address":"","zip":"","phone":"","email":"","website":"","hours":"","brand":"Pep Boys","services":["general_repair"],"shopType":"general_repair"},{"id":"shop-va-waynesboro-g-payne-automotive","name":"G Payne Automotive","slug":"va-waynesboro-g-payne-automotive","lat":38.0655167,"lng":-78.8771603,"state":"VA","city":"Waynesboro","address":"800 East Main Street","zip":"22980","phone":"+1-540-688-9496","email":"","website":"http://gpayneautomotive.com/","hours":"Mo-Tu,Th-Fr 10:00-18:00; We 12:00-18:00; Sa 10:00-14:00","brand":"","services":["general_repair"],"shopType":"general_repair"},{"id":"shop-va-petersburg-loyalty-collision-center","name":"Loyalty Collision Center","slug":"va-petersburg-loyalty-collision-center","lat":37.1932244,"lng":-77.37322,"state":"VA","city":"Petersburg","address":"","zip":"","phone":"","email":"","website":"","hours":"","brand":"","services":["body_work"],"shopType":"body_shop"},{"id":"shop-va-south-hill-ingram-tire-co","name":"Ingram Tire Co.","slug":"va-south-hill-ingram-tire-co","lat":36.7251441,"lng":-78.1287919,"state":"VA","city":"South Hill","address":"","zip":"","phone":"","email":"","website":"","hours":"","brand":"","services":["tires"],"shopType":"tire_shop"},{"id":"shop-va-virginia-beach-valvoline-4","name":"Valvoline","slug":"va-virginia-beach-valvoline-4","lat":36.8708905,"lng":-76.1688002,"state":"VA","city":"Virginia Beach","address":"","zip":"","phone":"","email":"","website":"","hours":"","brand":"Valvoline","services":["oil_change"],"shopType":"quick_lube"},{"id":"shop-va-danville-woodson-s-service-center","name":"Woodson's Service Center","slug":"va-danville-woodson-s-service-center","lat":36.5865693,"lng":-79.4223566,"state":"VA","city":"Danville","address":"3109 Riverside Drive","zip":"24541","phone":"+1-434-792-7097","email":"","website":"","hours":"Mo-Fr 08:00-17:00; Sa 08:00-12:00","brand":"","services":["inspection","car_repair","oil_change"],"shopType":"general_repair"},{"id":"shop-va-henrico-county-preston-s-auto-service","name":"Preston's Auto Service","slug":"va-henrico-county-preston-s-auto-service","lat":37.5955348,"lng":-77.5752248,"state":"VA","city":"Henrico County","address":"","zip":"","phone":"","email":"","website":"","hours":"","brand":"","services":["general_repair"],"shopType":"general_repair"},{"id":"shop-va-henrico-county-napa-auto-care-center","name":"NAPA Auto Care Center","slug":"va-henrico-county-napa-auto-care-center","lat":37.6330692,"lng":-77.6145805,"state":"VA","city":"Henrico County","address":"","zip":"","phone":"","email":"","website":"","hours":"","brand":"NAPA AutoCare Center","services":["general_repair"],"shopType":"general_repair"},{"id":"shop-va-fairfax-aaa-fairfax-car-care-insurance-travel-center","name":"AAA Fairfax Car Care Insurance Travel Center","slug":"va-fairfax-aaa-fairfax-car-care-insurance-travel-center","lat":38.8414455,"lng":-77.2704229,"state":"VA","city":"Fairfax","address":"9400 Main Street","zip":"22031","phone":"+1 703-995-3970","email":"","website":"https://midatlantic.aaa.com/about/StoreDetails?id=MA037","hours":"","brand":"","services":["general_repair"],"shopType":"general_repair"},{"id":"shop-va-richmond-soak-em-auto-center","name":"Soak 'em Auto Center","slug":"va-richmond-soak-em-auto-center","lat":37.5489743,"lng":-77.446188,"state":"VA","city":"Richmond","address":"508","zip":"","phone":"","email":"","website":"","hours":"","brand":"","services":["general_repair"],"shopType":"general_repair"},{"id":"shop-va-vienna-tysons-auto-specialties","name":"Tysons Auto Specialties","slug":"va-vienna-tysons-auto-specialties","lat":38.930254,"lng":-77.2379348,"state":"VA","city":"Vienna","address":"8455 Tyco Road","zip":"22182","phone":"+1 703-893-1860","email":"","website":"https://tysonsauto.com/","hours":"Mo-Fr 8:00-17:00","brand":"","services":["general_repair"],"shopType":"general_repair"},{"id":"shop-va-chantilly-ntb-tire-and-service-610","name":"NTB Tire and Service #610","slug":"va-chantilly-ntb-tire-and-service-610","lat":38.8927722,"lng":-77.4323567,"state":"VA","city":"Chantilly","address":"4040 Walney Road","zip":"20151","phone":"+1 703-631-6711","email":"","website":"https://www.ntb.com/store/va/chantilly/4040-walney-rd-20151/4529","hours":"","brand":"NTB","services":["tires"],"shopType":"tire_shop"},{"id":"shop-va-arlington-car-doctor","name":"Car Doctor","slug":"va-arlington-car-doctor","lat":38.8977948,"lng":-77.1090441,"state":"VA","city":"Arlington","address":"4035 Langston Boulevard","zip":"22207","phone":"","email":"","website":"","hours":"","brand":"","services":["general_repair"],"shopType":"general_repair"},{"id":"shop-va-woodbridge-gabe-s-automotive","name":"Gabe's Automotive","slug":"va-woodbridge-gabe-s-automotive","lat":38.6551481,"lng":-77.3092218,"state":"VA","city":"Woodbridge","address":"13512 Minnieville Road","zip":"22192","phone":"","email":"","website":"","hours":"","brand":"","services":["general_repair"],"shopType":"general_repair"},{"id":"shop-va-woodbridge-firestone","name":"Firestone","slug":"va-woodbridge-firestone","lat":38.639177,"lng":-77.2952924,"state":"VA","city":"Woodbridge","address":"2755 Metro Plaza","zip":"22192","phone":"","email":"","website":"","hours":"","brand":"Firestone","services":["general_repair"],"shopType":"general_repair"},{"id":"shop-va-woodbridge-midas","name":"Midas","slug":"va-woodbridge-midas","lat":38.6385568,"lng":-77.295672,"state":"VA","city":"Woodbridge","address":"2810 Metro Plaza","zip":"22192","phone":"","email":"","website":"https://www.midas.com/","hours":"","brand":"Midas","services":["general_repair"],"shopType":"general_repair"},{"id":"shop-va-williamsburg-goodyear","name":"Goodyear","slug":"va-williamsburg-goodyear","lat":37.2729829,"lng":-76.7569018,"state":"VA","city":"Williamsburg","address":"4830 Monticello Avenue","zip":"23188","phone":"+1-757-220-0765","email":"","website":"","hours":"Mo-Sa 08:00-19:00,Su 08:00-17:00","brand":"Goodyear","services":["tires","tyres"],"shopType":"general_repair"},{"id":"shop-va-front-royal-bill-long-s-auto-repair-clinic","name":"Bill Long's Auto Repair Clinic","slug":"va-front-royal-bill-long-s-auto-repair-clinic","lat":39.000162,"lng":-78.1737974,"state":"VA","city":"Front Royal","address":"6768 Winchester Road","zip":"22630","phone":"+1-540-635-2455","email":"","website":"http://www.autocareclinic.biz/","hours":"Mo-Fr 08:00-17:00","brand":"","services":["general_repair"],"shopType":"general_repair"},{"id":"shop-va-remington-wallys-automotive","name":"Wallys Automotive","slug":"va-remington-wallys-automotive","lat":38.5334577,"lng":-77.8092689,"state":"VA","city":"Remington","address":"104 West Main Street","zip":"22734","phone":"","email":"","website":"","hours":"Mo-Fr 08:00-17:00","brand":"","services":["general_repair"],"shopType":"general_repair"},{"id":"shop-va-remington-rto-tire-and-automotive","name":"RTO Tire and Automotive","slug":"va-remington-rto-tire-and-automotive","lat":38.5346588,"lng":-77.8082805,"state":"VA","city":"Remington","address":"206 James Madison Street","zip":"22734","phone":"","email":"","website":"","hours":"Mo-Fr 07:00-17:00","brand":"","services":["tires"],"shopType":"tire_shop"},{"id":"shop-va-gainesville-gateway-shell","name":"Gateway Shell","slug":"va-gainesville-gateway-shell","lat":38.7967035,"lng":-77.6060031,"state":"VA","city":"Gainesville","address":"13246 Gateway Center Drive","zip":"20155","phone":"+1-703-754-1180","email":"","website":"https://www.gatewayshellandservicecenter.com/","hours":"Mo-Fr 08:00-17:00; Sa 07:00-13:00","brand":"","services":["general_repair"],"shopType":"general_repair"},{"id":"shop-va-richmond-boulevard-tire","name":"Boulevard Tire","slug":"va-richmond-boulevard-tire","lat":37.5640869,"lng":-77.469611,"state":"VA","city":"Richmond","address":"1010 North Arthur Ashe Boulevard","zip":"23230","phone":"+1 804-358-8888","email":"","website":"https://boulevardtirerva.com/","hours":"Mo-Fr 08:00-17:00","brand":"","services":["tires"],"shopType":"tire_shop"},{"id":"shop-va-richmond-hydraulic-equipment-service-company-inc","name":"Hydraulic Equipment Service Company Inc.","slug":"va-richmond-hydraulic-equipment-service-company-inc","lat":37.5656844,"lng":-77.4723848,"state":"VA","city":"Richmond","address":"3014 West Marshall Street","zip":"23230","phone":"+1 804-353-0944","email":"","website":"https://hesco-richmond.com/","hours":"","brand":"","services":["general_repair"],"shopType":"general_repair"},{"id":"shop-va-chesapeake-x-press-towing-auto-repair","name":"X-press Towing & Auto Repair","slug":"va-chesapeake-x-press-towing-auto-repair","lat":36.8231474,"lng":-76.2697045,"state":"VA","city":"Chesapeake","address":"801 Wilson Road","zip":"23324","phone":"+1 757 5451515","email":"","website":"http://x-presstowingandautorepair.com","hours":"","brand":"","services":["general_repair"],"shopType":"general_repair"},{"id":"shop-va-falls-church-american-lube-service-center","name":"American Lube Service Center","slug":"va-falls-church-american-lube-service-center","lat":38.8720433,"lng":-77.1632185,"state":"VA","city":"Falls Church","address":"6436 Arlington Boulevard","zip":"22042","phone":"+1-703-533-0400","email":"","website":"","hours":"Mo-Fr 08:00-18:00, Sa 09:00-18:00, Su closed","brand":"","services":["diagnostics","oil_change","car_repair"],"shopType":"quick_lube"},{"id":"shop-va-charles-city-banks-auto-body-llc","name":"Banks Auto Body LLC","slug":"va-charles-city-banks-auto-body-llc","lat":37.3679534,"lng":-77.0215136,"state":"VA","city":"Charles City","address":"8810 Old Elam Cemetery Road","zip":"23030","phone":"+1-804-829-5022","email":"","website":"https://www.banksautobodyllc.com/","hours":"","brand":"","services":["body_work"],"shopType":"body_shop"},{"id":"shop-va-alexandria-import-auto-service-inc","name":"Import Auto Service, Inc.","slug":"va-alexandria-import-auto-service-inc","lat":38.8050471,"lng":-77.1680378,"state":"VA","city":"Alexandria","address":"6540 Edsall Road","zip":"22312","phone":"+1 703-569-2332","email":"","website":"https://www.iasvc.com/","hours":"","brand":"","services":["general_repair"],"shopType":"general_repair"},{"id":"shop-va-henrico-county-amigos-tire-auto","name":"Amigos Tire & Auto","slug":"va-henrico-county-amigos-tire-auto","lat":37.605219,"lng":-77.4926399,"state":"VA","city":"Henrico County","address":"","zip":"","phone":"","email":"","website":"","hours":"","brand":"","services":["tires"],"shopType":"tire_shop"},{"id":"shop-va-fredericksburg-rnr-tire-express","name":"RNR Tire Express","slug":"va-fredericksburg-rnr-tire-express","lat":38.29481,"lng":-77.4954549,"state":"VA","city":"Fredericksburg","address":"2042 Plank Road","zip":"","phone":"","email":"","website":"https://rnrtires.com","hours":"Mo-Fr 09:00-18:00; Sa 09:00-17:00; Su off","brand":"","services":["tires"],"shopType":"tire_shop"},{"id":"shop-va-brodnax-evans-automotive-towing-llc","name":"Evans Automotive & Towing LLC","slug":"va-brodnax-evans-automotive-towing-llc","lat":36.7056148,"lng":-78.0384695,"state":"VA","city":"Brodnax","address":"173 Piney Pond Road","zip":"23920","phone":"+1-434-729-5700","email":"","website":"","hours":"Mo-Fr 08:00-12:00,13:00-17:00","brand":"","services":["general_repair"],"shopType":"general_repair"},{"id":"shop-va-richmond-mincz-tire","name":"Mincz Tire","slug":"va-richmond-mincz-tire","lat":37.5686239,"lng":-77.4675911,"state":"VA","city":"Richmond","address":"1724 Altamont Avenue","zip":"23230","phone":"+1 804-353-1618","email":"","website":"https://www.mincztire.com/index.htm","hours":"Mo-Fr 07:30-16:00","brand":"","services":["tires"],"shopType":"tire_shop"},{"id":"shop-va-manassas-cottman-transmission","name":"Cottman Transmission","slug":"va-manassas-cottman-transmission","lat":38.7568414,"lng":-77.4659915,"state":"VA","city":"Manassas","address":"9113 Mathis Avenue","zip":"20110","phone":"","email":"","website":"","hours":"","brand":"","services":["transmission"],"shopType":"transmission_shop"},{"id":"shop-va-forest-safelite-autoglass","name":"Safelite AutoGlass","slug":"va-forest-safelite-autoglass","lat":37.3749047,"lng":-79.2498894,"state":"VA","city":"Forest","address":"17824 Forest Road","zip":"24551","phone":"+1-800-800-2727","email":"","website":"http://safelite.com","hours":"Mo-Fr 08:00-17:00; Sa 08:00-12:00","brand":"Safelite AutoGlass","services":["glass"],"shopType":"general_repair"},{"id":"shop-va-lynchburg-hi-tech-automotive-of-lynchburg","name":"Hi-Tech Automotive of Lynchburg","slug":"va-lynchburg-hi-tech-automotive-of-lynchburg","lat":37.3806596,"lng":-79.1824543,"state":"VA","city":"Lynchburg","address":"4897 Fort Avenue","zip":"24502","phone":"+1 434 237 4516","email":"","website":"","hours":"Mo-Fr 08:00-17:00; PH closed","brand":"","services":["general_repair"],"shopType":"general_repair"},{"id":"shop-va-manassas-coho-automotive","name":"CoHo Automotive","slug":"va-manassas-coho-automotive","lat":38.7612627,"lng":-77.5360523,"state":"VA","city":"Manassas","address":"11452 Robertson Drive","zip":"20109","phone":"+1-571-358-8099","email":"info@cohoauto.com","website":"https://cohoauto.com/","hours":"","brand":"","services":["general_repair"],"shopType":"general_repair"},{"id":"shop-va-concord-lone-wolf-diesel-repair","name":"Lone Wolf Diesel Repair","slug":"va-concord-lone-wolf-diesel-repair","lat":37.3521806,"lng":-78.9921962,"state":"VA","city":"Concord","address":"11934 Richmond Highway","zip":"24538","phone":"+1 434 993 2233","email":"","website":"","hours":"","brand":"","services":["diesel"],"shopType":"general_repair"},{"id":"shop-va-charlottesville-marshall-tire-and-auto","name":"Marshall Tire and Auto","slug":"va-charlottesville-marshall-tire-and-auto","lat":38.0261961,"lng":-78.5156994,"state":"VA","city":"Charlottesville","address":"2203 Fontaine Avenue","zip":"22903","phone":"+1-434-296-1134","email":"","website":"","hours":"Mo-Fr 07:00-17:00","brand":"","services":["tires"],"shopType":"tire_shop"},{"id":"shop-va-lynchburg-boonsboro-exxon","name":"Boonsboro Exxon","slug":"va-lynchburg-boonsboro-exxon","lat":37.4440306,"lng":-79.2044307,"state":"VA","city":"Lynchburg","address":"4239 Boonsboro Road","zip":"24503","phone":"+1-434-384-1431","email":"","website":"https://www.exxon.com/en/find-station/lynchburg-va-boonsboroexxon-200310046","hours":"Mo-Sa 07:00-21:00; 24/7 \"Pay at pump\"","brand":"Exxon","services":["general_repair"],"shopType":"general_repair"},{"id":"shop-va-hanover-county-burton-s-paint-and-body-shop","name":"Burton's Paint and Body Shop","slug":"va-hanover-county-burton-s-paint-and-body-shop","lat":37.7030349,"lng":-77.4668194,"state":"VA","city":"Hanover County","address":"","zip":"","phone":"","email":"","website":"","hours":"","brand":"","services":["body_work"],"shopType":"body_shop"},{"id":"shop-va-springfield-excel-auto-body","name":"Excel Auto Body","slug":"va-springfield-excel-auto-body","lat":38.7440839,"lng":-77.2077339,"state":"VA","city":"Springfield","address":"7941 Cluny Court","zip":"22153","phone":"","email":"","website":"","hours":"","brand":"","services":["body_work"],"shopType":"body_shop"},{"id":"shop-va-henrico-county-rva-auto-service","name":"RVA Auto Service","slug":"va-henrico-county-rva-auto-service","lat":37.6276217,"lng":-77.5051174,"state":"VA","city":"Henrico County","address":"","zip":"","phone":"","email":"","website":"","hours":"","brand":"","services":["general_repair"],"shopType":"general_repair"},{"id":"shop-va-alexandria-wiygul-automotive-clinic","name":"Wiygul Automotive Clinic","slug":"va-alexandria-wiygul-automotive-clinic","lat":38.8083791,"lng":-77.1240408,"state":"VA","city":"Alexandria","address":"310 South Pickett Street","zip":"22304","phone":"","email":"","website":"","hours":"","brand":"","services":["general_repair"],"shopType":"general_repair"},{"id":"shop-va-danville-riverside-exxon-service-center","name":"Riverside Exxon Service Center","slug":"va-danville-riverside-exxon-service-center","lat":36.5873756,"lng":-79.4214588,"state":"VA","city":"Danville","address":"3027 Riverside Drive","zip":"24541","phone":"+1-434-792-0824","email":"","website":"","hours":"","brand":"","services":["general_repair"],"shopType":"general_repair"},{"id":"shop-va-virginia-beach-john-s-restoration-auto-body-paint","name":"John's Restoration Auto Body & Paint","slug":"va-virginia-beach-john-s-restoration-auto-body-paint","lat":36.8406824,"lng":-76.1834481,"state":"VA","city":"Virginia Beach","address":"5716 Princess Anne Road","zip":"23462","phone":"+1-757-497-1365","email":"","website":"https://www.johnsrestoration.com/","hours":"","brand":"","services":["body_work"],"shopType":"body_shop"},{"id":"shop-va-alexandria-telegraph-bp","name":"Telegraph BP","slug":"va-alexandria-telegraph-bp","lat":38.7967886,"lng":-77.0817225,"state":"VA","city":"Alexandria","address":"5700 Telegraph Road","zip":"22303","phone":"+1 703-960-2030","email":"","website":"","hours":"Mo-Sa 05:00-23:00; Su 06:00-23:00","brand":"BP","services":["general_repair"],"shopType":"general_repair"},{"id":"shop-va-luray-1st-choice-collateral-recover","name":"1st Choice Collateral Recover","slug":"va-luray-1st-choice-collateral-recover","lat":38.6657977,"lng":-78.4658152,"state":"VA","city":"Luray","address":"328 West Main Street","zip":"22835","phone":"","email":"","website":"","hours":"","brand":"","services":["general_repair"],"shopType":"general_repair"},{"id":"shop-va-richmond-quick-stop-auto-tire","name":"Quick Stop Auto & Tire","slug":"va-richmond-quick-stop-auto-tire","lat":37.5096392,"lng":-77.4614124,"state":"VA","city":"Richmond","address":"3006 Hull Street","zip":"23224","phone":"+1-804-231-7600","email":"","website":"https://www.quickstopautoandtire.com/","hours":"Mo-Fr 09:00-18:00; Sa 09:00-14:00","brand":"","services":["tires"],"shopType":"tire_shop"},{"id":"shop-va-richmond-bainbridge-tire-auto-inc","name":"Bainbridge Tire & Auto Inc.","slug":"va-richmond-bainbridge-tire-auto-inc","lat":37.5187669,"lng":-77.449478,"state":"VA","city":"Richmond","address":"12 Cowardin Avenue","zip":"23224","phone":"+1 804-230-1888","email":"","website":"http://bainbridgetireauto.com","hours":"Mo-Fr 08:00-20:00; Sa 09:00-20:00","brand":"","services":["tires"],"shopType":"tire_shop"},{"id":"shop-va-cana-strickland-s-auto-truck-repair-inc","name":"Strickland's Auto & Truck Repair, Inc.","slug":"va-cana-strickland-s-auto-truck-repair-inc","lat":36.5746041,"lng":-80.7185983,"state":"VA","city":"Cana","address":"1564 Old Pipers Gap Road","zip":"24317","phone":"+1 276-755-4429","email":"","website":"http://www.stricklandstrucks.net","hours":"Mo-Fr 08:00-17:00","brand":"","services":["general_repair"],"shopType":"general_repair"},{"id":"shop-va-wytheville-complete-truck-service-inc","name":"Complete Truck Service, Inc.","slug":"va-wytheville-complete-truck-service-inc","lat":36.9446719,"lng":-80.9582231,"state":"VA","city":"Wytheville","address":"2326 E Lee Highway","zip":"24382","phone":"+1-276-637-4271","email":"","website":"https://completetruckserviceinc.com/","hours":"","brand":"","services":["general_repair"],"shopType":"general_repair"},{"id":"shop-va-fairfax-county-l-m-body-shop","name":"L&M Body Shop","slug":"va-fairfax-county-l-m-body-shop","lat":38.742083,"lng":-77.1933658,"state":"VA","city":"Fairfax County","address":"7304 Boudinot Drive","zip":"","phone":"","email":"","website":"","hours":"","brand":"","services":["body_work"],"shopType":"body_shop"},{"id":"shop-va-fairfax-county-signs-truck-lettering","name":"Signs Truck Lettering","slug":"va-fairfax-county-signs-truck-lettering","lat":38.7420272,"lng":-77.1932139,"state":"VA","city":"Fairfax County","address":"7304 Boudinot","zip":"","phone":"","email":"","website":"","hours":"","brand":"","services":["general_repair"],"shopType":"general_repair"},{"id":"shop-va-prince-george-road-service-express-llc","name":"Road Service Express LLC","slug":"va-prince-george-road-service-express-llc","lat":37.2356128,"lng":-77.2380236,"state":"VA","city":"Prince George","address":"9300 Old Stage Road","zip":"23875","phone":"+1-804-520-9195","email":"","website":"https://www.roadserviceexpress.com/","hours":"24/7","brand":"","services":["general_repair"],"shopType":"general_repair"},{"id":"shop-va-chantilly-dulles-south-chantilly-automotive","name":"Dulles South Chantilly Automotive","slug":"va-chantilly-dulles-south-chantilly-automotive","lat":38.917545,"lng":-77.4715983,"state":"VA","city":"Chantilly","address":"44246 Wade Drive","zip":"20152","phone":"+1-703-471-0555","email":"","website":"https://www.dullessouthchantillyautomotive.com/","hours":"Mo-Fr 07:00-18:00","brand":"","services":["general_repair"],"shopType":"general_repair"},{"id":"shop-va-portsmouth-baucom-s-auto-service-inc","name":"Baucom's Auto Service Inc","slug":"va-portsmouth-baucom-s-auto-service-inc","lat":36.828538,"lng":-76.3449521,"state":"VA","city":"Portsmouth","address":"1205 Airline Boulevard","zip":"23707","phone":"+1 757-397-5911","email":"","website":"https://www.baucomsautoservice.com/","hours":"Mo-Fr 08:00-17:00","brand":"","services":["general_repair"],"shopType":"general_repair"},{"id":"shop-va-williamsburg-firestone","name":"Firestone","slug":"va-williamsburg-firestone","lat":37.2993288,"lng":-76.7282175,"state":"VA","city":"Williamsburg","address":"2000 Richmond Road","zip":"23185","phone":"","email":"","website":"","hours":"Mo-Fr 07:00-19:00, Sa 07:00-18:00, Su 09:00-17:00","brand":"Firestone","services":["tires","oil_change","tyres"],"shopType":"general_repair"},{"id":"shop-va-falls-church-national-tire-and-battery","name":"National Tire and Battery","slug":"va-falls-church-national-tire-and-battery","lat":38.8700919,"lng":-77.1754819,"state":"VA","city":"Falls Church","address":"Arlington Boulevard","zip":"","phone":"","email":"","website":"https://www.ntb.com/store/va/falls-church/6680-arlington-blvd-22042/4541","hours":"Mo-We,Fr 08:00-18:00; Th 08:00-20:30; Sa 08:00-17:00; Su 09:00-17:00","brand":"NTB","services":["tires","inspection","brakes"],"shopType":"general_repair"},{"id":"shop-va-ashland-blaine-s-auto-service","name":"Blaine's Auto Service","slug":"va-ashland-blaine-s-auto-service","lat":37.756952,"lng":-77.4719867,"state":"VA","city":"Ashland","address":"","zip":"","phone":"","email":"","website":"","hours":"","brand":"","services":["general_repair"],"shopType":"general_repair"},{"id":"shop-va-fredericksburg-abc-dieselz","name":"ABC DieselZ","slug":"va-fredericksburg-abc-dieselz","lat":38.1909772,"lng":-77.5141199,"state":"VA","city":"Fredericksburg","address":"8505 Jamison Lane","zip":"22407","phone":"","email":"","website":"","hours":"","brand":"","services":["diesel"],"shopType":"general_repair"},{"id":"shop-va-danville-toyota-service","name":"Toyota Service","slug":"va-danville-toyota-service","lat":36.586339,"lng":-79.4331907,"state":"VA","city":"Danville","address":"","zip":"","phone":"","email":"","website":"","hours":"","brand":"Toyota","services":["general_repair"],"shopType":"general_repair"},{"id":"shop-va-danville-precision-collision-center","name":"Precision Collision Center","slug":"va-danville-precision-collision-center","lat":36.5812072,"lng":-79.4348171,"state":"VA","city":"Danville","address":"4040 Riverside Drive","zip":"24541","phone":"+1-833-283-1958","email":"","website":"https://www.danvilleprecisioncollision.com/","hours":"Mo-Fr 08:00-17:00","brand":"","services":["body_work","body_repair"],"shopType":"body_shop"},{"id":"shop-va-danville-goodyear","name":"Goodyear","slug":"va-danville-goodyear","lat":36.5943557,"lng":-79.4271971,"state":"VA","city":"Danville","address":"","zip":"","phone":"","email":"","website":"","hours":"","brand":"Goodyear","services":["general_repair"],"shopType":"general_repair"},{"id":"shop-va-charlottesville-a-1-towing-auto-repair","name":"A-1 Towing & Auto Repair","slug":"va-charlottesville-a-1-towing-auto-repair","lat":38.0361399,"lng":-78.4864185,"state":"VA","city":"Charlottesville","address":"701 Preston Avenue","zip":"22903","phone":"+1 434-202-7635","email":"a1towingauto@gmail.com","website":"https://www.a1towingandtruckrepair.com/","hours":"24/7","brand":"","services":["general_repair"],"shopType":"general_repair"},{"id":"shop-va-washington-county-hageys-garage","name":"Hageys Garage","slug":"va-washington-county-hageys-garage","lat":36.7593025,"lng":-81.854585,"state":"VA","city":"Washington County","address":"","zip":"","phone":"","email":"","website":"","hours":"","brand":"","services":["general_repair"],"shopType":"general_repair"},{"id":"shop-va-washington-county-peterbuilt","name":"Peterbuilt","slug":"va-washington-county-peterbuilt","lat":36.7686481,"lng":-81.781839,"state":"VA","city":"Washington County","address":"","zip":"","phone":"","email":"","website":"","hours":"","brand":"","services":["general_repair"],"shopType":"general_repair"},{"id":"shop-va-fincastle-fincastle-automotive-inc","name":"Fincastle Automotive Inc.","slug":"va-fincastle-fincastle-automotive-inc","lat":37.5027198,"lng":-79.8384468,"state":"VA","city":"Fincastle","address":"2279 Springwood Road","zip":"24090","phone":"+1-540-473-3434","email":"","website":"https://www.fincastleautomotive.com/","hours":"Mo-Fr 08:00-17:00","brand":"","services":["general_repair"],"shopType":"general_repair"},{"id":"shop-va-chase-city-jeff-s-paint-and-body","name":"Jeff's Paint and Body","slug":"va-chase-city-jeff-s-paint-and-body","lat":36.8001725,"lng":-78.4610336,"state":"VA","city":"Chase City","address":"","zip":"","phone":"+1-434-372-2507","email":"","website":"","hours":"Mo-Fr 08:00-17:00","brand":"","services":["body_work"],"shopType":"body_shop"},{"id":"shop-va-norfolk-tire-choice","name":"Tire Choice","slug":"va-norfolk-tire-choice","lat":36.8550226,"lng":-76.1986472,"state":"VA","city":"Norfolk","address":"6025 East Virginia Beach Boulevard","zip":"23502","phone":"+1-757-573-2776","email":"","website":"","hours":"Mo-Fr 07:30-19:00; Sa 07:30-18:00","brand":"Tire Choice","services":["tires"],"shopType":"tire_shop"},{"id":"shop-va-chesapeake-turbo-specialties-machine","name":"Turbo Specialties & Machine","slug":"va-chesapeake-turbo-specialties-machine","lat":36.7730201,"lng":-76.257898,"state":"VA","city":"Chesapeake","address":"1337 Lindale Drive","zip":"23320","phone":"+1-757-547-0838","email":"","website":"","hours":"Mo-Fr 08:00-17:00","brand":"","services":["general_repair"],"shopType":"general_repair"},{"id":"shop-va-fairfax-chevrolet-service","name":"Chevrolet Service","slug":"va-fairfax-chevrolet-service","lat":38.8589619,"lng":-77.3028269,"state":"VA","city":"Fairfax","address":"3509 University Drive","zip":"22030","phone":"","email":"","website":"","hours":"","brand":"Chevrolet","services":["general_repair"],"shopType":"general_repair"},{"id":"shop-va-salem-apperson-automotive-inc","name":"Apperson Automotive Inc.","slug":"va-salem-apperson-automotive-inc","lat":37.2715563,"lng":-80.0350193,"state":"VA","city":"Salem","address":"1601 Apperson Drive","zip":"24153","phone":"+1-540-444-7337","email":"","website":"https://www.appersonautomotive.com/","hours":"","brand":"","services":["general_repair"],"shopType":"general_repair"},{"id":"shop-va-woodbridge-lt-foreign-car-service","name":"LT Foreign Car Service","slug":"va-woodbridge-lt-foreign-car-service","lat":38.6634787,"lng":-77.2503141,"state":"VA","city":"Woodbridge","address":"1108 Horner Road","zip":"22191","phone":"+1 703-675-7016","email":"","website":"","hours":"","brand":"","services":["general_repair"],"shopType":"general_repair"},{"id":"shop-va-chesterfield-county-goodyear","name":"Goodyear","slug":"va-chesterfield-county-goodyear","lat":37.499241,"lng":-77.534529,"state":"VA","city":"Chesterfield County","address":"","zip":"","phone":"","email":"","website":"","hours":"","brand":"Goodyear","services":["general_repair"],"shopType":"general_repair"},{"id":"shop-va-chester-express-oil-change-tire-engineers","name":"Express Oil Change & Tire Engineers","slug":"va-chester-express-oil-change-tire-engineers","lat":37.3611833,"lng":-77.4973196,"state":"VA","city":"Chester","address":"11231 Iron Bridge Road","zip":"23831","phone":"+1-804-495-3112","email":"","website":"https://www.expressoil.com/stores/chester/va/0703/","hours":"Mo-Fr 08:00-18:00;Sa 08:00-17:00","brand":"Express Oil","services":["tires","oil_change","engine_repair"],"shopType":"general_repair"},{"id":"shop-va-chesterfield-county-terry-s-small-engine-repair","name":"Terry's Small Engine Repair","slug":"va-chesterfield-county-terry-s-small-engine-repair","lat":37.4408311,"lng":-77.5841413,"state":"VA","city":"Chesterfield County","address":"","zip":"","phone":"","email":"","website":"","hours":"","brand":"","services":["engine_repair"],"shopType":"general_repair"},{"id":"shop-va-chesterfield-county-victory-lane-auto","name":"Victory Lane Auto","slug":"va-chesterfield-county-victory-lane-auto","lat":37.4421593,"lng":-77.5804224,"state":"VA","city":"Chesterfield County","address":"","zip":"","phone":"","email":"","website":"","hours":"","brand":"","services":["general_repair"],"shopType":"general_repair"},{"id":"shop-va-henrico-county-firestone","name":"Firestone","slug":"va-henrico-county-firestone","lat":37.6481028,"lng":-77.5877348,"state":"VA","city":"Henrico County","address":"","zip":"","phone":"","email":"","website":"","hours":"","brand":"Firestone","services":["general_repair"],"shopType":"general_repair"},{"id":"shop-va-henrico-county-maaco","name":"MAACO","slug":"va-henrico-county-maaco","lat":37.6488312,"lng":-77.5872118,"state":"VA","city":"Henrico County","address":"","zip":"","phone":"","email":"","website":"","hours":"","brand":"Maaco","services":["painting","body_work","body_repair"],"shopType":"body_shop"},{"id":"shop-va-henrico-county-virginia-automotive-services","name":"Virginia Automotive Services","slug":"va-henrico-county-virginia-automotive-services","lat":37.6486278,"lng":-77.5872865,"state":"VA","city":"Henrico County","address":"","zip":"","phone":"","email":"","website":"","hours":"","brand":"","services":["general_repair"],"shopType":"general_repair"},{"id":"shop-va-norfolk-fantom-works","name":"Fantom Works","slug":"va-norfolk-fantom-works","lat":36.8749764,"lng":-76.3015552,"state":"VA","city":"Norfolk","address":"2400 Hampton Boulevard","zip":"23517","phone":"+1-757-216-1745","email":"","website":"https://fantomworks.com/","hours":"Mo-Fr 08:00-17:00","brand":"","services":["general_repair"],"shopType":"general_repair"},{"id":"shop-va-kenbridge-kenbridge-body-shop","name":"Kenbridge Body Shop","slug":"va-kenbridge-kenbridge-body-shop","lat":36.9635894,"lng":-78.1235984,"state":"VA","city":"Kenbridge","address":"106 Broad Street","zip":"","phone":"","email":"","website":"","hours":"","brand":"","services":["body_work"],"shopType":"body_shop"},{"id":"shop-va-lynchburg-timberlake-auto-service","name":"Timberlake Auto Service","slug":"va-lynchburg-timberlake-auto-service","lat":37.3157377,"lng":-79.2624985,"state":"VA","city":"Lynchburg","address":"22743 Timberlake Road","zip":"24502","phone":"","email":"","website":"","hours":"","brand":"","services":["general_repair"],"shopType":"general_repair"},{"id":"shop-va-henrico-county-c-u-r-e-auto-repair","name":"C.U.R.E. Auto Repair","slug":"va-henrico-county-c-u-r-e-auto-repair","lat":37.5176919,"lng":-77.3462196,"state":"VA","city":"Henrico County","address":"5016 Williamsburg Road","zip":"23231","phone":"","email":"","website":"","hours":"","brand":"","services":["general_repair"],"shopType":"general_repair"},{"id":"shop-va-henrico-county-goodyear","name":"Goodyear","slug":"va-henrico-county-goodyear","lat":37.5171942,"lng":-77.3525222,"state":"VA","city":"Henrico County","address":"","zip":"","phone":"","email":"","website":"","hours":"","brand":"Goodyear","services":["general_repair"],"shopType":"general_repair"},{"id":"shop-va-richmond-baskfield-automotive-repair-service","name":"Baskfield Automotive Repair & Service","slug":"va-richmond-baskfield-automotive-repair-service","lat":37.5507508,"lng":-77.4485841,"state":"VA","city":"Richmond","address":"817 West Marshall Street","zip":"23220","phone":"+1-804-343-3734","email":"","website":"","hours":"Mo-Fr 08:00-18:00","brand":"","services":["general_repair"],"shopType":"general_repair"},{"id":"shop-va-chesterfield-county-goodyear-2","name":"Goodyear","slug":"va-chesterfield-county-goodyear-2","lat":37.3576745,"lng":-77.4431086,"state":"VA","city":"Chesterfield County","address":"4110 West Hundred Road","zip":"23831","phone":"","email":"","website":"","hours":"","brand":"Goodyear","services":["general_repair"],"shopType":"general_repair"},{"id":"shop-va-chesterfield-county-chester-muffler-and-brake","name":"Chester Muffler and Brake","slug":"va-chesterfield-county-chester-muffler-and-brake","lat":37.3564379,"lng":-77.4444506,"state":"VA","city":"Chesterfield County","address":"4215 West Hundred Road","zip":"23831","phone":"","email":"","website":"","hours":"","brand":"","services":["exhaust","brakes"],"shopType":"general_repair"},{"id":"shop-va-chesterfield-county-pro-tint-richmond","name":"Pro Tint Richmond","slug":"va-chesterfield-county-pro-tint-richmond","lat":37.3494161,"lng":-77.4647393,"state":"VA","city":"Chesterfield County","address":"12530 Iron Bridge Road","zip":"23831","phone":"","email":"","website":"","hours":"","brand":"","services":["general_repair"],"shopType":"general_repair"},{"id":"shop-va-chesterfield-county-twisted-grip-cycles","name":"Twisted Grip Cycles","slug":"va-chesterfield-county-twisted-grip-cycles","lat":37.2976184,"lng":-77.4103689,"state":"VA","city":"Chesterfield County","address":"16412 Route 1","zip":"23834","phone":"","email":"","website":"","hours":"","brand":"","services":["general_repair"],"shopType":"general_repair"},{"id":"shop-va-chesterfield-county-coastal-towing-recovery","name":"Coastal Towing & Recovery","slug":"va-chesterfield-county-coastal-towing-recovery","lat":37.3609075,"lng":-77.3982244,"state":"VA","city":"Chesterfield County","address":"12310 Old Stage Road","zip":"23836","phone":"+1 804-652-1700","email":"","website":"","hours":"Mo-Fr 09:00-17:00","brand":"","services":["general_repair"],"shopType":"general_repair"},{"id":"shop-va-pearisburg-shrader-s-auto-service-inc","name":"Shrader's Auto Service Inc","slug":"va-pearisburg-shrader-s-auto-service-inc","lat":37.3312096,"lng":-80.7390806,"state":"VA","city":"Pearisburg","address":"508 North Main Street","zip":"24134","phone":"+1 540 921 2172","email":"","website":"","hours":"","brand":"","services":["general_repair"],"shopType":"general_repair"},{"id":"shop-va-franklin-bobby-s-muffler-tire","name":"Bobby's Muffler & Tire","slug":"va-franklin-bobby-s-muffler-tire","lat":36.6687747,"lng":-76.9489218,"state":"VA","city":"Franklin","address":"","zip":"","phone":"","email":"","website":"","hours":"","brand":"","services":["tires","exhaust"],"shopType":"general_repair"},{"id":"shop-va-purcellville-hogan-sons-tire-and-auto","name":"Hogan & Sons Tire and Auto","slug":"va-purcellville-hogan-sons-tire-and-auto","lat":39.1361414,"lng":-77.7016508,"state":"VA","city":"Purcellville","address":"840 East Main Street","zip":"20132","phone":"","email":"","website":"","hours":"","brand":"","services":["car_repair","tires","car_parts","used_car_sales","tyres"],"shopType":"tire_shop"},{"id":"shop-va-prince-william-county-napa-auto-care-center","name":"NAPA Auto Care Center","slug":"va-prince-william-county-napa-auto-care-center","lat":38.6743145,"lng":-77.2552306,"state":"VA","city":"Prince William County","address":"","zip":"22192","phone":"","email":"","website":"","hours":"","brand":"NAPA AutoCare Center","services":["general_repair"],"shopType":"general_repair"},{"id":"shop-va-fairfax-craftsman-auto-care-merrifield","name":"Craftsman Auto Care - Merrifield","slug":"va-fairfax-craftsman-auto-care-merrifield","lat":38.8779503,"lng":-77.2305978,"state":"VA","city":"Fairfax","address":"2733 Merrilee Drive","zip":"22031","phone":"","email":"","website":"","hours":"","brand":"","services":["general_repair"],"shopType":"general_repair"},{"id":"shop-va-henrico-national-speed-inc","name":"National Speed Inc.","slug":"va-henrico-national-speed-inc","lat":37.6143903,"lng":-77.4999792,"state":"VA","city":"Henrico","address":"4022 Glenside Drive","zip":"23228","phone":"","email":"","website":"","hours":"Mo-Sa 09:00-18:00","brand":"","services":["car_repair","oil_change","tyres","diagnostics","tires","car_parts","brakes","wheels","muffler","batteries","repairs","exhaust"],"shopType":"general_repair"},{"id":"shop-va-ashland-nightrun-garage-llc","name":"Nightrun Garage, LLC","slug":"va-ashland-nightrun-garage-llc","lat":37.7123854,"lng":-77.4416065,"state":"VA","city":"Ashland","address":"11232 Hopson Road","zip":"23005","phone":"","email":"","website":"","hours":"Mo-Fr 09:00-17:00","brand":"","services":["car_repair","electrical","air_conditioning","oil_change","diagnostics","car_parts","brakes","wheels","muffler","repairs","exhaust"],"shopType":"general_repair"},{"id":"shop-va-hanover-county-james-river-collision-center","name":"James River Collision Center","slug":"va-hanover-county-james-river-collision-center","lat":37.7036279,"lng":-77.4668641,"state":"VA","city":"Hanover County","address":"","zip":"","phone":"","email":"","website":"","hours":"Mo-Fr 08:00-17:30","brand":"","services":["body_work"],"shopType":"body_shop"},{"id":"shop-va-hanover-county-integris-trailer-repair","name":"Integris Trailer Repair","slug":"va-hanover-county-integris-trailer-repair","lat":37.7007842,"lng":-77.4658644,"state":"VA","city":"Hanover County","address":"","zip":"","phone":"","email":"","website":"","hours":"","brand":"","services":["general_repair"],"shopType":"general_repair"},{"id":"shop-va-richmond-turner-s-auto-service","name":"Turner's Auto Service","slug":"va-richmond-turner-s-auto-service","lat":37.5773306,"lng":-77.4625284,"state":"VA","city":"Richmond","address":"","zip":"","phone":"","email":"","website":"","hours":"","brand":"","services":["general_repair"],"shopType":"general_repair"},{"id":"shop-va-ashland-glen-allen-transmission","name":"Glen Allen Transmission","slug":"va-ashland-glen-allen-transmission","lat":37.7521208,"lng":-77.4723669,"state":"VA","city":"Ashland","address":"","zip":"","phone":"","email":"","website":"","hours":"","brand":"","services":["transmission"],"shopType":"transmission_shop"},{"id":"shop-va-hanover-county-l-l-transmission","name":"L&L Transmission","slug":"va-hanover-county-l-l-transmission","lat":37.7121655,"lng":-77.4680575,"state":"VA","city":"Hanover County","address":"","zip":"","phone":"","email":"","website":"","hours":"","brand":"","services":["transmission"],"shopType":"transmission_shop"},{"id":"shop-va-winchester-joe-hudson-s-collision-center","name":"Joe Hudson's Collision Center","slug":"va-winchester-joe-hudson-s-collision-center","lat":39.1367885,"lng":-78.1795205,"state":"VA","city":"Winchester","address":"3066 Shawness Drive","zip":"22601","phone":"+1-540-722-8760","email":"","website":"https://jhcc.com/locations/auto-body-shop-winchester/","hours":"Mo-Fr 08:00-17:00","brand":"","services":["car_parts","car_repair","body_work"],"shopType":"body_shop"},{"id":"shop-va-kilmarnock-bayside-garage","name":"Bayside Garage","slug":"va-kilmarnock-bayside-garage","lat":37.7382295,"lng":-76.3629336,"state":"VA","city":"Kilmarnock","address":"10522 Jessie Dupont Memorial Highway","zip":"22482","phone":"+1-804-435-8903","email":"","website":"","hours":"","brand":"","services":["general_repair"],"shopType":"general_repair"},{"id":"shop-va-falls-church-doctor-tires","name":"Doctor tires","slug":"va-falls-church-doctor-tires","lat":38.8704012,"lng":-77.1472017,"state":"VA","city":"Falls Church","address":"Patrick Henry Drive","zip":"22044","phone":"+15712940117","email":"","website":"","hours":"Mo-Su 08:00-21:00","brand":"","services":["tires"],"shopType":"tire_shop"},{"id":"shop-va-mattaponi-wyatt-s-pro-mechanix","name":"Wyatt's Pro Mechanix","slug":"va-mattaponi-wyatt-s-pro-mechanix","lat":37.5351052,"lng":-76.779313,"state":"VA","city":"Mattaponi","address":"7188 Lewis B Puller Memorial Highway","zip":"23110","phone":"","email":"","website":"","hours":"","brand":"","services":["general_repair"],"shopType":"general_repair"},{"id":"shop-va-richmond-rva-tire-auto-service-center","name":"RVA Tire & Auto Service Center","slug":"va-richmond-rva-tire-auto-service-center","lat":37.5495517,"lng":-77.4697803,"state":"VA","city":"Richmond","address":"","zip":"","phone":"","email":"","website":"","hours":"","brand":"","services":["tires"],"shopType":"tire_shop"},{"id":"shop-va-richmond-fritz-s-car-care-inc","name":"Fritz's Car Care Inc","slug":"va-richmond-fritz-s-car-care-inc","lat":37.5479154,"lng":-77.4653241,"state":"VA","city":"Richmond","address":"","zip":"","phone":"","email":"","website":"","hours":"","brand":"","services":["general_repair"],"shopType":"general_repair"},{"id":"shop-va-richmond-cognito-moto","name":"Cognito Moto","slug":"va-richmond-cognito-moto","lat":37.5482445,"lng":-77.4647321,"state":"VA","city":"Richmond","address":"","zip":"","phone":"","email":"","website":"","hours":"","brand":"","services":["general_repair"],"shopType":"general_repair"},{"id":"shop-va-richmond-paradise-garage","name":"Paradise Garage","slug":"va-richmond-paradise-garage","lat":37.5479469,"lng":-77.4640104,"state":"VA","city":"Richmond","address":"12 South Allen Avenue","zip":"23220","phone":"+1-804-358-5902","email":"","website":"http://paradisegarage.weebly.com/","hours":"Mo-Fr 08:00-17:30","brand":"","services":["car_repair","oil_change","air_conditioning","diagnostics","brakes","inspection"],"shopType":"general_repair"},{"id":"shop-va-richmond-atlantic-auto-center","name":"Atlantic Auto Center","slug":"va-richmond-atlantic-auto-center","lat":37.5600871,"lng":-77.440408,"state":"VA","city":"Richmond","address":"","zip":"","phone":"","email":"","website":"","hours":"","brand":"","services":["general_repair"],"shopType":"general_repair"},{"id":"shop-va-richmond-auto-station","name":"Auto Station","slug":"va-richmond-auto-station","lat":37.5598728,"lng":-77.4418766,"state":"VA","city":"Richmond","address":"","zip":"","phone":"","email":"","website":"","hours":"","brand":"","services":["general_repair"],"shopType":"general_repair"},{"id":"shop-va-henrico-county-blackops-auto-pro","name":"Blackops Auto Pro","slug":"va-henrico-county-blackops-auto-pro","lat":37.5147348,"lng":-77.3587538,"state":"VA","city":"Henrico County","address":"4200 Eubank Road","zip":"23231","phone":"","email":"","website":"","hours":"Mo-Fr 07:00-18:00; PH closed","brand":"","services":["general_repair"],"shopType":"general_repair"},{"id":"shop-va-lexington-oil-exchange-and-lube-of-lexington","name":"Oil Exchange and Lube of Lexington","slug":"va-lexington-oil-exchange-and-lube-of-lexington","lat":37.7959105,"lng":-79.4217037,"state":"VA","city":"Lexington","address":"754 North Lee Highway","zip":"24450","phone":"","email":"","website":"https://oil-exchange-and-lube-of-lexington.business.site/","hours":"","brand":"","services":["tires","oil_change"],"shopType":"quick_lube"},{"id":"shop-va-fancy-gap-meredith-s-garage","name":"Meredith's Garage","slug":"va-fancy-gap-meredith-s-garage","lat":36.6730365,"lng":-80.6768345,"state":"VA","city":"Fancy Gap","address":"2058 Skyview Drive","zip":"24328","phone":"","email":"","website":"","hours":"","brand":"","services":["inspection","batteries","car_repair","oil_change"],"shopType":"general_repair"},{"id":"shop-va-spotsylvania-v-g-auto-repair","name":"V & G Auto Repair","slug":"va-spotsylvania-v-g-auto-repair","lat":38.2088709,"lng":-77.5773864,"state":"VA","city":"Spotsylvania","address":"9243 Courthouse Road","zip":"22553","phone":"","email":"","website":"","hours":"","brand":"","services":["general_repair"],"shopType":"general_repair"},{"id":"shop-va-west-point-modr-s-service-center","name":"Modr's Service Center","slug":"va-west-point-modr-s-service-center","lat":37.5517401,"lng":-76.8101805,"state":"VA","city":"West Point","address":"","zip":"","phone":"","email":"","website":"","hours":"","brand":"","services":["general_repair"],"shopType":"general_repair"},{"id":"shop-va-haymarket-mullins-auto-care","name":"Mullins Auto Care","slug":"va-haymarket-mullins-auto-care","lat":38.8116261,"lng":-77.6405946,"state":"VA","city":"Haymarket","address":"15161 Washington Street","zip":"20169","phone":"+1-703-754-2173","email":"","website":"https://www.mullinsautocare.com/","hours":"Mo-Fr 08:00-18:00","brand":"","services":["general_repair"],"shopType":"general_repair"},{"id":"shop-va-northumberland-county-tire-shop","name":"Tire Shop","slug":"va-northumberland-county-tire-shop","lat":37.8829373,"lng":-76.3466715,"state":"VA","city":"Northumberland County","address":"","zip":"","phone":"","email":"","website":"","hours":"","brand":"","services":["tires"],"shopType":"tire_shop"},{"id":"shop-va-galax-truck-service-enterprise","name":"Truck Service Enterprise","slug":"va-galax-truck-service-enterprise","lat":36.665654,"lng":-80.9213589,"state":"VA","city":"Galax","address":"","zip":"","phone":"","email":"","website":"","hours":"","brand":"","services":["general_repair"],"shopType":"general_repair"},{"id":"shop-va-galax-sunny-days","name":"Sunny Days","slug":"va-galax-sunny-days","lat":36.6451525,"lng":-80.9195076,"state":"VA","city":"Galax","address":"","zip":"","phone":"","email":"","website":"","hours":"","brand":"","services":["general_repair"],"shopType":"general_repair"},{"id":"shop-va-galax-blue-ridge","name":"Blue Ridge","slug":"va-galax-blue-ridge","lat":36.6434162,"lng":-80.9195126,"state":"VA","city":"Galax","address":"","zip":"","phone":"","email":"","website":"","hours":"","brand":"","services":["general_repair"],"shopType":"general_repair"},{"id":"shop-va-galax-mickey-s-body-shop","name":"Mickey's Body Shop","slug":"va-galax-mickey-s-body-shop","lat":36.6604826,"lng":-80.9277853,"state":"VA","city":"Galax","address":"","zip":"","phone":"","email":"","website":"","hours":"","brand":"","services":["body_work"],"shopType":"body_shop"},{"id":"shop-va-scottsville-east-main-street-garage","name":"East Main Street Garage","slug":"va-scottsville-east-main-street-garage","lat":37.7986246,"lng":-78.4927418,"state":"VA","city":"Scottsville","address":"315 Main Street","zip":"24590","phone":"","email":"","website":"","hours":"","brand":"Marathon","services":["general_repair"],"shopType":"general_repair"},{"id":"shop-va-lynchburg-thomas-terrace-exxon","name":"Thomas Terrace Exxon","slug":"va-lynchburg-thomas-terrace-exxon","lat":37.3708116,"lng":-79.0174685,"state":"VA","city":"Lynchburg","address":"9966 Richmond Highway","zip":"24504","phone":"+1-434-993-2223","email":"","website":"https://www.exxon.com/en/find-station/lynchburg-va-thomasterraceexxon-200317011","hours":"24/7","brand":"Exxon","services":["general_repair"],"shopType":"general_repair"},{"id":"shop-va-alexandria-honest-1-auto-care","name":"Honest-1 Auto Care","slug":"va-alexandria-honest-1-auto-care","lat":38.7238673,"lng":-77.1218025,"state":"VA","city":"Alexandria","address":"8648 Richmond Highway","zip":"22309","phone":"+1 571-257-4876","email":"","website":"https://www.honest1alexandria.com/","hours":"Mo-Fr 09:00-17:00; Sa 09:00-16:00","brand":"","services":["general_repair"],"shopType":"general_repair"},{"id":"shop-va-lorton-lorton-auto-service-center","name":"Lorton Auto Service Center","slug":"va-lorton-lorton-auto-service-center","lat":38.717062,"lng":-77.1942254,"state":"VA","city":"Lorton","address":"7201 Telegraph Square Drive","zip":"22079","phone":"+1 703-372-2919","email":"lortonauto@gmail.com","website":"https://www.lortonauto.com/","hours":"Mo-Fr 08:00-18:00; Sa 09:00-15:00","brand":"","services":["detailing","body_repair","muffler","motor","brakes","tyres","air_conditioning","body_work","tires","fuel","maintenance","clutches","steering","exhausts","car_repair","electrical","oil_change","diagnostics","suspension","batteries","exhaust"],"shopType":"general_repair"},{"id":"shop-va-henrico-county-tesla-service","name":"Tesla Service","slug":"va-henrico-county-tesla-service","lat":37.6439492,"lng":-77.5643742,"state":"VA","city":"Henrico County","address":"9850 West Broad Street","zip":"23060","phone":"+1 800-219-4999","email":"","website":"https://www.tesla.com/findus/location/service/richmondglenallen","hours":"Mo-Fr 08:00-17:00","brand":"Tesla","services":["general_repair"],"shopType":"general_repair"},{"id":"shop-va-smithfield-ray-s-import-auto-repair","name":"Ray's Import Auto Repair","slug":"va-smithfield-ray-s-import-auto-repair","lat":36.9768989,"lng":-76.6127323,"state":"VA","city":"Smithfield","address":"930 South Church Street","zip":"23430","phone":"+1-757-357-4002","email":"","website":"https://www.raysimportautorepair.net","hours":"Mo-Fr 08:00-17:00","brand":"","services":["general_repair"],"shopType":"general_repair"},{"id":"shop-va-suffolk-line-x-of-suffolk","name":"Line-X of Suffolk","slug":"va-suffolk-line-x-of-suffolk","lat":36.7623343,"lng":-76.5903183,"state":"VA","city":"Suffolk","address":"","zip":"","phone":"","email":"","website":"","hours":"","brand":"LINE-X","services":["general_repair"],"shopType":"general_repair"},{"id":"shop-va-smithfield-smithfield-glass-mirror","name":"Smithfield Glass & Mirror","slug":"va-smithfield-smithfield-glass-mirror","lat":36.9673883,"lng":-76.6604956,"state":"VA","city":"Smithfield","address":"12728 Courthouse Highway","zip":"23430","phone":"+1-757-357-6858","email":"","website":"http://www.smithfieldglass.com","hours":"","brand":"","services":["glass"],"shopType":"general_repair"},{"id":"shop-va-smithfield-action-tire-brakes","name":"Action Tire & Brakes","slug":"va-smithfield-action-tire-brakes","lat":36.9674764,"lng":-76.6603922,"state":"VA","city":"Smithfield","address":"12728 Courthouse Highway","zip":"23430","phone":"","email":"","website":"","hours":"","brand":"","services":["tires","tyres","brakes"],"shopType":"general_repair"},{"id":"shop-va-moneta-heath-s-tire-lube","name":"Heath's Tire & Lube","slug":"va-moneta-heath-s-tire-lube","lat":37.1919732,"lng":-79.6082854,"state":"VA","city":"Moneta","address":"12239 North Old Moneta Road","zip":"24121","phone":"+1-540-296-3008","email":"","website":"https://heathstireandlube.com/","hours":"Mo-Fr 08:00-17:00; Sa 08:00-14:00","brand":"","services":["tyre_services","oil_change","car_repair","air_conditioning","tyres","car_service","tires","transmission","brakes","batteries","inspection","transmission_repair","battery_testing","alignment"],"shopType":"quick_lube"},{"id":"shop-va-virginia-beach-firestone-5","name":"Firestone","slug":"va-virginia-beach-firestone-5","lat":36.8114252,"lng":-76.2187406,"state":"VA","city":"Virginia Beach","address":"987 South Military Highway","zip":"23464","phone":"+1-757-793-2539","email":"","website":"https://local.firestonecompleteautocare.com/virginia/virginia-beach/987-s-military-hwy/","hours":"Mo-Fr 07:00-19:00; Sa 07:00-18:00; Su 09:00-17:00","brand":"Firestone","services":["general_repair"],"shopType":"general_repair"},{"id":"shop-va-sandston-paragon-defenders-inc","name":"Paragon Defenders, Inc.","slug":"va-sandston-paragon-defenders-inc","lat":37.5219428,"lng":-77.2804447,"state":"VA","city":"Sandston","address":"1700 Old Williamsburg Road","zip":"23150","phone":"+1 804-660-7700","email":"discover@paragondefenders.com","website":"https://paragondefenders.com/","hours":"","brand":"","services":["general_repair"],"shopType":"general_repair"},{"id":"shop-va-norfolk-pep-boys","name":"Pep Boys","slug":"va-norfolk-pep-boys","lat":36.8654007,"lng":-76.2094274,"state":"VA","city":"Norfolk","address":"1230 North Military Highway","zip":"23502","phone":"+1-757-461-0615","email":"","website":"https://pepboys.com/stores/va/norfolk/1230-n-military-hwy?storeCode=0111","hours":"Mo-Sa 07:00-19:00; Su 09:00-18:00","brand":"Pep Boys","services":["general_repair"],"shopType":"general_repair"},{"id":"shop-va-king-william-cj-plus-automotive","name":"CJ Plus Automotive","slug":"va-king-william-cj-plus-automotive","lat":37.7344744,"lng":-77.1365904,"state":"VA","city":"King William","address":"336 Sharon Road","zip":"23086","phone":"+1 804-769-2969","email":"","website":"","hours":"","brand":"","services":["general_repair"],"shopType":"general_repair"},{"id":"shop-va-king-william-jake-s-tire-and-auto-repair","name":"Jake's Tire and Auto Repair","slug":"va-king-william-jake-s-tire-and-auto-repair","lat":37.7076052,"lng":-77.1565277,"state":"VA","city":"King William","address":"2105 Richmond Tappahannock Highway","zip":"23106","phone":"+1 804-769-8473","email":"","website":"","hours":"","brand":"","services":["car_repair","electrical","oil_change","diagnostics","tires","brakes","batteries","inspection","tyres"],"shopType":"general_repair"},{"id":"shop-va-alexandria-costco-tire-center","name":"Costco Tire Center","slug":"va-alexandria-costco-tire-center","lat":38.7420322,"lng":-77.0880746,"state":"VA","city":"Alexandria","address":"7940 Richmond Highway","zip":"22306","phone":"+1 571-458-3500","email":"","website":"https://www.costco.com/warehouse-locations/mt-vernon-alexandria-va-1115.html","hours":"","brand":"Costco","services":["tires"],"shopType":"tire_shop"},{"id":"shop-va-charlottesville-virginia-motorrad","name":"Virginia Motorrad","slug":"va-charlottesville-virginia-motorrad","lat":38.0182225,"lng":-78.4860799,"state":"VA","city":"Charlottesville","address":"1503 6th Street SE","zip":"22902","phone":"+1-434-409-3767","email":"","website":"http://vamotorrad.com","hours":"","brand":"BMW","services":["general_repair"],"shopType":"general_repair"},{"id":"shop-va-charlottesville-minter-s-auto-repair","name":"Minter's Auto Repair","slug":"va-charlottesville-minter-s-auto-repair","lat":38.0181781,"lng":-78.4867041,"state":"VA","city":"Charlottesville","address":"1515 6th Street Southeast","zip":"22902","phone":"+1-434-979-2360","email":"","website":"","hours":"","brand":"","services":["general_repair"],"shopType":"general_repair"},{"id":"shop-va-chesterfield-county-the-tire-depot","name":"The Tire Depot","slug":"va-chesterfield-county-the-tire-depot","lat":37.4401901,"lng":-77.5903395,"state":"VA","city":"Chesterfield County","address":"","zip":"","phone":"","email":"","website":"","hours":"","brand":"","services":["tires"],"shopType":"tire_shop"},{"id":"shop-va-chesterfield-county-buddy-south-auto-parts-service","name":"Buddy South Auto Parts & Service","slug":"va-chesterfield-county-buddy-south-auto-parts-service","lat":37.4427715,"lng":-77.5822581,"state":"VA","city":"Chesterfield County","address":"","zip":"","phone":"","email":"","website":"","hours":"","brand":"","services":["general_repair"],"shopType":"general_repair"},{"id":"shop-va-fairfax-royal-gas-auto-service","name":"Royal Gas & Auto Service","slug":"va-fairfax-royal-gas-auto-service","lat":38.8459724,"lng":-77.3062916,"state":"VA","city":"Fairfax","address":"10423 Main Street","zip":"22030","phone":"","email":"","website":"","hours":"","brand":"","services":["general_repair"],"shopType":"general_repair"},{"id":"shop-va-newport-news-mobile-mechanic-pros","name":"Mobile Mechanic Pros","slug":"va-newport-news-mobile-mechanic-pros","lat":37.0102756,"lng":-76.4453718,"state":"VA","city":"Newport News","address":"7000 Warwick Boulevard","zip":"23607","phone":"+1-757-317-5170","email":"azuredbirnbaum@gmail.com","website":"https://www.newportnewsmobilemechanic.com","hours":"Mo-Fr 09:00-20:00; Sa-Su 10:00-19:00","brand":"","services":["general_repair"],"shopType":"general_repair"},{"id":"shop-va-manassas-g-c-tire-and-auto-service","name":"G&C Tire and Auto Service","slug":"va-manassas-g-c-tire-and-auto-service","lat":38.7503733,"lng":-77.5467644,"state":"VA","city":"Manassas","address":"11707 Pump Station Way","zip":"20109","phone":"","email":"","website":"","hours":"","brand":"","services":["tires"],"shopType":"tire_shop"},{"id":"shop-va-richmond-rivian-service-center","name":"Rivian Service Center","slug":"va-richmond-rivian-service-center","lat":37.5880529,"lng":-77.4837354,"state":"VA","city":"Richmond","address":"2289 Dabney Road","zip":"23230","phone":"","email":"","website":"","hours":"","brand":"Rivian","services":["general_repair"],"shopType":"general_repair"},{"id":"shop-va-virginia-beach-arrowhead-alignment-automotive","name":"Arrowhead Alignment & Automotive","slug":"va-virginia-beach-arrowhead-alignment-automotive","lat":36.8400974,"lng":-76.1850811,"state":"VA","city":"Virginia Beach","address":"Arrowhead Drive","zip":"23462","phone":"+1-757-200-1877","email":"","website":"https://arrowheadautomotiveva.com","hours":"Mo-Fr 08:00-17:00","brand":"","services":["alignment"],"shopType":"general_repair"},{"id":"shop-va-rocky-mount-r-d-custom-detailing","name":"R&D Custom Detailing","slug":"va-rocky-mount-r-d-custom-detailing","lat":37.000689,"lng":-79.8917702,"state":"VA","city":"Rocky Mount","address":"95 Hale Street","zip":"24151","phone":"+1-540-420-3020","email":"R.dcustomdetailing@gmail.com","website":"","hours":"Mo-Sa 09:00-17:00","brand":"","services":["detailing"],"shopType":"general_repair"},{"id":"shop-va-mechanicsville-timberlake-automotive","name":"Timberlake Automotive","slug":"va-mechanicsville-timberlake-automotive","lat":37.6122319,"lng":-77.3334263,"state":"VA","city":"Mechanicsville","address":"7440 Brandy Creek Drive","zip":"23111","phone":"+1 804-730-0024","email":"","website":"https://www.facebook.com/TimberlakeAutomotive/","hours":"","brand":"","services":["general_repair"],"shopType":"general_repair"},{"id":"shop-va-hopewell-broadway-garage-body-shop","name":"Broadway Garage & Body Shop","slug":"va-hopewell-broadway-garage-body-shop","lat":37.3054279,"lng":-77.2835828,"state":"VA","city":"Hopewell","address":"318 East Broadway Avenue","zip":"23860","phone":"","email":"","website":"","hours":"","brand":"","services":["body_work"],"shopType":"body_shop"},{"id":"shop-va-hopewell-affordable-auto-collision-paint","name":"Affordable Auto Collision & Paint","slug":"va-hopewell-affordable-auto-collision-paint","lat":37.3038584,"lng":-77.2853213,"state":"VA","city":"Hopewell","address":"211 East Poythress Street","zip":"23860","phone":"","email":"","website":"","hours":"","brand":"","services":["body_work"],"shopType":"body_shop"},{"id":"shop-va-smithfield-dave-s-service-center","name":"Dave's Service Center","slug":"va-smithfield-dave-s-service-center","lat":36.9721748,"lng":-76.6519949,"state":"VA","city":"Smithfield","address":"901 West Main Street","zip":"23430","phone":"+1-757-357-9191","email":"hbrown332@gmail.com","website":"https://davesservicecenterinc.com","hours":"Mo-Fr 08:00-17:00 || 24/7 \"towing\"","brand":"","services":["tires"],"shopType":"general_repair"},{"id":"shop-va-woodbridge-belmont-bay-small-engine-repair-llc","name":"Belmont Bay Small Engine Repair LLC","slug":"va-woodbridge-belmont-bay-small-engine-repair-llc","lat":38.6508397,"lng":-77.2471086,"state":"VA","city":"Woodbridge","address":"1210 Cannons Court","zip":"22191","phone":"+1-703-494-9675","email":"","website":"https://belmont-bay-small-engine-repair.business.site","hours":"Mo-Fr 10:00-18:00; Sa 10:00-14:00","brand":"","services":["engine_repair"],"shopType":"general_repair"},{"id":"shop-va-mechanicsville-precision-service-repair","name":"Precision, Service & Repair","slug":"va-mechanicsville-precision-service-repair","lat":37.6045743,"lng":-77.3720984,"state":"VA","city":"Mechanicsville","address":"7286 Atlee Road","zip":"23111","phone":"+1 804-559-0777","email":"","website":"https://www.facebook.com/Precision-Service-and-Repair-LLC-328030764386654","hours":"","brand":"","services":["general_repair"],"shopType":"general_repair"},{"id":"shop-va-richmond-auto-first-tire-center","name":"Auto First & Tire Center","slug":"va-richmond-auto-first-tire-center","lat":37.6022301,"lng":-77.4507211,"state":"VA","city":"Richmond","address":"5000 Chamberlayne Road","zip":"23227","phone":"","email":"","website":"","hours":"","brand":"","services":["tires"],"shopType":"tire_shop"},{"id":"shop-va-ashland-green-tire-auto","name":"Green Tire & Auto","slug":"va-ashland-green-tire-auto","lat":37.6992767,"lng":-77.4398108,"state":"VA","city":"Ashland","address":"10996 Richardson Road","zip":"23005","phone":"+1 804-299-2435","email":"","website":"https://www.facebook.com/GreenTireandAuto","hours":"Mo-Th 08:00-16:00","brand":"","services":["tires"],"shopType":"tire_shop"},{"id":"shop-va-falls-church-annandale-auto-repair","name":"Annandale Auto Repair","slug":"va-falls-church-annandale-auto-repair","lat":38.8671112,"lng":-77.1741901,"state":"VA","city":"Falls Church","address":"3039 Annandale Road","zip":"22042","phone":"+1-703-534-3939","email":"","website":"","hours":"Mo-Sa 08:00-15:00","brand":"","services":["car_repair","oil_change","tires","repairs","inspection","tyres"],"shopType":"general_repair"},{"id":"shop-va-king-william-a-car-care","name":"A+ Car Care","slug":"va-king-william-a-car-care","lat":37.7320792,"lng":-77.1383353,"state":"VA","city":"King William","address":"50 Horse Alley","zip":"23086","phone":"+1 804-769-2273","email":"","website":"http://apluscarcareinc.com/","hours":"","brand":"","services":["general_repair"],"shopType":"general_repair"},{"id":"shop-va-richmond-williamsburg-road-tire","name":"Williamsburg Road Tire","slug":"va-richmond-williamsburg-road-tire","lat":37.518019,"lng":-77.378112,"state":"VA","city":"Richmond","address":"2715 Williamsburg Road","zip":"23231","phone":"+1 804-226-6480","email":"","website":"","hours":"","brand":"","services":["tires"],"shopType":"tire_shop"},{"id":"shop-va-richmond-travis-auto-repair-sales","name":"Travis Auto Repair & Sales","slug":"va-richmond-travis-auto-repair-sales","lat":37.5185822,"lng":-77.3785694,"state":"VA","city":"Richmond","address":"2706 Williamsburg Road","zip":"23231","phone":"+1 804-304-2845","email":"","website":"","hours":"","brand":"","services":["general_repair"],"shopType":"general_repair"},{"id":"shop-va-richmond-wilder-s-tire-and-auto-repair","name":"Wilder's Tire and Auto Repair","slug":"va-richmond-wilder-s-tire-and-auto-repair","lat":37.5182683,"lng":-77.3694008,"state":"VA","city":"Richmond","address":"3205 Williamsburg Road","zip":"23231","phone":"+1 804-222-5680","email":"","website":"https://www.wilderstireandauto.com/","hours":"","brand":"","services":["tires"],"shopType":"tire_shop"},{"id":"shop-va-mechanicsville-hyltons-transmission-services","name":"Hyltons Transmission Services","slug":"va-mechanicsville-hyltons-transmission-services","lat":37.6003045,"lng":-77.379725,"state":"VA","city":"Mechanicsville","address":"8135 Elm Drive","zip":"23111","phone":"+1 804-730-0001","email":"","website":"http://facebook.com/hyltonstransmission","hours":"","brand":"","services":["transmission"],"shopType":"transmission_shop"},{"id":"shop-va-sandston-gorman-sons-collision-center","name":"Gorman & Sons Collision Center","slug":"va-sandston-gorman-sons-collision-center","lat":37.5236576,"lng":-77.3207767,"state":"VA","city":"Sandston","address":"404 West Williamsburg Road","zip":"23150","phone":"+1 804-737-5791","email":"","website":"https://gormanandsonscollision.com/","hours":"","brand":"","services":["body_work"],"shopType":"body_shop"},{"id":"shop-va-sandston-sandston-automotive","name":"Sandston Automotive","slug":"va-sandston-sandston-automotive","lat":37.5235136,"lng":-77.32097,"state":"VA","city":"Sandston","address":"404 West Williamsburg Road","zip":"","phone":"+1 804-737-7206","email":"","website":"https://sandstonautomotive.com/","hours":"","brand":"","services":["general_repair"],"shopType":"general_repair"},{"id":"shop-va-sandston-top-notch-tire-and-auto-center","name":"Top-Notch Tire and Auto Center","slug":"va-sandston-top-notch-tire-and-auto-center","lat":37.5235426,"lng":-77.3198936,"state":"VA","city":"Sandston","address":"322 West Williamsburg Road","zip":"23150","phone":"+1 804-326-0426","email":"","website":"https://www.topnotchtire.net/","hours":"","brand":"","services":["tires"],"shopType":"tire_shop"},{"id":"shop-va-sandston-lloyd-s-tire-auto-repair","name":"Lloyd's Tire & Auto Repair","slug":"va-sandston-lloyd-s-tire-auto-repair","lat":37.5235522,"lng":-77.319565,"state":"VA","city":"Sandston","address":"320 West Williamsburg Road","zip":"23150","phone":"+1 804-737-2828","email":"","website":"","hours":"","brand":"","services":["tires"],"shopType":"tire_shop"},{"id":"shop-va-chantilly-a-1-car-care","name":"A-1 Car Care","slug":"va-chantilly-a-1-car-care","lat":38.8955124,"lng":-77.4284705,"state":"VA","city":"Chantilly","address":"13977 Metrotech Drive","zip":"20151","phone":"+1 703-263-0885","email":"","website":"","hours":"Mo-Fr 08:00-18:00; Sa 08:00-16:00","brand":"","services":["general_repair"],"shopType":"general_repair"},{"id":"shop-va-chantilly-midas","name":"Midas","slug":"va-chantilly-midas","lat":38.895479,"lng":-77.4285174,"state":"VA","city":"Chantilly","address":"13979 Metrotech Drive","zip":"20151","phone":"+1 703-263-2067","email":"","website":"","hours":"Mo-Fr 07:30-17:00; Sa 07:30-15:00","brand":"Midas","services":["general_repair"],"shopType":"general_repair"},{"id":"shop-va-cloverdale-appalachian-truck-equipment-inc","name":"Appalachian Truck & Equipment, Inc","slug":"va-cloverdale-appalachian-truck-equipment-inc","lat":37.3646451,"lng":-79.9017293,"state":"VA","city":"Cloverdale","address":"596 Cougar Drive","zip":"24077","phone":"+1-540-966-0906","email":"info@appalachiantrucks.com","website":"www.appalachiantrucks.com","hours":"Mo-Fr 08:00-17:00","brand":"","services":["general_repair"],"shopType":"general_repair"},{"id":"shop-va-fishersville-coffey-s-garage","name":"Coffey's Garage","slug":"va-fishersville-coffey-s-garage","lat":38.1044084,"lng":-78.9791684,"state":"VA","city":"Fishersville","address":"1503 Jefferson Highway","zip":"22939","phone":"+1-540-886-1948","email":"","website":"","hours":"Mo-Fr 08:30-17:00","brand":"","services":["general_repair"],"shopType":"general_repair"},{"id":"shop-va-colonial-heights-valvoline","name":"Valvoline","slug":"va-colonial-heights-valvoline","lat":37.2585466,"lng":-77.4046238,"state":"VA","city":"Colonial Heights","address":"","zip":"","phone":"","email":"","website":"https://store.vioc.com/va/colonialheights/oil-change-080051.html","hours":"","brand":"Valvoline","services":["oil_change"],"shopType":"quick_lube"},{"id":"shop-va-waynesboro-valvoline","name":"Valvoline","slug":"va-waynesboro-valvoline","lat":38.0850655,"lng":-78.9349175,"state":"VA","city":"Waynesboro","address":"10 Hannah Circle","zip":"22980","phone":"+1-540-470-3303","email":"","website":"","hours":"Mo-Fr 08:00-18:00; Sa 08:00-17:00","brand":"Valvoline","services":["oil_change"],"shopType":"quick_lube"},{"id":"shop-va-waynesboro-mark-martin-s-auto-world","name":"Mark Martin's Auto World","slug":"va-waynesboro-mark-martin-s-auto-world","lat":38.0873081,"lng":-78.9392776,"state":"VA","city":"Waynesboro","address":"2498 Jefferson Highway","zip":"22980","phone":"+1-540-943-2536","email":"","website":"http://www.markmartinsautoworld.com/","hours":"Mo-Fr 08:00-17:00","brand":"","services":["general_repair"],"shopType":"general_repair"},{"id":"shop-va-hampton-valvoline","name":"Valvoline","slug":"va-hampton-valvoline","lat":37.0231497,"lng":-76.4379779,"state":"VA","city":"Hampton","address":"","zip":"","phone":"","email":"","website":"https://store.vioc.com/va/hampton/oil-change-080052.html","hours":"","brand":"Valvoline","services":["oil_change"],"shopType":"quick_lube"},{"id":"shop-va-lebanon-russell-county-school-bus-garage","name":"Russell County School Bus Garage","slug":"va-lebanon-russell-county-school-bus-garage","lat":36.9019941,"lng":-82.0382234,"state":"VA","city":"Lebanon","address":"580 Big Cedar Creek Rd","zip":"24266","phone":"","email":"","website":"","hours":"","brand":"","services":["general_repair"],"shopType":"general_repair"},{"id":"shop-va-disputanta-460-automotive","name":"460 Automotive","slug":"va-disputanta-460-automotive","lat":37.13782,"lng":-77.2481333,"state":"VA","city":"Disputanta","address":"8801 County Drive","zip":"23842","phone":"+18049913208","email":"","website":"","hours":"","brand":"","services":["general_repair"],"shopType":"general_repair"},{"id":"shop-va-henrico-county-performance-collision-centers","name":"Performance Collision Centers","slug":"va-henrico-county-performance-collision-centers","lat":37.5943848,"lng":-77.5085137,"state":"VA","city":"Henrico County","address":"","zip":"","phone":"","email":"","website":"","hours":"","brand":"","services":["body_work"],"shopType":"body_shop"},{"id":"shop-va-richmond-edward-s-auto-care","name":"Edward's Auto Care","slug":"va-richmond-edward-s-auto-care","lat":37.5740774,"lng":-77.484873,"state":"VA","city":"Richmond","address":"","zip":"","phone":"","email":"","website":"","hours":"","brand":"","services":["general_repair"],"shopType":"general_repair"},{"id":"shop-va-richmond-vaskez-auto","name":"Vaskez Auto","slug":"va-richmond-vaskez-auto","lat":37.5810929,"lng":-77.4933528,"state":"VA","city":"Richmond","address":"4825 West Broad Street","zip":"23230","phone":"","email":"","website":"","hours":"","brand":"","services":["general_repair"],"shopType":"general_repair"},{"id":"shop-va-richmond-kershaw-automotive","name":"Kershaw Automotive","slug":"va-richmond-kershaw-automotive","lat":37.5646928,"lng":-77.4737208,"state":"VA","city":"Richmond","address":"","zip":"","phone":"+1 804-355-6666","email":"","website":"cutshawautomotive.com","hours":"","brand":"","services":["general_repair"],"shopType":"general_repair"},{"id":"shop-va-hanover-county-hal-cole-trucks","name":"Hal Cole Trucks","slug":"va-hanover-county-hal-cole-trucks","lat":37.7007565,"lng":-77.4650205,"state":"VA","city":"Hanover County","address":"","zip":"","phone":"","email":"","website":"","hours":"","brand":"","services":["general_repair"],"shopType":"general_repair"},{"id":"shop-va-ashland-valvoline","name":"Valvoline","slug":"va-ashland-valvoline","lat":37.7569793,"lng":-77.4672381,"state":"VA","city":"Ashland","address":"","zip":"","phone":"","email":"","website":"","hours":"","brand":"Valvoline","services":["oil_change"],"shopType":"quick_lube"},{"id":"shop-va-arlington-jiffy-lube","name":"Jiffy Lube","slug":"va-arlington-jiffy-lube","lat":38.8841855,"lng":-77.0996874,"state":"VA","city":"Arlington","address":"950 North Jackson Street","zip":"22201-4424","phone":"+1 703-522-6768","email":"","website":"https://www.jiffylube.com/locations/va/arlington/987","hours":"Mo-Fr 08:00-19:00; Sa 08:00-17:00; Su 08:00-16:00","brand":"Jiffy Lube","services":["oil_change"],"shopType":"quick_lube"},{"id":"shop-va-ashland-independent4x","name":"Independent4x","slug":"va-ashland-independent4x","lat":37.6935263,"lng":-77.4421874,"state":"VA","city":"Ashland","address":"10403 Leadbetter Road","zip":"23005","phone":"+1 804-550-0480","email":"","website":"https://www.independent4x.com/","hours":"","brand":"","services":["general_repair"],"shopType":"general_repair"},{"id":"shop-va-newport-news-pep-boys","name":"Pep Boys","slug":"va-newport-news-pep-boys","lat":37.1119147,"lng":-76.5167707,"state":"VA","city":"Newport News","address":"13200 Warwick Boulevard","zip":"23602","phone":"+1-757-875-5350","email":"","website":"","hours":"Mo-Sa 08:00-19:00; Su 09:00-18:00","brand":"Pep Boys","services":["oil_change","tires","brakes","inspection","tyres"],"shopType":"general_repair"},{"id":"shop-va-hopewell-ppg-collision-repair-center","name":"PPG Collision Repair Center","slug":"va-hopewell-ppg-collision-repair-center","lat":37.303743,"lng":-77.2855774,"state":"VA","city":"Hopewell","address":"","zip":"","phone":"","email":"","website":"","hours":"","brand":"","services":["body_work"],"shopType":"body_shop"},{"id":"shop-va-hopewell-waller-tire-place","name":"Waller Tire Place","slug":"va-hopewell-waller-tire-place","lat":37.3032388,"lng":-77.2841959,"state":"VA","city":"Hopewell","address":"","zip":"","phone":"","email":"","website":"","hours":"","brand":"","services":["tires"],"shopType":"tire_shop"},{"id":"shop-va-newport-news-get-ya-right-automotive-repair","name":"Get Ya Right Automotive Repair","slug":"va-newport-news-get-ya-right-automotive-repair","lat":37.1302846,"lng":-76.5353743,"state":"VA","city":"Newport News","address":"419 Denbigh Boulevard","zip":"23608","phone":"+1-757-877-9626","email":"","website":"","hours":"Mo,We,Fr 08:00-17:00; Tu,Th 08:00-19:00","brand":"","services":["general_repair"],"shopType":"general_repair"},{"id":"shop-va-newport-news-tire-auto-express","name":"Tire Auto Express","slug":"va-newport-news-tire-auto-express","lat":37.1304763,"lng":-76.5355393,"state":"VA","city":"Newport News","address":"419 Denbigh Boulevard","zip":"23608","phone":"+1-757-877-5000","email":"","website":"","hours":"Mo-Fr 09:00-17:30; Sa 09:00-14:00","brand":"","services":["tires"],"shopType":"tire_shop"},{"id":"shop-va-newport-news-matt-s-m-a-r-s-auto-body","name":"Matt's M.A.R.S Auto Body","slug":"va-newport-news-matt-s-m-a-r-s-auto-body","lat":37.1307367,"lng":-76.5357738,"state":"VA","city":"Newport News","address":"419 Denbigh Boulevard","zip":"23608","phone":"+1-757-232-7517","email":"","website":"","hours":"Mo-Fr 08:00-17:00","brand":"","services":["painting","body_work","body_repair"],"shopType":"general_repair"},{"id":"shop-va-newport-news-bay-custom-tinting","name":"Bay Custom Tinting","slug":"va-newport-news-bay-custom-tinting","lat":37.1328873,"lng":-76.5317232,"state":"VA","city":"Newport News","address":"205 Pocahantas Drive","zip":"23608","phone":"+1-757-874-8006","email":"","website":"","hours":"Mo-Fr 09:00-17:30","brand":"","services":["window_tinting"],"shopType":"general_repair"},{"id":"shop-va-manquin-tidewater-off-road","name":"Tidewater Off Road","slug":"va-manquin-tidewater-off-road","lat":37.6951141,"lng":-77.1706703,"state":"VA","city":"Manquin","address":"956 Richmond Tappahannock Highway","zip":"23106","phone":"+1-804-514-4248","email":"","website":"https://www.facebook.com/tidewateroffroadllc/","hours":"","brand":"","services":["general_repair"],"shopType":"general_repair"},{"id":"shop-va-hayes-big-daddy-z-cycles","name":"Big Daddy'z Cycles","slug":"va-hayes-big-daddy-z-cycles","lat":37.2851012,"lng":-76.5074113,"state":"VA","city":"Hayes","address":"2810 George Washington Memorial Highway","zip":"23072","phone":"+1-804-642-3436","email":"","website":"","hours":"We-Fr 10:00-18:00; Sa 10:30-17:00","brand":"","services":["repairs","restoration"],"shopType":"general_repair"},{"id":"shop-va-hayes-s-b-mufflers-and-brakes","name":"S & B Mufflers and Brakes","slug":"va-hayes-s-b-mufflers-and-brakes","lat":37.2861995,"lng":-76.5080555,"state":"VA","city":"Hayes","address":"2852 George Washington Memorial Highway","zip":"23072","phone":"+1-804-684-2427","email":"","website":"","hours":"Mo-Fr 07:00-17:00","brand":"","services":["car_repair","brakes","muffler","repairs","inspection","exhaust"],"shopType":"general_repair"},{"id":"shop-va-hayes-bobby-s-auto-service-center","name":"Bobby's Auto Service Center","slug":"va-hayes-bobby-s-auto-service-center","lat":37.2864476,"lng":-76.508341,"state":"VA","city":"Hayes","address":"2862 George Washington Memorial Highway","zip":"23072","phone":"+1-804-642-4950","email":"","website":"https://bobbysautoservicectr.com/","hours":"Mo-Fr 08:00-17:00","brand":"","services":["car_repair","oil_change","brakes","repairs","inspection","alignment"],"shopType":"general_repair"},{"id":"shop-va-hayes-elite-auto-body","name":"Elite Auto Body","slug":"va-hayes-elite-auto-body","lat":37.2901375,"lng":-76.5097271,"state":"VA","city":"Hayes","address":"2998 George Washington Memorial Highway","zip":"23072","phone":"+1-804-684-5616","email":"","website":"http://eliteautobodyva.com/","hours":"Mo-Fr 08:00-17:00","brand":"","services":["painting","brakes","body_work","body_repair"],"shopType":"general_repair"},{"id":"shop-va-chesterfield-county-valvoline","name":"Valvoline","slug":"va-chesterfield-county-valvoline","lat":37.4294852,"lng":-77.6197026,"state":"VA","city":"Chesterfield County","address":"","zip":"","phone":"","email":"","website":"https://store.vioc.com/va/midlothian/oil-change-080057.html","hours":"","brand":"Valvoline","services":["oil_change"],"shopType":"quick_lube"},{"id":"shop-va-charlottesville-troy-s-auto-diesel","name":"Troy's Auto & Diesel","slug":"va-charlottesville-troy-s-auto-diesel","lat":38.0163588,"lng":-78.418053,"state":"VA","city":"Charlottesville","address":"100 Shadwell Heights Rd","zip":"22911","phone":"+1-434-956-4917","email":"","website":"","hours":"Mo-Fr 08:00-17:00","brand":"","services":["diesel"],"shopType":"general_repair"},{"id":"shop-va-staunton-short-circuit-electronics","name":"Short Circuit Electronics","slug":"va-staunton-short-circuit-electronics","lat":38.1435967,"lng":-79.0583435,"state":"VA","city":"Staunton","address":"600 Richmond Avenue","zip":"24401","phone":"+1-540-886-8805","email":"","website":"http://www.stauntonmachine.com/","hours":"Mo-Fr 09:00-17:00","brand":"","services":["general_repair"],"shopType":"general_repair"},{"id":"shop-va-staunton-warehouse-auto-repair","name":"Warehouse Auto Repair","slug":"va-staunton-warehouse-auto-repair","lat":38.1450473,"lng":-79.0598146,"state":"VA","city":"Staunton","address":"549 Richmond Avenue","zip":"24401","phone":"+1-540-213-1300","email":"","website":"","hours":"Mo-Fr 08:00-17:00","brand":"","services":["general_repair"],"shopType":"general_repair"},{"id":"shop-va-richmond-delta-v-motorsports","name":"Delta V Motorsports","slug":"va-richmond-delta-v-motorsports","lat":37.5568167,"lng":-77.4466262,"state":"VA","city":"Richmond","address":"1510 Webster Street","zip":"23220","phone":"+1-804-355-4440","email":"","website":"https://www.deltavrva.com/","hours":"Mo-Fr 08:00-17:00","brand":"","services":["general_repair"],"shopType":"general_repair"},{"id":"shop-va-fredericksburg-done-right-motorcycle","name":"Done Right Motorcycle","slug":"va-fredericksburg-done-right-motorcycle","lat":38.2644241,"lng":-77.4995774,"state":"VA","city":"Fredericksburg","address":"323C Wallace Lane","zip":"22408","phone":"","email":"","website":"","hours":"","brand":"","services":["general_repair"],"shopType":"general_repair"},{"id":"shop-va-staunton-surratt-auto","name":"Surratt Auto","slug":"va-staunton-surratt-auto","lat":38.1421991,"lng":-79.054723,"state":"VA","city":"Staunton","address":"712 Richmond Avenue","zip":"24401","phone":"+1-540-886-1160","email":"","website":"https://www.surrattauto.com","hours":"Mo-Fr 08:00-17:00","brand":"","services":["general_repair"],"shopType":"general_repair"},{"id":"shop-va-staunton-amg-detail-repair","name":"AMG Detail & Repair","slug":"va-staunton-amg-detail-repair","lat":38.1405087,"lng":-79.0485933,"state":"VA","city":"Staunton","address":"907 Richmond Avenue","zip":"24401","phone":"+1-540-487-8525","email":"","website":"https://www.amgfleet.com/","hours":"Mo-Fr 08:00-17:00; Sa 09:00-15:00; Su 09:00-12:00","brand":"","services":["general_repair"],"shopType":"general_repair"},{"id":"shop-va-lynchburg-rubberbandit-new-used-tires","name":"Rubberbandit New & Used Tires","slug":"va-lynchburg-rubberbandit-new-used-tires","lat":37.4005257,"lng":-79.161825,"state":"VA","city":"Lynchburg","address":"2401 Fort Avenue","zip":"24501","phone":"+1 434-238-0735","email":"","website":"","hours":"Mo,Su off; Tu-Fr 09:00-17:00; Sa 09:00-13:00","brand":"","services":["tires"],"shopType":"tire_shop"},{"id":"shop-va-powhatan-strickland-brothers-10-minute-oil-change","name":"Strickland Brothers 10 Minute Oil Change","slug":"va-powhatan-strickland-brothers-10-minute-oil-change","lat":37.5120555,"lng":-77.7732854,"state":"VA","city":"Powhatan","address":"1860 Stoneridge Commerce Drive","zip":"23139","phone":"+1-800-619-3089","email":"","website":"","hours":"","brand":"","services":["oil_change"],"shopType":"quick_lube"},{"id":"shop-va-blackstone-valvoline-express-care","name":"Valvoline Express Care","slug":"va-blackstone-valvoline-express-care","lat":37.06236,"lng":-78.0057919,"state":"VA","city":"Blackstone","address":"","zip":"","phone":"","email":"","website":"https://locations.expresscare.com/va/blackstone/0000529489/","hours":"","brand":"Valvoline","services":["oil_change"],"shopType":"quick_lube"},{"id":"shop-va-glen-allen-goodyear","name":"Goodyear","slug":"va-glen-allen-goodyear","lat":37.6729845,"lng":-77.4585691,"state":"VA","city":"Glen Allen","address":"10089 Brook Road","zip":"23059","phone":"","email":"","website":"","hours":"","brand":"Goodyear","services":["general_repair"],"shopType":"general_repair"},{"id":"shop-va-front-royal-valvoline","name":"Valvoline","slug":"va-front-royal-valvoline","lat":38.9644392,"lng":-78.1896233,"state":"VA","city":"Front Royal","address":"95 Riverton Commons Drive","zip":"22630","phone":"+1 540-551-4042","email":"","website":"https://store.vioc.com/va/frontroyal/oil-change-080031.html","hours":"","brand":"Valvoline","services":["oil_change"],"shopType":"quick_lube"},{"id":"shop-va-lynchburg-moe-d-s-extreme-auto-body-works-auto-repair","name":"Moe-D's Extreme Auto Body Works & Auto Repair","slug":"va-lynchburg-moe-d-s-extreme-auto-body-works-auto-repair","lat":37.4030465,"lng":-79.1574486,"state":"VA","city":"Lynchburg","address":"2001 12th Street","zip":"","phone":"+1 434 444 1360","email":"","website":"","hours":"","brand":"","services":["body_work"],"shopType":"body_shop"},{"id":"shop-va-chesterfield-county-c-j","name":"C & J","slug":"va-chesterfield-county-c-j","lat":37.35597,"lng":-77.4448166,"state":"VA","city":"Chesterfield County","address":"","zip":"23831","phone":"+1 804-748-4060","email":"","website":"https://www.candjautoservice.com/CJChester-auto-service-center.html","hours":"Mo-Fr 07:30-17:30","brand":"","services":["general_repair"],"shopType":"general_repair"},{"id":"shop-va-colonial-heights-connor-s-small-engine","name":"Connor's Small Engine","slug":"va-colonial-heights-connor-s-small-engine","lat":37.2572371,"lng":-77.3923363,"state":"VA","city":"Colonial Heights","address":"","zip":"","phone":"","email":"","website":"","hours":"","brand":"","services":["engine_repair"],"shopType":"general_repair"},{"id":"shop-va-toano-steele-s-towing","name":"Steele's Towing","slug":"va-toano-steele-s-towing","lat":37.4021734,"lng":-76.8110338,"state":"VA","city":"Toano","address":"8558 Richmond Road","zip":"23168","phone":"+1-757-253-0778","email":"","website":"https://steelestowing.com","hours":"24/7","brand":"","services":["tires","towing","tyres"],"shopType":"general_repair"},{"id":"shop-va-raphine-southern-tire-mart","name":"Southern Tire Mart","slug":"va-raphine-southern-tire-mart","lat":37.9321758,"lng":-79.2331026,"state":"VA","city":"Raphine","address":"711 Oakland Circle","zip":"24472","phone":"","email":"","website":"","hours":"","brand":"","services":["tires"],"shopType":"tire_shop"},{"id":"shop-va-roanoke-county-valvoline","name":"Valvoline","slug":"va-roanoke-county-valvoline","lat":37.3135295,"lng":-79.8819635,"state":"VA","city":"Roanoke County","address":"4025 Challenger Avenue","zip":"","phone":"","email":"","website":"https://store.vioc.com/va/roanoke/oil-change-080028.html","hours":"","brand":"Valvoline","services":["oil_change"],"shopType":"quick_lube"},{"id":"shop-va-cape-charles-eastern-shore-custom-carts","name":"Eastern Shore Custom Carts","slug":"va-cape-charles-eastern-shore-custom-carts","lat":37.2680817,"lng":-76.00999,"state":"VA","city":"Cape Charles","address":"","zip":"","phone":"","email":"","website":"","hours":"","brand":"","services":["general_repair"],"shopType":"general_repair"},{"id":"shop-va-hanover-county-carstar","name":"Carstar","slug":"va-hanover-county-carstar","lat":37.6017895,"lng":-77.3732184,"state":"VA","city":"Hanover County","address":"","zip":"","phone":"","email":"","website":"","hours":"","brand":"Carstar","services":["body_work","body_repair"],"shopType":"general_repair"},{"id":"shop-va-hanover-county-leonard-s-towing","name":"Leonard's Towing","slug":"va-hanover-county-leonard-s-towing","lat":37.7165926,"lng":-77.4675595,"state":"VA","city":"Hanover County","address":"","zip":"","phone":"","email":"","website":"","hours":"","brand":"","services":["general_repair"],"shopType":"general_repair"},{"id":"shop-va-henrico-county-maaco-2","name":"MAACO","slug":"va-henrico-county-maaco-2","lat":37.6421753,"lng":-77.5086008,"state":"VA","city":"Henrico County","address":"","zip":"","phone":"","email":"","website":"","hours":"","brand":"Maaco","services":["painting","body_work","body_repair"],"shopType":"body_shop"},{"id":"shop-va-henrico-county-g-r-auto-service","name":"G&R Auto Service","slug":"va-henrico-county-g-r-auto-service","lat":37.6419462,"lng":-77.4941906,"state":"VA","city":"Henrico County","address":"","zip":"","phone":"","email":"","website":"","hours":"","brand":"","services":["general_repair"],"shopType":"general_repair"},{"id":"shop-va-hanover-county-solar-eclipse-windows-tinting","name":"Solar Eclipse Windows Tinting","slug":"va-hanover-county-solar-eclipse-windows-tinting","lat":37.6909149,"lng":-77.4363947,"state":"VA","city":"Hanover County","address":"","zip":"","phone":"","email":"","website":"","hours":"Mo-Fr 09:00-17:00","brand":"","services":["general_repair"],"shopType":"general_repair"},{"id":"shop-va-hanover-county-autobahn-garage","name":"Autobahn Garage","slug":"va-hanover-county-autobahn-garage","lat":37.6909639,"lng":-77.4363306,"state":"VA","city":"Hanover County","address":"","zip":"","phone":"","email":"","website":"","hours":"","brand":"","services":["general_repair"],"shopType":"general_repair"},