[
  {
    "id": "shop-ny-unknown-main-auto-service",
    "name": "Main Auto Service",
    "slug": "ny-unknown-main-auto-service",
    "lat": 43.6915689,
    "lng": -79.3035512,
    "state": "NY",
    "city": "",
    "address": "",
    "zip": "",
    "phone": "+1-416-693-1212",
    "email": "",
    "website": "",
    "hours": "",
    "brand": "",
    "services": [
      "general_repair"
    ],
    "shopType": "general_repair"
  },
  {
    "id": "shop-ny-unknown-speedy",
    "name": "Speedy",
    "slug": "ny-unknown-speedy",
    "lat": 44.2391589,
    "lng": -76.5062303,
    "state": "NY",
    "city": "",
    "address": "",
    "zip": "",
    "phone": "",
    "email": "",
    "website": "",
    "hours": "",
    "brand": "Speedy",
    "services": [
      "general_repair"
    ],
    "shopType": "general_repair"
  },
  {
    "id": "shop-ny-unknown-woodbine-auto-service",
    "name": "Woodbine Auto Service",
    "slug": "ny-unknown-woodbine-auto-service",
    "lat": 43.6922187,
    "lng": -79.3153854,
    "state": "NY",
    "city": "",
    "address": "",
    "zip": "",
    "phone": "",
    "email": "",
    "website": "",
    "hours": "",
    "brand": "",
    "services": [
      "general_repair"
    ],
    "shopType": "general_repair"
  },
  {
    "id": "shop-ny-unknown-township-tire",
    "name": "Township Tire",
    "slug": "ny-unknown-township-tire",
    "lat": 44.2407107,
    "lng": -76.6011075,
    "state": "NY",
    "city": "",
    "address": "",
    "zip": "",
    "phone": "",
    "email": "",
    "website": "",
    "hours": "",
    "brand": "",
    "services": [
      "tires"
    ],
    "shopType": "tire_shop"
  },
  {
    "id": "shop-ny-unknown-total-auto-service",
    "name": "Total Auto Service",
    "slug": "ny-unknown-total-auto-service",
    "lat": 43.798304,
    "lng": -79.1395006,
    "state": "NY",
    "city": "",
    "address": "",
    "zip": "",
    "phone": "",
    "email": "",
    "website": "",
    "hours": "",
    "brand": "",
    "services": [
      "general_repair"
    ],
    "shopType": "general_repair"
  },
  {
    "id": "shop-ny-unknown-firestone-tire-automotive-centre",
    "name": "Firestone Tire + Automotive Centre",
    "slug": "ny-unknown-firestone-tire-automotive-centre",
    "lat": 43.8316507,
    "lng": -79.0946499,
    "state": "NY",
    "city": "",
    "address": "",
    "zip": "",
    "phone": "",
    "email": "",
    "website": "",
    "hours": "",
    "brand": "Firestone",
    "services": [
      "tires"
    ],
    "shopType": "tire_shop"
  },
  {
    "id": "shop-ny-unknown-mr-transmission",
    "name": "Mr. Transmission",
    "slug": "ny-unknown-mr-transmission",
    "lat": 43.8314827,
    "lng": -79.0945953,
    "state": "NY",
    "city": "",
    "address": "",
    "zip": "",
    "phone": "",
    "email": "",
    "website": "",
    "hours": "",
    "brand": "Mister Transmission",
    "services": [
      "transmission"
    ],
    "shopType": "transmission_shop"
  },
  {
    "id": "shop-ny-unknown-speedy-auto-service",
    "name": "Speedy Auto Service",
    "slug": "ny-unknown-speedy-auto-service",
    "lat": 43.8313352,
    "lng": -79.0945466,
    "state": "NY",
    "city": "",
    "address": "",
    "zip": "",
    "phone": "",
    "email": "",
    "website": "",
    "hours": "",
    "brand": "Speedy Auto Service",
    "services": [
      "general_repair"
    ],
    "shopType": "general_repair"
  },
  {
    "id": "shop-ny-unknown-pickering-carstar-collision",
    "name": "Pickering CarStar Collision",
    "slug": "ny-unknown-pickering-carstar-collision",
    "lat": 43.8308329,
    "lng": -79.0952575,
    "state": "NY",
    "city": "",
    "address": "",
    "zip": "",
    "phone": "",
    "email": "",
    "website": "",
    "hours": "",
    "brand": "",
    "services": [
      "body_work"
    ],
    "shopType": "body_shop"
  },
  {
    "id": "shop-ny-unknown-jiffy-lube",
    "name": "Jiffy Lube",
    "slug": "ny-unknown-jiffy-lube",
    "lat": 43.9043299,
    "lng": -79.4455052,
    "state": "NY",
    "city": "",
    "address": "",
    "zip": "",
    "phone": "",
    "email": "",
    "website": "",
    "hours": "",
    "brand": "Jiffy Lube",
    "services": [
      "oil_change"
    ],
    "shopType": "quick_lube"
  },
  {
    "id": "shop-ny-unknown-mfp-auto-service",
    "name": "MFP Auto Service",
    "slug": "ny-unknown-mfp-auto-service",
    "lat": 43.8514446,
    "lng": -79.4330886,
    "state": "NY",
    "city": "",
    "address": "",
    "zip": "",
    "phone": "",
    "email": "",
    "website": "",
    "hours": "",
    "brand": "",
    "services": [
      "general_repair"
    ],
    "shopType": "general_repair"
  },
  {
    "id": "shop-ny-unknown-mr-lube",
    "name": "Mr. Lube",
    "slug": "ny-unknown-mr-lube",
    "lat": 43.8715717,
    "lng": -79.264978,
    "state": "NY",
    "city": "",
    "address": "",
    "zip": "",
    "phone": "",
    "email": "",
    "website": "",
    "hours": "",
    "brand": "Mr. Lube",
    "services": [
      "oil_change"
    ],
    "shopType": "quick_lube"
  },
  {
    "id": "shop-ny-unknown-jiffy-lube-2",
    "name": "Jiffy Lube",
    "slug": "ny-unknown-jiffy-lube-2",
    "lat": 43.8716529,
    "lng": -79.2682375,
    "state": "NY",
    "city": "",
    "address": "",
    "zip": "",
    "phone": "",
    "email": "",
    "website": "",
    "hours": "",
    "brand": "Jiffy Lube",
    "services": [
      "oil_change"
    ],
    "shopType": "quick_lube"
  },
  {
    "id": "shop-ny-unknown-jiffy-lube-3",
    "name": "Jiffy Lube",
    "slug": "ny-unknown-jiffy-lube-3",
    "lat": 43.8573923,
    "lng": -79.3047342,
    "state": "NY",
    "city": "",
    "address": "",
    "zip": "",
    "phone": "",
    "email": "",
    "website": "",
    "hours": "",
    "brand": "Jiffy Lube",
    "services": [
      "oil_change"
    ],
    "shopType": "quick_lube"
  },
  {
    "id": "shop-ny-unknown-viselco",
    "name": "Viselco",
    "slug": "ny-unknown-viselco",
    "lat": 43.6913661,
    "lng": -79.4683328,
    "state": "NY",
    "city": "",
    "address": "",
    "zip": "",
    "phone": "",
    "email": "",
    "website": "",
    "hours": "",
    "brand": "",
    "services": [
      "general_repair"
    ],
    "shopType": "general_repair"
  },
  {
    "id": "shop-ny-unknown-avo-s-auto-repair",
    "name": "Avo's Auto Repair",
    "slug": "ny-unknown-avo-s-auto-repair",
    "lat": 43.7878084,
    "lng": -79.3525583,
    "state": "NY",
    "city": "",
    "address": "",
    "zip": "",
    "phone": "",
    "email": "",
    "website": "",
    "hours": "",
    "brand": "",
    "services": [
      "general_repair"
    ],
    "shopType": "general_repair"
  },
  {
    "id": "shop-ny-unknown-certigard",
    "name": "Certigard",
    "slug": "ny-unknown-certigard",
    "lat": 43.740631,
    "lng": -79.3196897,
    "state": "NY",
    "city": "",
    "address": "",
    "zip": "",
    "phone": "",
    "email": "",
    "website": "",
    "hours": "",
    "brand": "",
    "services": [
      "general_repair"
    ],
    "shopType": "general_repair"
  },
  {
    "id": "shop-ny-unknown-centre-honda-body-shop",
    "name": "Centre Honda Body Shop",
    "slug": "ny-unknown-centre-honda-body-shop",
    "lat": 43.6542533,
    "lng": -79.368674,
    "state": "NY",
    "city": "",
    "address": "Queen Street East",
    "zip": "",
    "phone": "",
    "email": "",
    "website": "",
    "hours": "",
    "brand": "",
    "services": [
      "body_work"
    ],
    "shopType": "body_shop"
  },
  {
    "id": "shop-ny-unknown-canadian-tire",
    "name": "Canadian Tire",
    "slug": "ny-unknown-canadian-tire",
    "lat": 43.7251708,
    "lng": -79.2929352,
    "state": "NY",
    "city": "",
    "address": "",
    "zip": "",
    "phone": "",
    "email": "",
    "website": "https://www.canadiantire.ca/en/store-details/on/warden-eglinton-on-30.html",
    "hours": "",
    "brand": "Canadian Tire",
    "services": [
      "tires"
    ],
    "shopType": "tire_shop"
  },
  {
    "id": "shop-ny-unknown-super-tire-auto",
    "name": "Super Tire & Auto",
    "slug": "ny-unknown-super-tire-auto",
    "lat": 43.719024,
    "lng": -79.5159761,
    "state": "NY",
    "city": "",
    "address": "",
    "zip": "",
    "phone": "",
    "email": "",
    "website": "",
    "hours": "",
    "brand": "",
    "services": [
      "tires"
    ],
    "shopType": "tire_shop"
  },
  {
    "id": "shop-ny-unknown-ok-tire",
    "name": "OK Tire",
    "slug": "ny-unknown-ok-tire",
    "lat": 43.6733989,
    "lng": -79.4154836,
    "state": "NY",
    "city": "",
    "address": "490 Dupont Street",
    "zip": "",
    "phone": "+1 416-964-2250",
    "email": "",
    "website": "https://www.oktire.com/stores/ok-tire-toronto-the-annex/",
    "hours": "",
    "brand": "OK Tire",
    "services": [
      "tires"
    ],
    "shopType": "tire_shop"
  },
  {
    "id": "shop-ny-unknown-auto-expert-auto-service",
    "name": "Auto Expert Auto Service",
    "slug": "ny-unknown-auto-expert-auto-service",
    "lat": 43.673371,
    "lng": -79.4156527,
    "state": "NY",
    "city": "",
    "address": "490 Dupont Street",
    "zip": "",
    "phone": "+1 416-319-7860",
    "email": "",
    "website": "",
    "hours": "",
    "brand": "",
    "services": [
      "general_repair"
    ],
    "shopType": "general_repair"
  },
  {
    "id": "shop-ny-unknown-canadian-tire-auto-repair",
    "name": "Canadian Tire Auto Repair",
    "slug": "ny-unknown-canadian-tire-auto-repair",
    "lat": 43.7422177,
    "lng": -79.5827125,
    "state": "NY",
    "city": "",
    "address": "1530 Albion Road",
    "zip": "",
    "phone": "",
    "email": "",
    "website": "",
    "hours": "",
    "brand": "Canadian Tire",
    "services": [
      "tires"
    ],
    "shopType": "tire_shop"
  },
  {
    "id": "shop-ny-unknown-premium-tire-auto-centre",
    "name": "Premium Tire & Auto Centre",
    "slug": "ny-unknown-premium-tire-auto-centre",
    "lat": 43.6511433,
    "lng": -79.7121742,
    "state": "NY",
    "city": "",
    "address": "",
    "zip": "",
    "phone": "",
    "email": "",
    "website": "",
    "hours": "",
    "brand": "",
    "services": [
      "tires"
    ],
    "shopType": "tire_shop"
  },
  {
    "id": "shop-ny-unknown-supreme-lube",
    "name": "Supreme Lube",
    "slug": "ny-unknown-supreme-lube",
    "lat": 43.697499,
    "lng": -79.5463288,
    "state": "NY",
    "city": "",
    "address": "",
    "zip": "",
    "phone": "",
    "email": "",
    "website": "",
    "hours": "",
    "brand": "",
    "services": [
      "oil_change"
    ],
    "shopType": "quick_lube"
  },
  {
    "id": "shop-ny-unknown-midas",
    "name": "Midas",
    "slug": "ny-unknown-midas",
    "lat": 43.6282365,
    "lng": -79.629671,
    "state": "NY",
    "city": "",
    "address": "",
    "zip": "",
    "phone": "",
    "email": "",
    "website": "https://www.midas.com/",
    "hours": "",
    "brand": "Midas",
    "services": [
      "general_repair"
    ],
    "shopType": "general_repair"
  },
  {
    "id": "shop-ny-unknown-north-queen-auto-centre",
    "name": "North Queen Auto Centre",
    "slug": "ny-unknown-north-queen-auto-centre",
    "lat": 43.6228929,
    "lng": -79.5400554,
    "state": "NY",
    "city": "",
    "address": "64 North Queen Street",
    "zip": "",
    "phone": "+1-416-239-4021",
    "email": "",
    "website": "",
    "hours": "",
    "brand": "",
    "services": [
      "general_repair"
    ],
    "shopType": "general_repair"
  },
  {
    "id": "shop-ny-unknown-fix-auto",
    "name": "Fix Auto",
    "slug": "ny-unknown-fix-auto",
    "lat": 43.6285687,
    "lng": -79.5427416,
    "state": "NY",
    "city": "",
    "address": "55 Shorncliffe Road",
    "zip": "",
    "phone": "+1-416-239-4385",
    "email": "",
    "website": "https://fixauto.com/etobicoke/en/",
    "hours": "Mo-Fr 08:00-17:00; Sa-Su closed",
    "brand": "",
    "services": [
      "general_repair"
    ],
    "shopType": "general_repair"
  },
  {
    "id": "shop-ny-unknown-certigard-2",
    "name": "Certigard",
    "slug": "ny-unknown-certigard-2",
    "lat": 43.7211045,
    "lng": -79.6409578,
    "state": "NY",
    "city": "",
    "address": "",
    "zip": "",
    "phone": "",
    "email": "",
    "website": "",
    "hours": "",
    "brand": "",
    "services": [
      "general_repair"
    ],
    "shopType": "general_repair"
  },
  {
    "id": "shop-ny-unknown-york-mills-automotive",
    "name": "York Mills Automotive",
    "slug": "ny-unknown-york-mills-automotive",
    "lat": 43.7575671,
    "lng": -79.3591137,
    "state": "NY",
    "city": "",
    "address": "",
    "zip": "",
    "phone": "",
    "email": "",
    "website": "",
    "hours": "",
    "brand": "",
    "services": [
      "general_repair"
    ],
    "shopType": "general_repair"
  },
  {
    "id": "shop-ny-unknown-active-green-ross",
    "name": "Active Green + Ross",
    "slug": "ny-unknown-active-green-ross",
    "lat": 43.7474825,
    "lng": -79.3122139,
    "state": "NY",
    "city": "",
    "address": "",
    "zip": "",
    "phone": "",
    "email": "",
    "website": "https://www.activegreenross.com/",
    "hours": "",
    "brand": "Active Green + Ross",
    "services": [
      "general_repair"
    ],
    "shopType": "general_repair"
  },
  {
    "id": "shop-ny-unknown-firestone-tire-auto",
    "name": "Firestone Tire+Auto",
    "slug": "ny-unknown-firestone-tire-auto",
    "lat": 43.6974078,
    "lng": -79.275216,
    "state": "NY",
    "city": "",
    "address": "",
    "zip": "",
    "phone": "",
    "email": "",
    "website": "",
    "hours": "",
    "brand": "Firestone",
    "services": [
      "tires"
    ],
    "shopType": "tire_shop"
  },
  {
    "id": "shop-ny-unknown-autopro",
    "name": "Autopro",
    "slug": "ny-unknown-autopro",
    "lat": 44.9027092,
    "lng": -76.2809629,
    "state": "NY",
    "city": "",
    "address": "",
    "zip": "",
    "phone": "",
    "email": "",
    "website": "",
    "hours": "",
    "brand": "",
    "services": [
      "general_repair"
    ],
    "shopType": "general_repair"
  },
  {
    "id": "shop-ny-unknown-mister-transmission",
    "name": "Mister Transmission",
    "slug": "ny-unknown-mister-transmission",
    "lat": 44.2374195,
    "lng": -76.5642845,
    "state": "NY",
    "city": "",
    "address": "",
    "zip": "",
    "phone": "",
    "email": "",
    "website": "",
    "hours": "",
    "brand": "Mister Transmission",
    "services": [
      "transmission"
    ],
    "shopType": "transmission_shop"
  },
  {
    "id": "shop-ny-unknown-dufferin-bloor-auto-repair-sales",
    "name": "Dufferin & Bloor Auto Repair & Sales",
    "slug": "ny-unknown-dufferin-bloor-auto-repair-sales",
    "lat": 43.6630745,
    "lng": -79.436895,
    "state": "NY",
    "city": "",
    "address": "",
    "zip": "",
    "phone": "+1-416-531-5353",
    "email": "",
    "website": "",
    "hours": "",
    "brand": "",
    "services": [
      "general_repair"
    ],
    "shopType": "general_repair"
  },
  {
    "id": "shop-ny-unknown-kal-tire",
    "name": "Kal Tire",
    "slug": "ny-unknown-kal-tire",
    "lat": 44.2713476,
    "lng": -76.5681123,
    "state": "NY",
    "city": "",
    "address": "630 Fortune Crescent",
    "zip": "K7P 2T3",
    "phone": "",
    "email": "",
    "website": "https://www.kaltire.com/",
    "hours": "Mo-Fr 07:30-18:00; Sa 08:00-17:00",
    "brand": "Kal Tire",
    "services": [
      "tires"
    ],
    "shopType": "tire_shop"
  },
  {
    "id": "shop-ny-unknown-superior-tire-automotive",
    "name": "Superior Tire & Automotive",
    "slug": "ny-unknown-superior-tire-automotive",
    "lat": 43.7612184,
    "lng": -79.4657635,
    "state": "NY",
    "city": "",
    "address": "",
    "zip": "",
    "phone": "",
    "email": "",
    "website": "",
    "hours": "",
    "brand": "",
    "services": [
      "tires"
    ],
    "shopType": "tire_shop"
  },
  {
    "id": "shop-ny-unknown-fallingbrook-auto-garage",
    "name": "Fallingbrook Auto Garage",
    "slug": "ny-unknown-fallingbrook-auto-garage",
    "lat": 43.6865853,
    "lng": -79.2730763,
    "state": "NY",
    "city": "",
    "address": "",
    "zip": "",
    "phone": "",
    "email": "",
    "website": "",
    "hours": "",
    "brand": "",
    "services": [
      "general_repair"
    ],
    "shopType": "general_repair"
  },
  {
    "id": "shop-ny-unknown-jiffy-lube-4",
    "name": "Jiffy Lube",
    "slug": "ny-unknown-jiffy-lube-4",
    "lat": 43.4194062,
    "lng": -79.7172687,
    "state": "NY",
    "city": "",
    "address": "",
    "zip": "",
    "phone": "",
    "email": "",
    "website": "",
    "hours": "",
    "brand": "Jiffy Lube",
    "services": [
      "oil_change"
    ],
    "shopType": "quick_lube"
  },
  {
    "id": "shop-ny-unknown-meineke",
    "name": "Meineke",
    "slug": "ny-unknown-meineke",
    "lat": 43.4386723,
    "lng": -79.676393,
    "state": "NY",
    "city": "",
    "address": "143 Lakeshore Road East",
    "zip": "L6K 1E5",
    "phone": "+1-289-813-8929",
    "email": "",
    "website": "https://www.meineke.ca",
    "hours": "Mo-Fr 08:00-18:00; Sa 09:00-18:00; Su closed",
    "brand": "Meineke",
    "services": [
      "exhaust"
    ],
    "shopType": "general_repair"
  },
  {
    "id": "shop-ny-unknown-canadian-tire-2",
    "name": "Canadian Tire",
    "slug": "ny-unknown-canadian-tire-2",
    "lat": 43.7160888,
    "lng": -79.4481097,
    "state": "NY",
    "city": "",
    "address": "",
    "zip": "",
    "phone": "",
    "email": "",
    "website": "https://www.canadiantire.ca/en/store-details/on/lawrence-allen-expwy-on-19.html",
    "hours": "Mo-Fr 08:00-21:00; Sa,Su 08:00-20:00",
    "brand": "Canadian Tire",
    "services": [
      "tires"
    ],
    "shopType": "tire_shop"
  },
  {
    "id": "shop-ny-unknown-certigard-3",
    "name": "Certigard",
    "slug": "ny-unknown-certigard-3",
    "lat": 43.804002,
    "lng": -79.3954583,
    "state": "NY",
    "city": "",
    "address": "",
    "zip": "",
    "phone": "",
    "email": "",
    "website": "",
    "hours": "",
    "brand": "",
    "services": [
      "general_repair"
    ],
    "shopType": "general_repair"
  },
  {
    "id": "shop-ny-unknown-goodyear",
    "name": "Goodyear",
    "slug": "ny-unknown-goodyear",
    "lat": 43.7266222,
    "lng": -79.4318063,
    "state": "NY",
    "city": "",
    "address": "",
    "zip": "",
    "phone": "",
    "email": "",
    "website": "",
    "hours": "",
    "brand": "Goodyear",
    "services": [
      "tires"
    ],
    "shopType": "general_repair"
  },
  {
    "id": "shop-me-unknown-roger-s-muffler-center-ltd",
    "name": "Roger's Muffler Center Ltd.",
    "slug": "me-unknown-roger-s-muffler-center-ltd",
    "lat": 47.0435826,
    "lng": -67.7444915,
    "state": "ME",
    "city": "",
    "address": "",
    "zip": "",
    "phone": "",
    "email": "",
    "website": "",
    "hours": "",
    "brand": "",
    "services": [
      "exhaust"
    ],
    "shopType": "general_repair"
  },
  {
    "id": "shop-ny-unknown-apple-auto-glass",
    "name": "Apple Auto Glass",
    "slug": "ny-unknown-apple-auto-glass",
    "lat": 43.7901837,
    "lng": -79.2692718,
    "state": "NY",
    "city": "",
    "address": "",
    "zip": "",
    "phone": "",
    "email": "",
    "website": "",
    "hours": "",
    "brand": "",
    "services": [
      "general_repair"
    ],
    "shopType": "general_repair"
  },
  {
    "id": "shop-ny-unknown-aamco-transmissions",
    "name": "AAMCO Transmissions",
    "slug": "ny-unknown-aamco-transmissions",
    "lat": 43.6879512,
    "lng": -79.739565,
    "state": "NY",
    "city": "",
    "address": "",
    "zip": "",
    "phone": "",
    "email": "",
    "website": "",
    "hours": "",
    "brand": "AAMCO",
    "services": [
      "transmission"
    ],
    "shopType": "transmission_shop"
  },
  {
    "id": "shop-ny-unknown-active-green-ross-2",
    "name": "Active Green + Ross",
    "slug": "ny-unknown-active-green-ross-2",
    "lat": 43.6481372,
    "lng": -79.3908285,
    "state": "NY",
    "city": "",
    "address": "",
    "zip": "",
    "phone": "",
    "email": "",
    "website": "https://www.activegreenross.com/",
    "hours": "",
    "brand": "Active Green + Ross",
    "services": [
      "general_repair"
    ],
    "shopType": "general_repair"
  },
  {
    "id": "shop-ny-unknown-active-green-ross-3",
    "name": "Active Green + Ross",
    "slug": "ny-unknown-active-green-ross-3",
    "lat": 43.8124767,
    "lng": -79.3600152,
    "state": "NY",
    "city": "",
    "address": "",
    "zip": "",
    "phone": "",
    "email": "",
    "website": "https://www.activegreenross.com/",
    "hours": "",
    "brand": "Active Green + Ross",
    "services": [
      "general_repair"
    ],
    "shopType": "general_repair"
  },
  {
    "id": "shop-ny-unknown-trafalgar-tire",
    "name": "Trafalgar Tire",
    "slug": "ny-unknown-trafalgar-tire",
    "lat": 43.4647036,
    "lng": -79.685661,
    "state": "NY",
    "city": "",
    "address": "",
    "zip": "",
    "phone": "",
    "email": "",
    "website": "",
    "hours": "",
    "brand": "",
    "services": [
      "tires"
    ],
    "shopType": "tire_shop"
  },
  {
    "id": "shop-ny-unknown-firestone",
    "name": "Firestone",
    "slug": "ny-unknown-firestone",
    "lat": 43.6948391,
    "lng": -79.7476908,
    "state": "NY",
    "city": "",
    "address": "",
    "zip": "",
    "phone": "",
    "email": "",
    "website": "",
    "hours": "",
    "brand": "Firestone",
    "services": [
      "tires"
    ],
    "shopType": "general_repair"
  },
  {
    "id": "shop-ny-unknown-tech-net-professional-auto-service",
    "name": "Tech-Net Professional Auto Service",
    "slug": "ny-unknown-tech-net-professional-auto-service",
    "lat": 43.7021574,
    "lng": -79.3880301,
    "state": "NY",
    "city": "",
    "address": "",
    "zip": "",
    "phone": "",
    "email": "",
    "website": "",
    "hours": "",
    "brand": "",
    "services": [
      "general_repair"
    ],
    "shopType": "general_repair"
  },
  {
    "id": "shop-ny-unknown-performance-plus",
    "name": "Performance Plus",
    "slug": "ny-unknown-performance-plus",
    "lat": 44.238515,
    "lng": -76.50604,
    "state": "NY",
    "city": "",
    "address": "",
    "zip": "",
    "phone": "",
    "email": "",
    "website": "",
    "hours": "",
    "brand": "",
    "services": [
      "general_repair"
    ],
    "shopType": "general_repair"
  },
  {
    "id": "shop-ny-unknown-north-toronto-tire",
    "name": "North Toronto Tire",
    "slug": "ny-unknown-north-toronto-tire",
    "lat": 43.771903,
    "lng": -79.4718815,
    "state": "NY",
    "city": "",
    "address": "",
    "zip": "",
    "phone": "",
    "email": "",
    "website": "",
    "hours": "",
    "brand": "",
    "services": [
      "tires"
    ],
    "shopType": "tire_shop"
  },
  {
    "id": "shop-ny-unknown-andy-auto",
    "name": "Andy Auto",
    "slug": "ny-unknown-andy-auto",
    "lat": 43.531583,
    "lng": -79.608072,
    "state": "NY",
    "city": "",
    "address": "",
    "zip": "",
    "phone": "+1-905-891-5424",
    "email": "",
    "website": "",
    "hours": "",
    "brand": "",
    "services": [
      "general_repair"
    ],
    "shopType": "general_repair"
  },
  {
    "id": "shop-ny-unknown-a-a-auto-garage",
    "name": "A&A Auto Garage",
    "slug": "ny-unknown-a-a-auto-garage",
    "lat": 43.6427531,
    "lng": -79.4119965,
    "state": "NY",
    "city": "",
    "address": "",
    "zip": "",
    "phone": "+1-416-703-7038",
    "email": "",
    "website": "",
    "hours": "",
    "brand": "",
    "services": [
      "general_repair"
    ],
    "shopType": "general_repair"
  },
  {
    "id": "shop-ny-unknown-mount-pleasant-auto-service",
    "name": "Mount Pleasant Auto Service",
    "slug": "ny-unknown-mount-pleasant-auto-service",
    "lat": 43.713023,
    "lng": -79.391585,
    "state": "NY",
    "city": "",
    "address": "963 Mount Pleasant Road",
    "zip": "",
    "phone": "",
    "email": "",
    "website": "",
    "hours": "",
    "brand": "",
    "services": [
      "general_repair"
    ],
    "shopType": "general_repair"
  },
  {
    "id": "shop-ny-unknown-canadian-tire-3",
    "name": "Canadian Tire",
    "slug": "ny-unknown-canadian-tire-3",
    "lat": 43.609908,
    "lng": -79.695584,
    "state": "NY",
    "city": "",
    "address": "",
    "zip": "",
    "phone": "",
    "email": "",
    "website": "https://www.canadiantire.ca/en/store-details/on/mississauga-heartland-on-497.html",
    "hours": "Mo-Fr 08:00-21:00; Sa 08:00-20:00; Su 09:00-18:00",
    "brand": "Canadian Tire",
    "services": [
      "tires"
    ],
    "shopType": "tire_shop"
  },
  {
    "id": "shop-ny-unknown-mr-lube-2",
    "name": "Mr. Lube",
    "slug": "ny-unknown-mr-lube-2",
    "lat": 43.5775697,
    "lng": -79.7330364,
    "state": "NY",
    "city": "",
    "address": "",
    "zip": "",
    "phone": "",
    "email": "",
    "website": "",
    "hours": "",
    "brand": "Mr. Lube",
    "services": [
      "oil_change"
    ],
    "shopType": "quick_lube"
  },
  {
    "id": "shop-ny-unknown-britannia-auto-service-centre",
    "name": "Britannia Auto Service Centre",
    "slug": "ny-unknown-britannia-auto-service-centre",
    "lat": 43.5687936,
    "lng": -79.7431884,
    "state": "NY",
    "city": "",
    "address": "2990 Britannia Road West",
    "zip": "",
    "phone": "",
    "email": "",
    "website": "",
    "hours": "",
    "brand": "",
    "services": [
      "general_repair"
    ],
    "shopType": "general_repair"
  },
  {
    "id": "shop-ny-unknown-autopro-bathurst-car-care",
    "name": "Autopro Bathurst Car Care",
    "slug": "ny-unknown-autopro-bathurst-car-care",
    "lat": 43.78001,
    "lng": -79.444176,
    "state": "NY",
    "city": "",
    "address": "",
    "zip": "",
    "phone": "",
    "email": "",
    "website": "",
    "hours": "",
    "brand": "",
    "services": [
      "general_repair"
    ],
    "shopType": "general_repair"
  },
  {
    "id": "shop-ny-unknown-master-mechanic",
    "name": "Master Mechanic",
    "slug": "ny-unknown-master-mechanic",
    "lat": 43.735406,
    "lng": -79.599439,
    "state": "NY",
    "city": "",
    "address": "",
    "zip": "",
    "phone": "",
    "email": "",
    "website": "",
    "hours": "",
    "brand": "Master Mechanic",
    "services": [
      "general_repair"
    ],
    "shopType": "general_repair"
  },
  {
    "id": "shop-ny-unknown-tich-auto-services",
    "name": "Tich Auto Services",
    "slug": "ny-unknown-tich-auto-services",
    "lat": 43.80477,
    "lng": -79.298071,
    "state": "NY",
    "city": "",
    "address": "",
    "zip": "",
    "phone": "",
    "email": "",
    "website": "",
    "hours": "",
    "brand": "",
    "services": [
      "general_repair"
    ],
    "shopType": "general_repair"
  },
  {
    "id": "shop-ny-unknown-7-stop-auto-inc",
    "name": "7 Stop Auto Inc.",
    "slug": "ny-unknown-7-stop-auto-inc",
    "lat": 43.7826229,
    "lng": -79.1712224,
    "state": "NY",
    "city": "",
    "address": "",
    "zip": "",
    "phone": "",
    "email": "",
    "website": "",
    "hours": "",
    "brand": "",
    "services": [
      "general_repair"
    ],
    "shopType": "general_repair"
  },
  {
    "id": "shop-ny-unknown-master-mechanic-2",
    "name": "Master Mechanic",
    "slug": "ny-unknown-master-mechanic-2",
    "lat": 43.895558,
    "lng": -78.873965,
    "state": "NY",
    "city": "",
    "address": "",
    "zip": "",
    "phone": "",
    "email": "",
    "website": "",
    "hours": "",
    "brand": "Master Mechanic",
    "services": [
      "general_repair"
    ],
    "shopType": "general_repair"
  },
  {
    "id": "shop-ny-unknown-speedy-2",
    "name": "Speedy",
    "slug": "ny-unknown-speedy-2",
    "lat": 43.8961186,
    "lng": -78.8710202,
    "state": "NY",
    "city": "",
    "address": "",
    "zip": "",
    "phone": "",
    "email": "",
    "website": "",
    "hours": "",
    "brand": "",
    "services": [
      "general_repair"
    ],
    "shopType": "general_repair"
  },
  {
    "id": "shop-ny-unknown-midas-2",
    "name": "Midas",
    "slug": "ny-unknown-midas-2",
    "lat": 43.55375,
    "lng": -79.723144,
    "state": "NY",
    "city": "",
    "address": "",
    "zip": "",
    "phone": "+1 9058260700",
    "email": "",
    "website": "https://www.midas.com/",
    "hours": "",
    "brand": "Midas",
    "services": [
      "general_repair"
    ],
    "shopType": "general_repair"
  },
  {
    "id": "shop-ny-unknown-krown",
    "name": "Krown",
    "slug": "ny-unknown-krown",
    "lat": 43.576981,
    "lng": -79.559049,
    "state": "NY",
    "city": "",
    "address": "",
    "zip": "",
    "phone": "",
    "email": "",
    "website": "",
    "hours": "",
    "brand": "",
    "services": [
      "general_repair"
    ],
    "shopType": "general_repair"
  },
  {
    "id": "shop-ny-unknown-shannon-s-garage",
    "name": "Shannon's Garage",
    "slug": "ny-unknown-shannon-s-garage",
    "lat": 44.3198215,
    "lng": -76.5032392,
    "state": "NY",
    "city": "",
    "address": "",
    "zip": "",
    "phone": "",
    "email": "",
    "website": "",
    "hours": "",
    "brand": "",
    "services": [
      "general_repair"
    ],
    "shopType": "general_repair"
  },
  {
    "id": "shop-ny-unknown-auto-maxx-automotive",
    "name": "Auto Maxx Automotive",
    "slug": "ny-unknown-auto-maxx-automotive",
    "lat": 44.23783,
    "lng": -76.504324,
    "state": "NY",
    "city": "",
    "address": "",
    "zip": "",
    "phone": "",
    "email": "",
    "website": "",
    "hours": "",
    "brand": "",
    "services": [
      "general_repair"
    ],
    "shopType": "general_repair"
  },
  {
    "id": "shop-ny-unknown-kd-auto-service",
    "name": "KD Auto Service",
    "slug": "ny-unknown-kd-auto-service",
    "lat": 43.6257192,
    "lng": -79.7288684,
    "state": "NY",
    "city": "",
    "address": "",
    "zip": "",
    "phone": "",
    "email": "",
    "website": "",
    "hours": "",
    "brand": "",
    "services": [
      "general_repair"
    ],
    "shopType": "general_repair"
  },
  {
    "id": "shop-nj-unknown-pep-boys",
    "name": "Pep Boys",
    "slug": "nj-unknown-pep-boys",
    "lat": 40.6738467,
    "lng": -73.9870713,
    "state": "NJ",
    "city": "",
    "address": "354 4th Avenue",
    "zip": "11215",
    "phone": "",
    "email": "",
    "website": "https://www.pepboys.com",
    "hours": "Mo-Fr 07:30-21:00; Sa 07:30-20:00; Su 09:00-18:00",
    "brand": "Pep Boys",
    "services": [
      "general_repair"
    ],
    "shopType": "general_repair"
  },
  {
    "id": "shop-ny-unknown-canadian-tire-auto-centre",
    "name": "Canadian Tire Auto Centre",
    "slug": "ny-unknown-canadian-tire-auto-centre",
    "lat": 43.7654954,
    "lng": -79.4674204,
    "state": "NY",
    "city": "",
    "address": "",
    "zip": "",
    "phone": "",
    "email": "",
    "website": "https://www.canadiantire.ca/en/store-details/on/dufferin-finch-auto-ctr-on-485.html",
    "hours": "",
    "brand": "Canadian Tire",
    "services": [
      "tires"
    ],
    "shopType": "tire_shop"
  },
  {
    "id": "shop-ny-unknown-spincam-tirecraft-auto-centre",
    "name": "Spincam Tirecraft Auto Centre",
    "slug": "ny-unknown-spincam-tirecraft-auto-centre",
    "lat": 43.9450675,
    "lng": -79.455494,
    "state": "NY",
    "city": "",
    "address": "",
    "zip": "",
    "phone": "+1 289-234-8473",
    "email": "",
    "website": "",
    "hours": "",
    "brand": "",
    "services": [
      "tires"
    ],
    "shopType": "tire_shop"
  },
  {
    "id": "shop-me-unknown-garage-simon-lagrange",
    "name": "Garage Simon Lagrange",
    "slug": "me-unknown-garage-simon-lagrange",
    "lat": 46.5698621,
    "lng": -70.0904291,
    "state": "ME",
    "city": "",
    "address": "",
    "zip": "",
    "phone": "",
    "email": "",
    "website": "",
    "hours": "",
    "brand": "",
    "services": [
      "general_repair"
    ],
    "shopType": "general_repair"
  },
  {
    "id": "shop-nj-unknown-dave-s-automotive",
    "name": "Dave's Automotive",
    "slug": "nj-unknown-dave-s-automotive",
    "lat": 40.7549319,
    "lng": -75.2619542,
    "state": "NJ",
    "city": "",
    "address": "114 Main Street",
    "zip": "18083",
    "phone": "",
    "email": "",
    "website": "https://www.davesautomotivepa.com/",
    "hours": "",
    "brand": "",
    "services": [
      "general_repair"
    ],
    "shopType": "general_repair"
  },
  {
    "id": "shop-ny-unknown-mr-lube-3",
    "name": "Mr. Lube",
    "slug": "ny-unknown-mr-lube-3",
    "lat": 43.6267378,
    "lng": -79.5659189,
    "state": "NY",
    "city": "",
    "address": "",
    "zip": "",
    "phone": "",
    "email": "",
    "website": "",
    "hours": "",
    "brand": "Mr. Lube",
    "services": [
      "oil_change"
    ],
    "shopType": "quick_lube"
  },
  {
    "id": "shop-ny-unknown-walsh-s-auto-collision",
    "name": "Walsh's Auto Collision",
    "slug": "ny-unknown-walsh-s-auto-collision",
    "lat": 43.6148293,
    "lng": -79.4981018,
    "state": "NY",
    "city": "",
    "address": "286 Royal York Road",
    "zip": "",
    "phone": "",
    "email": "",
    "website": "",
    "hours": "",
    "brand": "",
    "services": [
      "body_work"
    ],
    "shopType": "body_shop"
  },
  {
    "id": "shop-ny-unknown-oaktown-collision",
    "name": "Oaktown Collision",
    "slug": "ny-unknown-oaktown-collision",
    "lat": 43.461036,
    "lng": -79.681573,
    "state": "NY",
    "city": "",
    "address": "",
    "zip": "",
    "phone": "",
    "email": "",
    "website": "",
    "hours": "",
    "brand": "",
    "services": [
      "body_work"
    ],
    "shopType": "body_shop"
  },
  {
    "id": "shop-ny-unknown-oakridge-auto-service",
    "name": "Oakridge Auto Service",
    "slug": "ny-unknown-oakridge-auto-service",
    "lat": 43.446976,
    "lng": -79.693605,
    "state": "NY",
    "city": "",
    "address": "",
    "zip": "",
    "phone": "",
    "email": "",
    "website": "",
    "hours": "",
    "brand": "",
    "services": [
      "general_repair"
    ],
    "shopType": "general_repair"
  },
  {
    "id": "shop-ny-unknown-strong-automotive",
    "name": "Strong Automotive",
    "slug": "ny-unknown-strong-automotive",
    "lat": 43.764403,
    "lng": -79.396649,
    "state": "NY",
    "city": "",
    "address": "",
    "zip": "",
    "phone": "",
    "email": "",
    "website": "",
    "hours": "",
    "brand": "",
    "services": [
      "general_repair"
    ],
    "shopType": "general_repair"
  },
  {
    "id": "shop-ny-unknown-canadian-tire-auto-centre-2",
    "name": "Canadian Tire Auto Centre",
    "slug": "ny-unknown-canadian-tire-auto-centre-2",
    "lat": 43.6186059,
    "lng": -79.5461049,
    "state": "NY",
    "city": "",
    "address": "1608 The Queensway",
    "zip": "",
    "phone": "",
    "email": "",
    "website": "",
    "hours": "",
    "brand": "Canadian Tire",
    "services": [
      "tires"
    ],
    "shopType": "tire_shop"
  },
  {
    "id": "shop-ny-unknown-four-star-auto",
    "name": "Four Star Auto",
    "slug": "ny-unknown-four-star-auto",
    "lat": 43.815964,
    "lng": -79.425075,
    "state": "NY",
    "city": "",
    "address": "",
    "zip": "",
    "phone": "",
    "email": "",
    "website": "",
    "hours": "",
    "brand": "",
    "services": [
      "general_repair"
    ],
    "shopType": "general_repair"
  },
  {
    "id": "shop-ny-unknown-sal-s-auto-service",
    "name": "Sal's Auto Service",
    "slug": "ny-unknown-sal-s-auto-service",
    "lat": 43.5790056,
    "lng": -79.587157,
    "state": "NY",
    "city": "",
    "address": "",
    "zip": "",
    "phone": "",
    "email": "",
    "website": "",
    "hours": "",
    "brand": "",
    "services": [
      "general_repair"
    ],
    "shopType": "general_repair"
  },
  {
    "id": "shop-ny-unknown-supreme-collision-centre",
    "name": "Supreme Collision Centre",
    "slug": "ny-unknown-supreme-collision-centre",
    "lat": 43.807525,
    "lng": -79.421774,
    "state": "NY",
    "city": "",
    "address": "",
    "zip": "",
    "phone": "",
    "email": "",
    "website": "",
    "hours": "",
    "brand": "",
    "services": [
      "body_work"
    ],
    "shopType": "body_shop"
  },
  {
    "id": "shop-ny-unknown-thornhill-hyundai-collision-centre",
    "name": "Thornhill Hyundai Collision Centre",
    "slug": "ny-unknown-thornhill-hyundai-collision-centre",
    "lat": 43.807204,
    "lng": -79.412107,
    "state": "NY",
    "city": "",
    "address": "",
    "zip": "",
    "phone": "",
    "email": "",
    "website": "",
    "hours": "",
    "brand": "",
    "services": [
      "body_work"
    ],
    "shopType": "body_shop"
  },
  {
    "id": "shop-ny-unknown-collision-centre",
    "name": "Collision Centre",
    "slug": "ny-unknown-collision-centre",
    "lat": 43.807066,
    "lng": -79.412896,
    "state": "NY",
    "city": "",
    "address": "",
    "zip": "",
    "phone": "",
    "email": "",
    "website": "",
    "hours": "",
    "brand": "",
    "services": [
      "body_work"
    ],
    "shopType": "body_shop"
  },
  {
    "id": "shop-ny-unknown-cawthra-auto-service",
    "name": "Cawthra Auto Service",
    "slug": "ny-unknown-cawthra-auto-service",
    "lat": 43.5702411,
    "lng": -79.566138,
    "state": "NY",
    "city": "",
    "address": "",
    "zip": "",
    "phone": "",
    "email": "",
    "website": "",
    "hours": "",
    "brand": "",
    "services": [
      "body_work"
    ],
    "shopType": "body_shop"
  },
  {
    "id": "shop-ny-unknown-fix-auto-aurora",
    "name": "Fix Auto Aurora",
    "slug": "ny-unknown-fix-auto-aurora",
    "lat": 44.001619,
    "lng": -79.456049,
    "state": "NY",
    "city": "",
    "address": "",
    "zip": "",
    "phone": "",
    "email": "",
    "website": "",
    "hours": "",
    "brand": "",
    "services": [
      "general_repair"
    ],
    "shopType": "general_repair"
  },
  {
    "id": "shop-ny-unknown-veer-preet-service-centre",
    "name": "Veer Preet Service Centre",
    "slug": "ny-unknown-veer-preet-service-centre",
    "lat": 43.695834,
    "lng": -79.631255,
    "state": "NY",
    "city": "",
    "address": "",
    "zip": "",
    "phone": "",
    "email": "",
    "website": "",
    "hours": "",
    "brand": "",
    "services": [
      "general_repair"
    ],
    "shopType": "general_repair"
  },
  {
    "id": "shop-ny-unknown-mr-lube-4",
    "name": "Mr. Lube",
    "slug": "ny-unknown-mr-lube-4",
    "lat": 43.4651687,
    "lng": -79.7438098,
    "state": "NY",
    "city": "",
    "address": "",
    "zip": "",
    "phone": "",
    "email": "",
    "website": "",
    "hours": "",
    "brand": "Mr. Lube",
    "services": [
      "oil_change"
    ],
    "shopType": "quick_lube"
  },
  {
    "id": "shop-ny-unknown-malfara-s-auto",
    "name": "Malfara's Auto",
    "slug": "ny-unknown-malfara-s-auto",
    "lat": 43.6032801,
    "lng": -79.546268,
    "state": "NY",
    "city": "",
    "address": "",
    "zip": "",
    "phone": "+1-416-255-5200",
    "email": "",
    "website": "",
    "hours": "",
    "brand": "",
    "services": [
      "general_repair"
    ],
    "shopType": "general_repair"
  },
  {
    "id": "shop-ny-unknown-autotex-service-centre-limited",
    "name": "AutoTex Service Centre Limited",
    "slug": "ny-unknown-autotex-service-centre-limited",
    "lat": 43.5745937,
    "lng": -79.5615913,
    "state": "NY",
    "city": "",
    "address": "",
    "zip": "",
    "phone": "+1-905-803-8585",
    "email": "",
    "website": "https://www.autotex.ca/",
    "hours": "",
    "brand": "",
    "services": [
      "general_repair"
    ],
    "shopType": "general_repair"
  },
  {
    "id": "shop-ny-unknown-rosewood-automotive",
    "name": "Rosewood Automotive",
    "slug": "ny-unknown-rosewood-automotive",
    "lat": 43.5728948,
    "lng": -79.5634856,
    "state": "NY",
    "city": "",
    "address": "",
    "zip": "",
    "phone": "+1-905-271-8089",
    "email": "",
    "website": "",
    "hours": "",
    "brand": "",
    "services": [
      "general_repair"
    ],
    "shopType": "general_repair"
  },
  {
    "id": "shop-ny-unknown-russ-drennan-automotive-sales-and-repairs",
    "name": "Russ Drennan Automotive Sales and Repairs",
    "slug": "ny-unknown-russ-drennan-automotive-sales-and-repairs",
    "lat": 43.573453,
    "lng": -79.5628733,
    "state": "NY",
    "city": "",
    "address": "",
    "zip": "",
    "phone": "",
    "email": "",
    "website": "https://russdrennanauto.com/",
    "hours": "",
    "brand": "",
    "services": [
      "general_repair"
    ],
    "shopType": "general_repair"
  },
  {
    "id": "shop-ny-unknown-carmen-s",
    "name": "Carmen's",
    "slug": "ny-unknown-carmen-s",
    "lat": 43.5660744,
    "lng": -79.5698282,
    "state": "NY",
    "city": "",
    "address": "",
    "zip": "",
    "phone": "",
    "email": "",
    "website": "",
    "hours": "",
    "brand": "",
    "services": [
      "general_repair"
    ],
    "shopType": "general_repair"
  },
  {
    "id": "shop-ny-unknown-active-green-ross-4",
    "name": "Active Green & Ross",
    "slug": "ny-unknown-active-green-ross-4",
    "lat": 43.603619,
    "lng": -79.5060867,
    "state": "NY",
    "city": "",
    "address": "",
    "zip": "",
    "phone": "",
    "email": "",
    "website": "https://www.activegreenross.com/",
    "hours": "",
    "brand": "",
    "services": [
      "general_repair"
    ],
    "shopType": "general_repair"
  },
  {
    "id": "shop-ny-unknown-midas-4",
    "name": "Midas",
    "slug": "ny-unknown-midas-4",
    "lat": 43.5314149,
    "lng": -79.6717644,
    "state": "NY",
    "city": "",
    "address": "",
    "zip": "",
    "phone": "",
    "email": "",
    "website": "https://www.midas.com/",
    "hours": "",
    "brand": "Midas",
    "services": [
      "general_repair"
    ],
    "shopType": "general_repair"
  },
  {
    "id": "shop-ny-unknown-speedy-3",
    "name": "Speedy",
    "slug": "ny-unknown-speedy-3",
    "lat": 43.5351193,
    "lng": -79.6687885,
    "state": "NY",
    "city": "",
    "address": "",
    "zip": "",
    "phone": "",
    "email": "",
    "website": "",
    "hours": "",
    "brand": "Speedy",
    "services": [
      "general_repair"
    ],
    "shopType": "general_repair"
  },
  {
    "id": "shop-ny-unknown-mr-lube-5",
    "name": "Mr. Lube",
    "slug": "ny-unknown-mr-lube-5",
    "lat": 43.5301544,
    "lng": -79.6727776,
    "state": "NY",
    "city": "",
    "address": "",
    "zip": "",
    "phone": "",
    "email": "",
    "website": "",
    "hours": "",
    "brand": "Mr. Lube",
    "services": [
      "oil_change"
    ],
    "shopType": "quick_lube"
  },
  {
    "id": "shop-ny-unknown-master-mechanic-3",
    "name": "Master Mechanic",
    "slug": "ny-unknown-master-mechanic-3",
    "lat": 43.5316123,
    "lng": -79.6715874,
    "state": "NY",
    "city": "",
    "address": "",
    "zip": "",
    "phone": "",
    "email": "",
    "website": "",
    "hours": "",
    "brand": "Master Mechanic",
    "services": [
      "general_repair"
    ],
    "shopType": "general_repair"
  },
  {
    "id": "shop-ny-unknown-abm-garage",
    "name": "ABM Garage",
    "slug": "ny-unknown-abm-garage",
    "lat": 43.5676672,
    "lng": -79.5681362,
    "state": "NY",
    "city": "",
    "address": "",
    "zip": "",
    "phone": "",
    "email": "",
    "website": "",
    "hours": "",
    "brand": "",
    "services": [
      "general_repair"
    ],
    "shopType": "general_repair"
  },
  {
    "id": "shop-ny-unknown-mr-lube-6",
    "name": "Mr. Lube",
    "slug": "ny-unknown-mr-lube-6",
    "lat": 43.4415861,
    "lng": -79.6938182,
    "state": "NY",
    "city": "",
    "address": "",
    "zip": "",
    "phone": "",
    "email": "",
    "website": "",
    "hours": "",
    "brand": "Mr. Lube",
    "services": [
      "oil_change"
    ],
    "shopType": "quick_lube"
  },
  {
    "id": "shop-ny-unknown-active-green-ross-5",
    "name": "Active Green + Ross",
    "slug": "ny-unknown-active-green-ross-5",
    "lat": 43.6119507,
    "lng": -79.5464439,
    "state": "NY",
    "city": "",
    "address": "",
    "zip": "",
    "phone": "",
    "email": "",
    "website": "https://www.activegreenross.com/",
    "hours": "",
    "brand": "Active Green + Ross",
    "services": [
      "general_repair"
    ],
    "shopType": "general_repair"
  },
  {
    "id": "shop-ny-unknown-heartland-collision",
    "name": "Heartland Collision",
    "slug": "ny-unknown-heartland-collision",
    "lat": 43.608445,
    "lng": -79.695143,
    "state": "NY",
    "city": "",
    "address": "875 Plymouth Drive",
    "zip": "",
    "phone": "",
    "email": "",
    "website": "",
    "hours": "",
    "brand": "",
    "services": [
      "body_work"
    ],
    "shopType": "body_shop"
  },
  {
    "id": "shop-ny-unknown-active-green-ross-6",
    "name": "Active Green + Ross",
    "slug": "ny-unknown-active-green-ross-6",
    "lat": 43.6843212,
    "lng": -79.3200654,
    "state": "NY",
    "city": "",
    "address": "",
    "zip": "",
    "phone": "",
    "email": "",
    "website": "",
    "hours": "",
    "brand": "Active Green + Ross",
    "services": [
      "general_repair"
    ],
    "shopType": "general_repair"
  },
  {
    "id": "shop-ny-unknown-active-green-ross-7",
    "name": "Active Green + Ross",
    "slug": "ny-unknown-active-green-ross-7",
    "lat": 43.8744715,
    "lng": -79.4240586,
    "state": "NY",
    "city": "",
    "address": "",
    "zip": "",
    "phone": "",
    "email": "",
    "website": "https://www.activegreenross.com/",
    "hours": "",
    "brand": "Active Green + Ross",
    "services": [
      "general_repair"
    ],
    "shopType": "general_repair"
  },
  {
    "id": "shop-ny-unknown-active-green-ross-8",
    "name": "Active Green + Ross",
    "slug": "ny-unknown-active-green-ross-8",
    "lat": 43.8000812,
    "lng": -79.4220243,
    "state": "NY",
    "city": "",
    "address": "",
    "zip": "",
    "phone": "",
    "email": "",
    "website": "https://www.activegreenross.com/",
    "hours": "",
    "brand": "Active Green + Ross",
    "services": [
      "general_repair"
    ],
    "shopType": "general_repair"
  },
  {
    "id": "shop-ny-unknown-rikki-s-repairs",
    "name": "Rikki's Repairs",
    "slug": "ny-unknown-rikki-s-repairs",
    "lat": 44.6728956,
    "lng": -76.3965359,
    "state": "NY",
    "city": "",
    "address": "",
    "zip": "",
    "phone": "",
    "email": "",
    "website": "",
    "hours": "",
    "brand": "",
    "services": [
      "general_repair"
    ],
    "shopType": "general_repair"
  },
  {
    "id": "shop-ny-unknown-at-tire-wheel-ltd",
    "name": "AT Tire & Wheel Ltd.",
    "slug": "ny-unknown-at-tire-wheel-ltd",
    "lat": 43.9989585,
    "lng": -79.4590208,
    "state": "NY",
    "city": "",
    "address": "",
    "zip": "",
    "phone": "",
    "email": "",
    "website": "",
    "hours": "",
    "brand": "",
    "services": [
      "tires"
    ],
    "shopType": "tire_shop"
  },
  {
    "id": "shop-ny-unknown-canlube",
    "name": "Canlube",
    "slug": "ny-unknown-canlube",
    "lat": 43.6930552,
    "lng": -79.4413046,
    "state": "NY",
    "city": "",
    "address": "",
    "zip": "",
    "phone": "",
    "email": "",
    "website": "",
    "hours": "",
    "brand": "",
    "services": [
      "oil_change"
    ],
    "shopType": "quick_lube"
  },
  {
    "id": "shop-nj-unknown-arys-complete-auto-repair",
    "name": "Arys Complete Auto Repair",
    "slug": "nj-unknown-arys-complete-auto-repair",
    "lat": 40.6787863,
    "lng": -73.9621754,
    "state": "NJ",
    "city": "",
    "address": "568A Grand Avenue",
    "zip": "11238",
    "phone": "+1-646-387-8529",
    "email": "",
    "website": "",
    "hours": "",
    "brand": "",
    "services": [
      "general_repair"
    ],
    "shopType": "general_repair"
  },
  {
    "id": "shop-nj-unknown-all-in-one-auto-service-2",
    "name": "All In One Auto Service 2",
    "slug": "nj-unknown-all-in-one-auto-service-2",
    "lat": 40.6787243,
    "lng": -73.9621977,
    "state": "NJ",
    "city": "",
    "address": "568B Grand Avenue",
    "zip": "11238",
    "phone": "+1-718-857-6434",
    "email": "",
    "website": "https://allinoneautoservicebrooklyn.com",
    "hours": "",
    "brand": "",
    "services": [
      "general_repair"
    ],
    "shopType": "general_repair"
  },
  {
    "id": "shop-nj-unknown-frontline-automotive",
    "name": "Frontline Automotive",
    "slug": "nj-unknown-frontline-automotive",
    "lat": 40.6785716,
    "lng": -73.9622528,
    "state": "NJ",
    "city": "",
    "address": "568D Grand Avenue",
    "zip": "11238",
    "phone": "",
    "email": "",
    "website": "",
    "hours": "",
    "brand": "",
    "services": [
      "general_repair"
    ],
    "shopType": "general_repair"
  },
  {
    "id": "shop-nj-unknown-g-b-collision-center",
    "name": "G&B Collision Center",
    "slug": "nj-unknown-g-b-collision-center",
    "lat": 40.6783296,
    "lng": -73.9619931,
    "state": "NJ",
    "city": "",
    "address": "",
    "zip": "",
    "phone": "+1-718-230-9793",
    "email": "",
    "website": "https://gbcollisioncenter.com",
    "hours": "",
    "brand": "",
    "services": [
      "body_work"
    ],
    "shopType": "body_shop"
  },
  {
    "id": "shop-ny-unknown-oil-changers",
    "name": "Oil Changers",
    "slug": "ny-unknown-oil-changers",
    "lat": 43.6738209,
    "lng": -79.7252969,
    "state": "NY",
    "city": "",
    "address": "",
    "zip": "",
    "phone": "",
    "email": "",
    "website": "",
    "hours": "",
    "brand": "Great Canadian Oil Change",
    "services": [
      "oil_change"
    ],
    "shopType": "quick_lube"
  },
  {
    "id": "shop-ny-unknown-in-tune-auto",
    "name": "In-Tune Auto",
    "slug": "ny-unknown-in-tune-auto",
    "lat": 43.9309969,
    "lng": -78.8859143,
    "state": "NY",
    "city": "",
    "address": "",
    "zip": "",
    "phone": "",
    "email": "",
    "website": "",
    "hours": "",
    "brand": "",
    "services": [
      "general_repair"
    ],
    "shopType": "general_repair"
  },
  {
    "id": "shop-nj-unknown-gerber-collision-glass",
    "name": "Gerber Collision & Glass",
    "slug": "nj-unknown-gerber-collision-glass",
    "lat": 40.7183871,
    "lng": -75.3924209,
    "state": "NJ",
    "city": "",
    "address": "",
    "zip": "",
    "phone": "",
    "email": "",
    "website": "",
    "hours": "",
    "brand": "Gerber Collision & Glass",
    "services": [
      "glass",
      "body_work",
      "body_repair"
    ],
    "shopType": "body_shop"
  },
  {
    "id": "shop-ny-unknown-admiral-automotive-service-tire-centre",
    "name": "Admiral Automotive Service & Tire Centre",
    "slug": "ny-unknown-admiral-automotive-service-tire-centre",
    "lat": 43.6686678,
    "lng": -79.4831529,
    "state": "NY",
    "city": "",
    "address": "",
    "zip": "",
    "phone": "",
    "email": "",
    "website": "",
    "hours": "",
    "brand": "",
    "services": [
      "tires"
    ],
    "shopType": "tire_shop"
  },
  {
    "id": "shop-ny-unknown-autosonic",
    "name": "Autosonic",
    "slug": "ny-unknown-autosonic",
    "lat": 43.6496126,
    "lng": -79.424188,
    "state": "NY",
    "city": "",
    "address": "1244 Dundas Street West",
    "zip": "",
    "phone": "+1-416-534-1141",
    "email": "",
    "website": "",
    "hours": "",
    "brand": "",
    "services": [
      "general_repair"
    ],
    "shopType": "general_repair"
  },
  {
    "id": "shop-ny-unknown-portugal-auto-garage",
    "name": "Portugal Auto Garage",
    "slug": "ny-unknown-portugal-auto-garage",
    "lat": 43.6520517,
    "lng": -79.4030828,
    "state": "NY",
    "city": "",
    "address": "",
    "zip": "",
    "phone": "",
    "email": "",
    "website": "",
    "hours": "",
    "brand": "",
    "services": [
      "general_repair"
    ],
    "shopType": "general_repair"
  },
  {
    "id": "shop-ny-unknown-mr-lube-7",
    "name": "Mr. Lube",
    "slug": "ny-unknown-mr-lube-7",
    "lat": 43.594451,
    "lng": -79.6401495,
    "state": "NY",
    "city": "",
    "address": "",
    "zip": "",
    "phone": "",
    "email": "",
    "website": "",
    "hours": "",
    "brand": "Mr. Lube",
    "services": [
      "tires",
      "oil_change"
    ],
    "shopType": "quick_lube"
  },
  {
    "id": "shop-nj-unknown-mavis-discount-tire",
    "name": "Mavis Discount Tire",
    "slug": "nj-unknown-mavis-discount-tire",
    "lat": 40.8835493,
    "lng": -73.9013154,
    "state": "NJ",
    "city": "",
    "address": "",
    "zip": "",
    "phone": "+1-718-543-3800",
    "email": "",
    "website": "https://www.mavistire.com/locations/bronx-riverdale-ny.asp",
    "hours": "Mo-Fr 08:00-18:00; Sa 08:00-17:00; Su 09:00-17:00",
    "brand": "Discount Tire",
    "services": [
      "tires"
    ],
    "shopType": "tire_shop"
  },
  {
    "id": "shop-nj-unknown-awais-auto-repair-and-tire-center",
    "name": "Awais Auto Repair and Tire Center",
    "slug": "nj-unknown-awais-auto-repair-and-tire-center",
    "lat": 40.6739603,
    "lng": -74.0004934,
    "state": "NJ",
    "city": "",
    "address": "",
    "zip": "",
    "phone": "+1-718-522-6356",
    "email": "",
    "website": "https://www.redhookautorepair.com",
    "hours": "Mo-Sa 07:30-20:00; Su 08:30-20:00",
    "brand": "",
    "services": [
      "tires"
    ],
    "shopType": "tire_shop"
  },
  {
    "id": "shop-ny-unknown-ms-car-care-center",
    "name": "MS Car Care Center",
    "slug": "ny-unknown-ms-car-care-center",
    "lat": 43.5780361,
    "lng": -79.6859456,
    "state": "NY",
    "city": "",
    "address": "",
    "zip": "",
    "phone": "",
    "email": "",
    "website": "http://www.msccc.ca/",
    "hours": "",
    "brand": "",
    "services": [
      "general_repair"
    ],
    "shopType": "general_repair"
  },
  {
    "id": "shop-ny-unknown-active-green-ross-9",
    "name": "Active Green + Ross",
    "slug": "ny-unknown-active-green-ross-9",
    "lat": 43.625363,
    "lng": -79.5060365,
    "state": "NY",
    "city": "",
    "address": "",
    "zip": "",
    "phone": "",
    "email": "",
    "website": "https://www.activegreenross.com/",
    "hours": "",
    "brand": "Active Green + Ross",
    "services": [
      "general_repair"
    ],
    "shopType": "general_repair"
  },
  {
    "id": "shop-nj-unknown-thumbs-up-tire-shop",
    "name": "Thumbs Up Tire Shop",
    "slug": "nj-unknown-thumbs-up-tire-shop",
    "lat": 40.7106662,
    "lng": -73.9516257,
    "state": "NJ",
    "city": "",
    "address": "418 Hooper Street",
    "zip": "11211",
    "phone": "+1-718-384-0022",
    "email": "",
    "website": "",
    "hours": "",
    "brand": "",
    "services": [
      "tires"
    ],
    "shopType": "tire_shop"
  },
  {
    "id": "shop-nj-unknown-david-s-auto-service",
    "name": "David's Auto Service",
    "slug": "nj-unknown-david-s-auto-service",
    "lat": 40.7334407,
    "lng": -73.9524767,
    "state": "NJ",
    "city": "",
    "address": "321 McGuinness Boulevard",
    "zip": "11222",
    "phone": "+1-718-609-9150",
    "email": "",
    "website": "",
    "hours": "",
    "brand": "",
    "services": [
      "general_repair"
    ],
    "shopType": "general_repair"
  },
  {
    "id": "shop-nj-unknown-jp-auto-repair",
    "name": "JP Auto Repair",
    "slug": "nj-unknown-jp-auto-repair",
    "lat": 40.7356897,
    "lng": -73.894939,
    "state": "NJ",
    "city": "",
    "address": "50-37 69th Place",
    "zip": "11377",
    "phone": "+1-728-639-4668",
    "email": "",
    "website": "",
    "hours": "",
    "brand": "",
    "services": [
      "general_repair"
    ],
    "shopType": "general_repair"
  },
  {
    "id": "shop-nj-unknown-auto-body-repair-inc",
    "name": "Auto Body & Repair Inc.",
    "slug": "nj-unknown-auto-body-repair-inc",
    "lat": 40.753464,
    "lng": -73.923668,
    "state": "NJ",
    "city": "",
    "address": "36-04 Steinway Street",
    "zip": "11101",
    "phone": "+1 718-472-3300",
    "email": "",
    "website": "",
    "hours": "",
    "brand": "",
    "services": [
      "body_work"
    ],
    "shopType": "body_shop"
  },
  {
    "id": "shop-nj-unknown-kings-automotive",
    "name": "Kings Automotive",
    "slug": "nj-unknown-kings-automotive",
    "lat": 40.7533669,
    "lng": -73.9237476,
    "state": "NJ",
    "city": "",
    "address": "36-06 Steinway Street",
    "zip": "11101",
    "phone": "+1 718-757-0378",
    "email": "",
    "website": "",
    "hours": "",
    "brand": "",
    "services": [
      "general_repair"
    ],
    "shopType": "general_repair"
  },
  {
    "id": "shop-nj-unknown-tm-t-complete-auto-repairs",
    "name": "TM&T Complete Auto Repairs",
    "slug": "nj-unknown-tm-t-complete-auto-repairs",
    "lat": 40.7532415,
    "lng": -73.921803,
    "state": "NJ",
    "city": "",
    "address": "41-15 Northern Boulevard",
    "zip": "11101",
    "phone": "+1 718-729-3500",
    "email": "",
    "website": "",
    "hours": "",
    "brand": "",
    "services": [
      "general_repair"
    ],
    "shopType": "general_repair"
  },
  {
    "id": "shop-nj-unknown-ny-best-auto-repair-inc",
    "name": "NY Best Auto Repair Inc",
    "slug": "nj-unknown-ny-best-auto-repair-inc",
    "lat": 40.7717429,
    "lng": -73.9254929,
    "state": "NJ",
    "city": "",
    "address": "21-20 Newtown Avenue",
    "zip": "11102",
    "phone": "+1 718 274 9389",
    "email": "",
    "website": "",
    "hours": "",
    "brand": "",
    "services": [
      "general_repair"
    ],
    "shopType": "general_repair"
  },
  {
    "id": "shop-ny-unknown-napa-autopro-queensville-service-centre",
    "name": "NAPA Autopro Queensville Service Centre",
    "slug": "ny-unknown-napa-autopro-queensville-service-centre",
    "lat": 44.1320371,
    "lng": -79.4483867,
    "state": "NY",
    "city": "",
    "address": "",
    "zip": "",
    "phone": "",
    "email": "",
    "website": "",
    "hours": "Mo-Fr 08:00-18:00",
    "brand": "",
    "services": [
      "general_repair"
    ],
    "shopType": "general_repair"
  },
  {
    "id": "shop-ny-unknown-midas-5",
    "name": "Midas",
    "slug": "ny-unknown-midas-5",
    "lat": 43.9900691,
    "lng": -79.4656904,
    "state": "NY",
    "city": "",
    "address": "",
    "zip": "",
    "phone": "",
    "email": "",
    "website": "",
    "hours": "",
    "brand": "Midas",
    "services": [
      "general_repair"
    ],
    "shopType": "general_repair"
  },
  {
    "id": "shop-ny-unknown-aurora-transit-auto-glass",
    "name": "Aurora Transit Auto Glass",
    "slug": "ny-unknown-aurora-transit-auto-glass",
    "lat": 44.0008359,
    "lng": -79.4681516,
    "state": "NY",
    "city": "",
    "address": "",
    "zip": "",
    "phone": "",
    "email": "",
    "website": "",
    "hours": "",
    "brand": "",
    "services": [
      "general_repair"
    ],
    "shopType": "general_repair"
  },
  {
    "id": "shop-ny-unknown-supreme-collision-centre-2",
    "name": "Supreme Collision Centre",
    "slug": "ny-unknown-supreme-collision-centre-2",
    "lat": 44.0009791,
    "lng": -79.4682403,
    "state": "NY",
    "city": "",
    "address": "",
    "zip": "",
    "phone": "",
    "email": "",
    "website": "",
    "hours": "",
    "brand": "",
    "services": [
      "body_work"
    ],
    "shopType": "body_shop"
  },
  {
    "id": "shop-ny-unknown-jiffy-lube-5",
    "name": "Jiffy Lube",
    "slug": "ny-unknown-jiffy-lube-5",
    "lat": 43.6603735,
    "lng": -79.5128338,
    "state": "NY",
    "city": "",
    "address": "",
    "zip": "",
    "phone": "",
    "email": "",
    "website": "",
    "hours": "",
    "brand": "Jiffy Lube",
    "services": [
      "oil_change"
    ],
    "shopType": "quick_lube"
  },
  {
    "id": "shop-ny-unknown-carstar",
    "name": "Carstar",
    "slug": "ny-unknown-carstar",
    "lat": 43.4591802,
    "lng": -79.6818109,
    "state": "NY",
    "city": "",
    "address": "",
    "zip": "",
    "phone": "",
    "email": "",
    "website": "",
    "hours": "",
    "brand": "Carstar",
    "services": [
      "body_work",
      "body_repair"
    ],
    "shopType": "general_repair"
  },
  {
    "id": "shop-ny-unknown-tri-star-service-centre",
    "name": "Tri-Star Service Centre",
    "slug": "ny-unknown-tri-star-service-centre",
    "lat": 43.7322699,
    "lng": -79.2888182,
    "state": "NY",
    "city": "",
    "address": "",
    "zip": "",
    "phone": "+1-416-751-2892",
    "email": "",
    "website": "",
    "hours": "",
    "brand": "",
    "services": [
      "general_repair"
    ],
    "shopType": "general_repair"
  },
  {
    "id": "shop-ny-unknown-mechaniq",
    "name": "MechaniQ",
    "slug": "ny-unknown-mechaniq",
    "lat": 43.5247319,
    "lng": -79.6831647,
    "state": "NY",
    "city": "",
    "address": "",
    "zip": "",
    "phone": "",
    "email": "",
    "website": "",
    "hours": "Mo-Fr 08:00-17:00",
    "brand": "",
    "services": [
      "general_repair"
    ],
    "shopType": "general_repair"
  },
  {
    "id": "shop-ny-unknown-mister-transmission-2",
    "name": "Mister Transmission",
    "slug": "ny-unknown-mister-transmission-2",
    "lat": 43.8881528,
    "lng": -78.9450855,
    "state": "NY",
    "city": "",
    "address": "",
    "zip": "",
    "phone": "",
    "email": "",
    "website": "",
    "hours": "",
    "brand": "Mister Transmission",
    "services": [
      "transmission"
    ],
    "shopType": "transmission_shop"
  },
  {
    "id": "shop-ny-unknown-bowtie-automotive",
    "name": "Bowtie Automotive",
    "slug": "ny-unknown-bowtie-automotive",
    "lat": 43.4105604,
    "lng": -79.732599,
    "state": "NY",
    "city": "",
    "address": "",
    "zip": "",
    "phone": "",
    "email": "",
    "website": "",
    "hours": "",
    "brand": "",
    "services": [
      "general_repair"
    ],
    "shopType": "general_repair"
  },
  {
    "id": "shop-ny-unknown-gene-conway-autobody",
    "name": "Gene Conway Autobody",
    "slug": "ny-unknown-gene-conway-autobody",
    "lat": 44.1088912,
    "lng": -79.278795,
    "state": "NY",
    "city": "",
    "address": "",
    "zip": "",
    "phone": "+1-905-473-3206",
    "email": "",
    "website": "",
    "hours": "",
    "brand": "",
    "services": [
      "body_work"
    ],
    "shopType": "body_shop"
  },
  {
    "id": "shop-ny-unknown-mr-lube-8",
    "name": "Mr. Lube",
    "slug": "ny-unknown-mr-lube-8",
    "lat": 43.9546607,
    "lng": -79.2754581,
    "state": "NY",
    "city": "",
    "address": "",
    "zip": "",
    "phone": "",
    "email": "",
    "website": "",
    "hours": "",
    "brand": "Mr. Lube",
    "services": [
      "oil_change"
    ],
    "shopType": "quick_lube"
  },
  {
    "id": "shop-ny-unknown-midas-6",
    "name": "Midas",
    "slug": "ny-unknown-midas-6",
    "lat": 43.8617795,
    "lng": -79.30563,
    "state": "NY",
    "city": "",
    "address": "",
    "zip": "",
    "phone": "",
    "email": "",
    "website": "https://www.midas.com/",
    "hours": "",
    "brand": "Midas",
    "services": [
      "general_repair"
    ],
    "shopType": "general_repair"
  },
  {
    "id": "shop-ny-unknown-main-street-auto-service",
    "name": "Main Street Auto Service",
    "slug": "ny-unknown-main-street-auto-service",
    "lat": 43.9744837,
    "lng": -79.2315646,
    "state": "NY",
    "city": "",
    "address": "",
    "zip": "",
    "phone": "",
    "email": "",
    "website": "",
    "hours": "",
    "brand": "",
    "services": [
      "general_repair"
    ],
    "shopType": "general_repair"
  },
  {
    "id": "shop-ny-unknown-mr-lube-9",
    "name": "Mr. Lube",
    "slug": "ny-unknown-mr-lube-9",
    "lat": 44.067185,
    "lng": -79.4863005,
    "state": "NY",
    "city": "",
    "address": "",
    "zip": "",
    "phone": "",
    "email": "",
    "website": "",
    "hours": "",
    "brand": "Mr. Lube",
    "services": [
      "oil_change"
    ],
    "shopType": "quick_lube"
  },
  {
    "id": "shop-ny-unknown-minute-muffler",
    "name": "Minute Muffler",
    "slug": "ny-unknown-minute-muffler",
    "lat": 43.7504738,
    "lng": -79.5514325,
    "state": "NY",
    "city": "",
    "address": "",
    "zip": "",
    "phone": "",
    "email": "",
    "website": "",
    "hours": "",
    "brand": "",
    "services": [
      "exhaust"
    ],
    "shopType": "general_repair"
  },
  {
    "id": "shop-ny-unknown-b-c-service-centre",
    "name": "B&C Service Centre",
    "slug": "ny-unknown-b-c-service-centre",
    "lat": 44.0578149,
    "lng": -79.4787651,
    "state": "NY",
    "city": "",
    "address": "",
    "zip": "",
    "phone": "",
    "email": "",
    "website": "",
    "hours": "",
    "brand": "",
    "services": [
      "general_repair"
    ],
    "shopType": "general_repair"
  },
  {
    "id": "shop-ny-unknown-tom-s-modern-alignment",
    "name": "Tom's Modern Alignment",
    "slug": "ny-unknown-tom-s-modern-alignment",
    "lat": 44.0579461,
    "lng": -79.4788035,
    "state": "NY",
    "city": "",
    "address": "",
    "zip": "",
    "phone": "",
    "email": "",
    "website": "",
    "hours": "",
    "brand": "",
    "services": [
      "alignment"
    ],
    "shopType": "general_repair"
  },
  {
    "id": "shop-ny-unknown-fisher-auto-parts",
    "name": "Fisher Auto Parts",
    "slug": "ny-unknown-fisher-auto-parts",
    "lat": 44.247638,
    "lng": -76.486857,
    "state": "NY",
    "city": "",
    "address": "",
    "zip": "",
    "phone": "",
    "email": "",
    "website": "",
    "hours": "",
    "brand": "",
    "services": [
      "general_repair"
    ],
    "shopType": "general_repair"
  },
  {
    "id": "shop-ny-unknown-king-street-auto-centre",
    "name": "King Street Auto Centre",
    "slug": "ny-unknown-king-street-auto-centre",
    "lat": 44.2188108,
    "lng": -76.5696155,
    "state": "NY",
    "city": "",
    "address": "",
    "zip": "",
    "phone": "",
    "email": "",
    "website": "",
    "hours": "",
    "brand": "",
    "services": [
      "general_repair"
    ],
    "shopType": "general_repair"
  },
  {
    "id": "shop-ny-unknown-nicholls-exhaust",
    "name": "Nicholls Exhaust",
    "slug": "ny-unknown-nicholls-exhaust",
    "lat": 43.9663391,
    "lng": -78.7360263,
    "state": "NY",
    "city": "",
    "address": "",
    "zip": "",
    "phone": "",
    "email": "",
    "website": "",
    "hours": "",
    "brand": "",
    "services": [
      "exhaust"
    ],
    "shopType": "general_repair"
  },
  {
    "id": "shop-ny-unknown-jrod-automotive",
    "name": "Jrod Automotive",
    "slug": "ny-unknown-jrod-automotive",
    "lat": 43.8559038,
    "lng": -78.8730968,
    "state": "NY",
    "city": "",
    "address": "",
    "zip": "",
    "phone": "",
    "email": "",
    "website": "",
    "hours": "",
    "brand": "",
    "services": [
      "general_repair"
    ],
    "shopType": "general_repair"
  },
  {
    "id": "shop-ny-unknown-mister-transmission-3",
    "name": "Mister Transmission",
    "slug": "ny-unknown-mister-transmission-3",
    "lat": 43.8635475,
    "lng": -79.4349307,
    "state": "NY",
    "city": "",
    "address": "",
    "zip": "",
    "phone": "",
    "email": "",
    "website": "",
    "hours": "",
    "brand": "Mister Transmission",
    "services": [
      "transmission"
    ],
    "shopType": "transmission_shop"
  },
  {
    "id": "shop-pa-unknown-al-lemen-services",
    "name": "Al Lemen Services",
    "slug": "pa-unknown-al-lemen-services",
    "lat": 42.0721303,
    "lng": -78.4293653,
    "state": "PA",
    "city": "",
    "address": "",
    "zip": "",
    "phone": "",
    "email": "",
    "website": "",
    "hours": "",
    "brand": "",
    "services": [
      "general_repair"
    ],
    "shopType": "general_repair"
  },
  {
    "id": "shop-ny-unknown-steve-s-auto-service",
    "name": "Steve's Auto Service",
    "slug": "ny-unknown-steve-s-auto-service",
    "lat": 43.938923,
    "lng": -78.8836098,
    "state": "NY",
    "city": "",
    "address": "",
    "zip": "",
    "phone": "",
    "email": "",
    "website": "",
    "hours": "",
    "brand": "",
    "services": [
      "general_repair"
    ],
    "shopType": "general_repair"
  },
  {
    "id": "shop-ny-unknown-midas-7",
    "name": "Midas",
    "slug": "ny-unknown-midas-7",
    "lat": 43.7941404,
    "lng": -79.330346,
    "state": "NY",
    "city": "",
    "address": "",
    "zip": "",
    "phone": "",
    "email": "",
    "website": "https://www.midas.com/",
    "hours": "",
    "brand": "Midas",
    "services": [
      "general_repair"
    ],
    "shopType": "general_repair"
  },
  {
    "id": "shop-ny-unknown-my-mechanic-auto-tire",
    "name": "My Mechanic Auto & Tire",
    "slug": "ny-unknown-my-mechanic-auto-tire",
    "lat": 43.7673885,
    "lng": -79.2719859,
    "state": "NY",
    "city": "",
    "address": "",
    "zip": "",
    "phone": "",
    "email": "",
    "website": "https://www.superiortire.ca/",
    "hours": "",
    "brand": "",
    "services": [
      "tires"
    ],
    "shopType": "tire_shop"
  },
  {
    "id": "shop-ny-unknown-mr-lube-10",
    "name": "Mr. Lube",
    "slug": "ny-unknown-mr-lube-10",
    "lat": 43.8191963,
    "lng": -79.5028944,
    "state": "NY",
    "city": "",
    "address": "",
    "zip": "",
    "phone": "",
    "email": "",
    "website": "",
    "hours": "",
    "brand": "Mr. Lube",
    "services": [
      "oil_change"
    ],
    "shopType": "quick_lube"
  },
  {
    "id": "shop-ny-unknown-all-car",
    "name": "All-Car",
    "slug": "ny-unknown-all-car",
    "lat": 43.7011888,
    "lng": -79.5135759,
    "state": "NY",
    "city": "",
    "address": "",
    "zip": "",
    "phone": "",
    "email": "",
    "website": "",
    "hours": "",
    "brand": "",
    "services": [
      "general_repair"
    ],
    "shopType": "general_repair"
  },
  {
    "id": "shop-ny-unknown-custom-auto",
    "name": "Custom Auto",
    "slug": "ny-unknown-custom-auto",
    "lat": 44.3891953,
    "lng": -76.4727433,
    "state": "NY",
    "city": "",
    "address": "",
    "zip": "",
    "phone": "+1-613-633-2277",
    "email": "",
    "website": "",
    "hours": "",
    "brand": "",
    "services": [
      "general_repair"
    ],
    "shopType": "general_repair"
  },
  {
    "id": "shop-ny-unknown-victory-lane-auto",
    "name": "Victory Lane Auto",
    "slug": "ny-unknown-victory-lane-auto",
    "lat": 44.2790932,
    "lng": -76.5009857,
    "state": "NY",
    "city": "",
    "address": "",
    "zip": "",
    "phone": "+1-613-544-4477",
    "email": "",
    "website": "",
    "hours": "",
    "brand": "",
    "services": [
      "general_repair"
    ],
    "shopType": "general_repair"
  },
  {
    "id": "shop-ny-unknown-brindle-automotive-repairs",
    "name": "Brindle Automotive Repairs",
    "slug": "ny-unknown-brindle-automotive-repairs",
    "lat": 43.6821701,
    "lng": -79.4747517,
    "state": "NY",
    "city": "",
    "address": "",
    "zip": "",
    "phone": "",
    "email": "",
    "website": "",
    "hours": "",
    "brand": "",
    "services": [
      "general_repair"
    ],
    "shopType": "general_repair"
  },
  {
    "id": "shop-ny-unknown-c-k-collision",
    "name": "C.K Collision",
    "slug": "ny-unknown-c-k-collision",
    "lat": 43.9015174,
    "lng": -78.6648346,
    "state": "NY",
    "city": "",
    "address": "",
    "zip": "",
    "phone": "",
    "email": "",
    "website": "",
    "hours": "",
    "brand": "",
    "services": [
      "body_work"
    ],
    "shopType": "body_shop"
  },
  {
    "id": "shop-ny-unknown-speedy-auto-service-2",
    "name": "Speedy Auto Service",
    "slug": "ny-unknown-speedy-auto-service-2",
    "lat": 43.8851268,
    "lng": -78.9204308,
    "state": "NY",
    "city": "",
    "address": "",
    "zip": "",
    "phone": "",
    "email": "",
    "website": "",
    "hours": "",
    "brand": "Speedy Auto Service",
    "services": [
      "general_repair"
    ],
    "shopType": "general_repair"
  },
  {
    "id": "shop-ny-unknown-speedy-glass",
    "name": "Speedy Glass",
    "slug": "ny-unknown-speedy-glass",
    "lat": 43.8856741,
    "lng": -78.9178316,
    "state": "NY",
    "city": "",
    "address": "",
    "zip": "",
    "phone": "",
    "email": "",
    "website": "",
    "hours": "",
    "brand": "Speedy Glass",
    "services": [
      "glass"
    ],
    "shopType": "general_repair"
  },
  {
    "id": "shop-ny-unknown-acdelco",
    "name": "ACDelco",
    "slug": "ny-unknown-acdelco",
    "lat": 43.8818244,
    "lng": -78.9316756,
    "state": "NY",
    "city": "",
    "address": "",
    "zip": "",
    "phone": "+1-905-668-6662",
    "email": "",
    "website": "",
    "hours": "",
    "brand": "",
    "services": [
      "general_repair"
    ],
    "shopType": "general_repair"
  },
  {
    "id": "shop-ny-unknown-hertz",
    "name": "Hertz",
    "slug": "ny-unknown-hertz",
    "lat": 43.8310173,
    "lng": -79.0953693,
    "state": "NY",
    "city": "",
    "address": "",
    "zip": "",
    "phone": "",
    "email": "",
    "website": "",
    "hours": "",
    "brand": "",
    "services": [
      "general_repair"
    ],
    "shopType": "general_repair"
  },
  {
    "id": "shop-ny-unknown-john-s-tire-ltd",
    "name": "John's Tire Ltd.",
    "slug": "ny-unknown-john-s-tire-ltd",
    "lat": 43.7937441,
    "lng": -79.1538525,
    "state": "NY",
    "city": "",
    "address": "",
    "zip": "",
    "phone": "",
    "email": "",
    "website": "",
    "hours": "",
    "brand": "",
    "services": [
      "tires"
    ],
    "shopType": "tire_shop"
  },
  {
    "id": "shop-ny-unknown-canadian-auto-repairs",
    "name": "Canadian Auto Repairs",
    "slug": "ny-unknown-canadian-auto-repairs",
    "lat": 43.6681747,
    "lng": -79.4649965,
    "state": "NY",
    "city": "",
    "address": "",
    "zip": "",
    "phone": "+1-416-604-1642",
    "email": "",
    "website": "",
    "hours": "",
    "brand": "",
    "services": [
      "general_repair"
    ],
    "shopType": "general_repair"
  },
  {
    "id": "shop-ny-unknown-mr-lube-11",
    "name": "Mr. Lube",
    "slug": "ny-unknown-mr-lube-11",
    "lat": 44.015425,
    "lng": -79.4140301,
    "state": "NY",
    "city": "",
    "address": "",
    "zip": "",
    "phone": "",
    "email": "",
    "website": "",
    "hours": "",
    "brand": "Mr. Lube",
    "services": [
      "oil_change"
    ],
    "shopType": "quick_lube"
  },
  {
    "id": "shop-ny-unknown-jack-s-auto-repair-centre",
    "name": "Jack's Auto Repair Centre",
    "slug": "ny-unknown-jack-s-auto-repair-centre",
    "lat": 43.7023662,
    "lng": -79.4417462,
    "state": "NY",
    "city": "",
    "address": "",
    "zip": "",
    "phone": "",
    "email": "",
    "website": "",
    "hours": "",
    "brand": "",
    "services": [
      "general_repair"
    ],
    "shopType": "general_repair"
  },
  {
    "id": "shop-ny-unknown-integra-tire",
    "name": "Integra Tire",
    "slug": "ny-unknown-integra-tire",
    "lat": 43.5945743,
    "lng": -79.7307079,
    "state": "NY",
    "city": "",
    "address": "",
    "zip": "",
    "phone": "",
    "email": "",
    "website": "https://www.integratire.com/",
    "hours": "",
    "brand": "",
    "services": [
      "tires"
    ],
    "shopType": "tire_shop"
  },
  {
    "id": "shop-ny-unknown-meineke-car-care-centre",
    "name": "Meineke Car Care Centre",
    "slug": "ny-unknown-meineke-car-care-centre",
    "lat": 43.5901224,
    "lng": -79.7246508,
    "state": "NY",
    "city": "",
    "address": "",
    "zip": "",
    "phone": "",
    "email": "",
    "website": "",
    "hours": "",
    "brand": "Meineke",
    "services": [
      "exhaust"
    ],
    "shopType": "general_repair"
  },
  {
    "id": "shop-ny-unknown-ken-champ-auto-inc",
    "name": "Ken Champ Auto Inc",
    "slug": "ny-unknown-ken-champ-auto-inc",
    "lat": 43.5892726,
    "lng": -79.7245676,
    "state": "NY",
    "city": "",
    "address": "40 Queen Street North",
    "zip": "",
    "phone": "",
    "email": "",
    "website": "http://www.kenchampauto.com",
    "hours": "",
    "brand": "",
    "services": [
      "general_repair"
    ],
    "shopType": "general_repair"
  },
  {
    "id": "shop-ny-unknown-daley-s-auto-service",
    "name": "Daley's Auto Service",
    "slug": "ny-unknown-daley-s-auto-service",
    "lat": 43.5818369,
    "lng": -79.7163677,
    "state": "NY",
    "city": "",
    "address": "",
    "zip": "",
    "phone": "+1-905-826-1512",
    "email": "",
    "website": "",
    "hours": "",
    "brand": "",
    "services": [
      "general_repair"
    ],
    "shopType": "general_repair"
  },
  {
    "id": "shop-ny-unknown-superior-tire-auto",
    "name": "Superior Tire & Auto",
    "slug": "ny-unknown-superior-tire-auto",
    "lat": 43.6912633,
    "lng": -79.2890653,
    "state": "NY",
    "city": "",
    "address": "",
    "zip": "",
    "phone": "",
    "email": "",
    "website": "",
    "hours": "",
    "brand": "",
    "services": [
      "tires"
    ],
    "shopType": "tire_shop"
  },
  {
    "id": "shop-ny-unknown-goodyear-c-a-s-markham",
    "name": "GoodYear C.A.S. Markham",
    "slug": "ny-unknown-goodyear-c-a-s-markham",
    "lat": 43.8715118,
    "lng": -79.2654152,
    "state": "NY",
    "city": "",
    "address": "",
    "zip": "",
    "phone": "",
    "email": "",
    "website": "",
    "hours": "",
    "brand": "Goodyear",
    "services": [
      "tires"
    ],
    "shopType": "general_repair"
  },
  {
    "id": "shop-ny-unknown-midas-9",
    "name": "Midas",
    "slug": "ny-unknown-midas-9",
    "lat": 43.5567728,
    "lng": -79.5805888,
    "state": "NY",
    "city": "",
    "address": "",
    "zip": "",
    "phone": "",
    "email": "",
    "website": "www.midas.com",
    "hours": "",
    "brand": "Midas",
    "services": [
      "general_repair"
    ],
    "shopType": "general_repair"
  },
  {
    "id": "shop-ny-unknown-dl-action-auto-repair",
    "name": "DL Action Auto Repair",
    "slug": "ny-unknown-dl-action-auto-repair",
    "lat": 43.6941158,
    "lng": -79.6541761,
    "state": "NY",
    "city": "",
    "address": "",
    "zip": "",
    "phone": "",
    "email": "",
    "website": "",
    "hours": "",
    "brand": "",
    "services": [
      "general_repair"
    ],
    "shopType": "general_repair"
  },
  {
    "id": "shop-ny-unknown-ray-auto-glass",
    "name": "Ray Auto Glass",
    "slug": "ny-unknown-ray-auto-glass",
    "lat": 43.6928482,
    "lng": -79.6552661,
    "state": "NY",
    "city": "",
    "address": "",
    "zip": "",
    "phone": "",
    "email": "",
    "website": "",
    "hours": "",
    "brand": "",
    "services": [
      "general_repair"
    ],
    "shopType": "general_repair"
  },
  {
    "id": "shop-nj-unknown-central-collision",
    "name": "Central Collision",
    "slug": "nj-unknown-central-collision",
    "lat": 40.761003,
    "lng": -73.940267,
    "state": "NJ",
    "city": "",
    "address": "",
    "zip": "",
    "phone": "",
    "email": "",
    "website": "",
    "hours": "",
    "brand": "",
    "services": [
      "body_work"
    ],
    "shopType": "body_shop"
  },
  {
    "id": "shop-ny-unknown-carstar-auto-body-repair-and-collision-centre",
    "name": "Carstar Auto Body Repair and Collision Centre",
    "slug": "ny-unknown-carstar-auto-body-repair-and-collision-centre",
    "lat": 44.0827202,
    "lng": -79.1512235,
    "state": "NY",
    "city": "",
    "address": "",
    "zip": "",
    "phone": "",
    "email": "",
    "website": "",
    "hours": "",
    "brand": "",
    "services": [
      "body_work"
    ],
    "shopType": "body_shop"
  },
  {
    "id": "shop-ny-unknown-dynamic-transmissions",
    "name": "Dynamic Transmissions",
    "slug": "ny-unknown-dynamic-transmissions",
    "lat": 43.7189681,
    "lng": -79.5162615,
    "state": "NY",
    "city": "",
    "address": "",
    "zip": "",
    "phone": "",
    "email": "",
    "website": "",
    "hours": "",
    "brand": "",
    "services": [
      "transmission"
    ],
    "shopType": "transmission_shop"
  },
  {
    "id": "shop-ny-unknown-cansaf-auto",
    "name": "Cansaf Auto",
    "slug": "ny-unknown-cansaf-auto",
    "lat": 43.9299462,
    "lng": -78.8826371,
    "state": "NY",
    "city": "",
    "address": "",
    "zip": "",
    "phone": "",
    "email": "",
    "website": "",
    "hours": "",
    "brand": "",
    "services": [
      "general_repair"
    ],
    "shopType": "general_repair"
  },
  {
    "id": "shop-ny-unknown-don-butt-autobody-ltd",
    "name": "Don Butt Autobody Ltd",
    "slug": "ny-unknown-don-butt-autobody-ltd",
    "lat": 43.9304423,
    "lng": -78.8816822,
    "state": "NY",
    "city": "",
    "address": "",
    "zip": "",
    "phone": "",
    "email": "",
    "website": "",
    "hours": "",
    "brand": "",
    "services": [
      "body_work"
    ],
    "shopType": "body_shop"
  },
  {
    "id": "shop-ny-unknown-mike-adams",
    "name": "Mike Adams",
    "slug": "ny-unknown-mike-adams",
    "lat": 43.9868107,
    "lng": -78.725626,
    "state": "NY",
    "city": "",
    "address": "",
    "zip": "",
    "phone": "",
    "email": "",
    "website": "",
    "hours": "",
    "brand": "",
    "services": [
      "general_repair"
    ],
    "shopType": "general_repair"
  },
  {
    "id": "shop-ny-unknown-bridge-auto",
    "name": "Bridge Auto",
    "slug": "ny-unknown-bridge-auto",
    "lat": 43.8735614,
    "lng": -78.8375324,
    "state": "NY",
    "city": "",
    "address": "",
    "zip": "",
    "phone": "",
    "email": "",
    "website": "",
    "hours": "",
    "brand": "",
    "services": [
      "general_repair"
    ],
    "shopType": "general_repair"
  },
  {
    "id": "shop-ny-unknown-bailey-s-auto",
    "name": "Bailey's Auto",
    "slug": "ny-unknown-bailey-s-auto",
    "lat": 43.8734963,
    "lng": -78.8375098,
    "state": "NY",
    "city": "",
    "address": "",
    "zip": "",
    "phone": "",
    "email": "",
    "website": "",
    "hours": "",
    "brand": "",
    "services": [
      "general_repair"
    ],
    "shopType": "general_repair"
  },
  {
    "id": "shop-ny-unknown-bill-s-automotive",
    "name": "Bill's Automotive",
    "slug": "ny-unknown-bill-s-automotive",
    "lat": 43.9272048,
    "lng": -78.7850015,
    "state": "NY",
    "city": "",
    "address": "",
    "zip": "",
    "phone": "",
    "email": "",
    "website": "",
    "hours": "",
    "brand": "",
    "services": [
      "general_repair"
    ],
    "shopType": "general_repair"
  },
  {
    "id": "shop-ny-unknown-coventry-connections",
    "name": "Coventry Connections",
    "slug": "ny-unknown-coventry-connections",
    "lat": 43.9373049,
    "lng": -78.8627233,
    "state": "NY",
    "city": "",
    "address": "",
    "zip": "",
    "phone": "",
    "email": "",
    "website": "",
    "hours": "",
    "brand": "",
    "services": [
      "general_repair"
    ],
    "shopType": "general_repair"
  },
  {
    "id": "shop-ny-unknown-r-d-williams",
    "name": "R.D Williams",
    "slug": "ny-unknown-r-d-williams",
    "lat": 43.9373324,
    "lng": -78.8626287,
    "state": "NY",
    "city": "",
    "address": "",
    "zip": "",
    "phone": "",
    "email": "",
    "website": "",
    "hours": "",
    "brand": "",
    "services": [
      "general_repair"
    ],
    "shopType": "general_repair"
  },
  {
    "id": "shop-ny-unknown-lecala-auto",
    "name": "Lecala Auto",
    "slug": "ny-unknown-lecala-auto",
    "lat": 43.9082098,
    "lng": -78.8598198,
    "state": "NY",
    "city": "",
    "address": "",
    "zip": "",
    "phone": "",
    "email": "",
    "website": "",
    "hours": "",
    "brand": "",
    "services": [
      "general_repair"
    ],
    "shopType": "general_repair"
  },
  {
    "id": "shop-ny-unknown-complete-auto-service-centre",
    "name": "Complete Auto Service Centre",
    "slug": "ny-unknown-complete-auto-service-centre",
    "lat": 43.7194146,
    "lng": -79.2383057,
    "state": "NY",
    "city": "",
    "address": "",
    "zip": "",
    "phone": "",
    "email": "",
    "website": "",
    "hours": "",
    "brand": "",
    "services": [
      "general_repair"
    ],
    "shopType": "general_repair"
  },
  {
    "id": "shop-ny-unknown-hi-tech-auto",
    "name": "Hi-Tech Auto",
    "slug": "ny-unknown-hi-tech-auto",
    "lat": 43.7193921,
    "lng": -79.2383758,
    "state": "NY",
    "city": "",
    "address": "",
    "zip": "",
    "phone": "",
    "email": "",
    "website": "",
    "hours": "",
    "brand": "",
    "services": [
      "general_repair"
    ],
    "shopType": "general_repair"
  },
  {
    "id": "shop-ny-unknown-r-s-d-auto-sales-service",
    "name": "R.S.D. Auto Sales & Service",
    "slug": "ny-unknown-r-s-d-auto-sales-service",
    "lat": 43.7194534,
    "lng": -79.238259,
    "state": "NY",
    "city": "",
    "address": "",
    "zip": "",
    "phone": "+1-647-247-7547",
    "email": "",
    "website": "",
    "hours": "",
    "brand": "",
    "services": [
      "general_repair"
    ],
    "shopType": "general_repair"
  },
  {
    "id": "shop-ny-unknown-bridlewood-automotive",
    "name": "Bridlewood Automotive",
    "slug": "ny-unknown-bridlewood-automotive",
    "lat": 43.8840481,
    "lng": -78.9250465,
    "state": "NY",
    "city": "",
    "address": "",
    "zip": "",
    "phone": "",
    "email": "",
    "website": "",
    "hours": "",
    "brand": "",
    "services": [
      "general_repair"
    ],
    "shopType": "general_repair"
  },
  {
    "id": "shop-ny-unknown-canadian-tire-4",
    "name": "Canadian Tire",
    "slug": "ny-unknown-canadian-tire-4",
    "lat": 44.2628402,
    "lng": -76.500339,
    "state": "NY",
    "city": "",
    "address": "",
    "zip": "",
    "phone": "",
    "email": "",
    "website": "",
    "hours": "",
    "brand": "",
    "services": [
      "tires"
    ],
    "shopType": "tire_shop"
  },
  {
    "id": "shop-ny-unknown-goodyear-select",
    "name": "GoodYear Select",
    "slug": "ny-unknown-goodyear-select",
    "lat": 44.2586194,
    "lng": -76.5467787,
    "state": "NY",
    "city": "",
    "address": "",
    "zip": "",
    "phone": "",
    "email": "",
    "website": "",
    "hours": "",
    "brand": "Goodyear",
    "services": [
      "tires"
    ],
    "shopType": "general_repair"
  },
  {
    "id": "shop-ny-unknown-jiffy-auto-service",
    "name": "Jiffy Auto Service",
    "slug": "ny-unknown-jiffy-auto-service",
    "lat": 44.2586288,
    "lng": -76.5465598,
    "state": "NY",
    "city": "",
    "address": "",
    "zip": "",
    "phone": "",
    "email": "",
    "website": "",
    "hours": "",
    "brand": "",
    "services": [
      "oil_change"
    ],
    "shopType": "quick_lube"
  },
  {
    "id": "shop-ny-unknown-preferred-muffler-brake",
    "name": "Preferred Muffler & Brake",
    "slug": "ny-unknown-preferred-muffler-brake",
    "lat": 43.4427926,
    "lng": -79.6904321,
    "state": "NY",
    "city": "",
    "address": "",
    "zip": "",
    "phone": "",
    "email": "",
    "website": "",
    "hours": "",
    "brand": "",
    "services": [
      "exhaust",
      "brakes"
    ],
    "shopType": "general_repair"
  },
  {
    "id": "shop-ny-unknown-speedy-auto-service-3",
    "name": "Speedy Auto Service",
    "slug": "ny-unknown-speedy-auto-service-3",
    "lat": 43.9263901,
    "lng": -78.8767168,
    "state": "NY",
    "city": "",
    "address": "",
    "zip": "",
    "phone": "",
    "email": "",
    "website": "",
    "hours": "",
    "brand": "Speedy Auto Service",
    "services": [
      "general_repair"
    ],
    "shopType": "general_repair"
  },
  {
    "id": "shop-ny-unknown-collins-c-s-auto-parts-acdelco",
    "name": "Collins C&S Auto Parts/ACDelco",
    "slug": "ny-unknown-collins-c-s-auto-parts-acdelco",
    "lat": 43.8974129,
    "lng": -78.866151,
    "state": "NY",
    "city": "",
    "address": "",
    "zip": "",
    "phone": "",
    "email": "",
    "website": "",
    "hours": "",
    "brand": "",
    "services": [
      "general_repair"
    ],
    "shopType": "general_repair"
  },
  {
    "id": "shop-ny-unknown-meineke-car-care-centre-2",
    "name": "Meineke Car Care Centre",
    "slug": "ny-unknown-meineke-car-care-centre-2",
    "lat": 43.9379221,
    "lng": -79.0287855,
    "state": "NY",
    "city": "",
    "address": "",
    "zip": "",
    "phone": "",
    "email": "",
    "website": "",
    "hours": "",
    "brand": "Meineke",
    "services": [
      "exhaust"
    ],
    "shopType": "general_repair"
  },
  {
    "id": "shop-ny-unknown-mike-s-automotive",
    "name": "Mike's Automotive",
    "slug": "ny-unknown-mike-s-automotive",
    "lat": 43.8342919,
    "lng": -79.0325972,
    "state": "NY",
    "city": "",
    "address": "",
    "zip": "",
    "phone": "",
    "email": "",
    "website": "",
    "hours": "",
    "brand": "",
    "services": [
      "general_repair"
    ],
    "shopType": "general_repair"
  },
  {
    "id": "shop-ny-unknown-goodyear-select-2",
    "name": "Goodyear Select",
    "slug": "ny-unknown-goodyear-select-2",
    "lat": 43.7043394,
    "lng": -79.726075,
    "state": "NY",
    "city": "",
    "address": "",
    "zip": "",
    "phone": "",
    "email": "",
    "website": "",
    "hours": "",
    "brand": "Goodyear",
    "services": [
      "tires"
    ],
    "shopType": "general_repair"
  },
  {
    "id": "shop-ny-unknown-mister-transmission-4",
    "name": "Mister Transmission",
    "slug": "ny-unknown-mister-transmission-4",
    "lat": 43.8232331,
    "lng": -79.3504799,
    "state": "NY",
    "city": "",
    "address": "",
    "zip": "",
    "phone": "",
    "email": "",
    "website": "",
    "hours": "",
    "brand": "Mister Transmission",
    "services": [
      "transmission"
    ],
    "shopType": "transmission_shop"
  },
  {
    "id": "shop-ny-unknown-oshawa-collision-centre",
    "name": "Oshawa Collision Centre",
    "slug": "ny-unknown-oshawa-collision-centre",
    "lat": 43.8954713,
    "lng": -78.8601361,
    "state": "NY",
    "city": "",
    "address": "",
    "zip": "",
    "phone": "",
    "email": "",
    "website": "",
    "hours": "",
    "brand": "",
    "services": [
      "body_work"
    ],
    "shopType": "body_shop"
  },
  {
    "id": "shop-ny-unknown-meineke-car-care-centre-3",
    "name": "Meineke Car Care Centre",
    "slug": "ny-unknown-meineke-car-care-centre-3",
    "lat": 43.8994646,
    "lng": -78.8576356,
    "state": "NY",
    "city": "",
    "address": "",
    "zip": "",
    "phone": "",
    "email": "",
    "website": "",
    "hours": "",
    "brand": "Meineke",
    "services": [
      "exhaust"
    ],
    "shopType": "general_repair"
  },
  {
    "id": "shop-ny-unknown-kal-tire-2",
    "name": "Kal Tire",
    "slug": "ny-unknown-kal-tire-2",
    "lat": 43.613537,
    "lng": -79.6879257,
    "state": "NY",
    "city": "",
    "address": "5800 McLaughlin Road",
    "zip": "",
    "phone": "",
    "email": "",
    "website": "",
    "hours": "",
    "brand": "Kal Tire",
    "services": [
      "tires"
    ],
    "shopType": "tire_shop"
  },
  {
    "id": "shop-ny-unknown-mr-lube-12",
    "name": "Mr. Lube",
    "slug": "ny-unknown-mr-lube-12",
    "lat": 43.579853,
    "lng": -79.6504566,
    "state": "NY",
    "city": "",
    "address": "",
    "zip": "",
    "phone": "",
    "email": "",
    "website": "",
    "hours": "",
    "brand": "Mr. Lube",
    "services": [
      "oil_change"
    ],
    "shopType": "quick_lube"
  },
  {
    "id": "shop-ny-unknown-colalillo-automotive-tire-lube",
    "name": "Colalillo Automotive Tire & Lube",
    "slug": "ny-unknown-colalillo-automotive-tire-lube",
    "lat": 43.5804104,
    "lng": -79.6499662,
    "state": "NY",
    "city": "",
    "address": "",
    "zip": "",
    "phone": "",
    "email": "",
    "website": "https://colalilloautomotive.ca/",
    "hours": "",
    "brand": "",
    "services": [
      "tires",
      "oil_change"
    ],
    "shopType": "quick_lube"
  },
  {
    "id": "shop-ny-unknown-willy-s-tires-and-wheels",
    "name": "Willy’s Tires And Wheels",
    "slug": "ny-unknown-willy-s-tires-and-wheels",
    "lat": 43.6172174,
    "lng": -79.5747462,
    "state": "NY",
    "city": "",
    "address": "",
    "zip": "",
    "phone": "",
    "email": "",
    "website": "",
    "hours": "",
    "brand": "",
    "services": [
      "tires"
    ],
    "shopType": "tire_shop"
  },
  {
    "id": "shop-ny-unknown-1000-island-auto-centre",
    "name": "1000 Island Auto Centre",
    "slug": "ny-unknown-1000-island-auto-centre",
    "lat": 44.333136,
    "lng": -76.1575775,
    "state": "NY",
    "city": "",
    "address": "",
    "zip": "",
    "phone": "",
    "email": "",
    "website": "",
    "hours": "",
    "brand": "",
    "services": [
      "general_repair"
    ],
    "shopType": "general_repair"
  },
  {
    "id": "shop-ny-unknown-b-e-custom",
    "name": "B&E Custom",
    "slug": "ny-unknown-b-e-custom",
    "lat": 43.1461886,
    "lng": -79.7059821,
    "state": "NY",
    "city": "",
    "address": "",
    "zip": "",
    "phone": "",
    "email": "",
    "website": "",
    "hours": "",
    "brand": "",
    "services": [
      "general_repair"
    ],
    "shopType": "general_repair"
  },
  {
    "id": "shop-ny-unknown-master-mechanic-4",
    "name": "Master Mechanic",
    "slug": "ny-unknown-master-mechanic-4",
    "lat": 43.8860883,
    "lng": -79.4402275,
    "state": "NY",
    "city": "",
    "address": "",
    "zip": "",
    "phone": "",
    "email": "",
    "website": "",
    "hours": "",
    "brand": "Master Mechanic",
    "services": [
      "general_repair"
    ],
    "shopType": "general_repair"
  },
  {
    "id": "shop-ny-unknown-speedy-glass-2",
    "name": "Speedy Glass",
    "slug": "ny-unknown-speedy-glass-2",
    "lat": 43.8861833,
    "lng": -79.440255,
    "state": "NY",
    "city": "",
    "address": "",
    "zip": "",
    "phone": "",
    "email": "",
    "website": "",
    "hours": "",
    "brand": "Speedy Glass",
    "services": [
      "glass"
    ],
    "shopType": "general_repair"
  },
  {
    "id": "shop-me-unknown-garage-danny-beaulieu",
    "name": "Garage Danny Beaulieu",
    "slug": "me-unknown-garage-danny-beaulieu",
    "lat": 47.3518059,
    "lng": -68.2159285,
    "state": "ME",
    "city": "",
    "address": "5 Rue Maillet",
    "zip": "",
    "phone": "+1-506-263-8767",
    "email": "",
    "website": "https://www.garagedannybeaulieu.com/en/index.php",
    "hours": "",
    "brand": "",
    "services": [
      "general_repair"
    ],
    "shopType": "general_repair"
  },
  {
    "id": "shop-ny-unknown-frank-s-wexford-service-centers-ltd",
    "name": "Frank's Wexford Service Centers Ltd.",
    "slug": "ny-unknown-frank-s-wexford-service-centers-ltd",
    "lat": 44.0341661,
    "lng": -79.2969986,
    "state": "NY",
    "city": "",
    "address": "",
    "zip": "",
    "phone": "+1-905-640-1140",
    "email": "",
    "website": "",
    "hours": "",
    "brand": "",
    "services": [
      "general_repair"
    ],
    "shopType": "general_repair"
  },
  {
    "id": "shop-me-unknown-garage-daniel-bois-autopro",
    "name": "Garage Daniel Bois Autopro",
    "slug": "me-unknown-garage-daniel-bois-autopro",
    "lat": 47.3561335,
    "lng": -68.2281098,
    "state": "ME",
    "city": "",
    "address": "264 Rue Principale",
    "zip": "",
    "phone": "+1-506-263-5972",
    "email": "",
    "website": "http://www.garagedanielbois.com/",
    "hours": "",
    "brand": "",
    "services": [
      "general_repair"
    ],
    "shopType": "general_repair"
  },
  {
    "id": "shop-ny-unknown-reliable-car-connection",
    "name": "Reliable Car Connection",
    "slug": "ny-unknown-reliable-car-connection",
    "lat": 43.9765487,
    "lng": -79.6700774,
    "state": "NY",
    "city": "",
    "address": "",
    "zip": "",
    "phone": "",
    "email": "",
    "website": "",
    "hours": "",
    "brand": "",
    "services": [
      "general_repair"
    ],
    "shopType": "general_repair"
  },
  {
    "id": "shop-ny-unknown-stinston-automobile",
    "name": "Stinston Automobile",
    "slug": "ny-unknown-stinston-automobile",
    "lat": 43.6252849,
    "lng": -79.56787,
    "state": "NY",
    "city": "",
    "address": "",
    "zip": "",
    "phone": "+1-905-625-0740",
    "email": "",
    "website": "http://stinsonauto.ca/",
    "hours": "",
    "brand": "",
    "services": [
      "general_repair"
    ],
    "shopType": "general_repair"
  },
  {
    "id": "shop-ny-unknown-active-green-ross-10",
    "name": "Active Green + Ross",
    "slug": "ny-unknown-active-green-ross-10",
    "lat": 43.754125,
    "lng": -79.2664093,
    "state": "NY",
    "city": "",
    "address": "",
    "zip": "",
    "phone": "",
    "email": "",
    "website": "",
    "hours": "",
    "brand": "Active Green + Ross",
    "services": [
      "general_repair"
    ],
    "shopType": "general_repair"
  },
  {
    "id": "shop-ny-unknown-ok-tire-2",
    "name": "OK Tire",
    "slug": "ny-unknown-ok-tire-2",
    "lat": 43.8308509,
    "lng": -79.065841,
    "state": "NY",
    "city": "",
    "address": "",
    "zip": "",
    "phone": "",
    "email": "",
    "website": "",
    "hours": "",
    "brand": "OK Tire",
    "services": [
      "tires"
    ],
    "shopType": "tire_shop"
  },
  {
    "id": "shop-ny-unknown-bero-motors",
    "name": "Bero Motors",
    "slug": "ny-unknown-bero-motors",
    "lat": 43.6259337,
    "lng": -79.5283153,
    "state": "NY",
    "city": "",
    "address": "",
    "zip": "",
    "phone": "",
    "email": "",
    "website": "https://beromotors.com/",
    "hours": "",
    "brand": "",
    "services": [
      "general_repair"
    ],
    "shopType": "general_repair"
  },
  {
    "id": "shop-ny-unknown-active-green-ross-11",
    "name": "Active Green + Ross",
    "slug": "ny-unknown-active-green-ross-11",
    "lat": 43.7125371,
    "lng": -79.5649068,
    "state": "NY",
    "city": "",
    "address": "",
    "zip": "",
    "phone": "",
    "email": "",
    "website": "",
    "hours": "",
    "brand": "Active Green + Ross",
    "services": [
      "general_repair"
    ],
    "shopType": "general_repair"
  },
  {
    "id": "shop-ny-unknown-protune-lube-tire",
    "name": "Protune Lube & Tire",
    "slug": "ny-unknown-protune-lube-tire",
    "lat": 43.6004417,
    "lng": -79.531605,
    "state": "NY",
    "city": "",
    "address": "",
    "zip": "",
    "phone": "+1-416-626-8863",
    "email": "",
    "website": "",
    "hours": "",
    "brand": "",
    "services": [
      "tires",
      "oil_change"
    ],
    "shopType": "quick_lube"
  },
  {
    "id": "shop-ny-unknown-mister-transmission-5",
    "name": "Mister Transmission",
    "slug": "ny-unknown-mister-transmission-5",
    "lat": 44.3665565,
    "lng": -79.6954937,
    "state": "NY",
    "city": "",
    "address": "",
    "zip": "",
    "phone": "",
    "email": "",
    "website": "",
    "hours": "",
    "brand": "Mister Transmission",
    "services": [
      "transmission"
    ],
    "shopType": "transmission_shop"
  },
  {
    "id": "shop-wv-unknown-martin-tire-service",
    "name": "Martin Tire & Service",
    "slug": "wv-unknown-martin-tire-service",
    "lat": 40.5035519,
    "lng": -79.9488124,
    "state": "WV",
    "city": "",
    "address": "",
    "zip": "",
    "phone": "",
    "email": "",
    "website": "",
    "hours": "",
    "brand": "",
    "services": [
      "tires"
    ],
    "shopType": "tire_shop"
  },
  {
    "id": "shop-ny-unknown-mr-lube-13",
    "name": "Mr. Lube",
    "slug": "ny-unknown-mr-lube-13",
    "lat": 43.785697,
    "lng": -79.6262264,
    "state": "NY",
    "city": "",
    "address": "",
    "zip": "",
    "phone": "",
    "email": "",
    "website": "",
    "hours": "",
    "brand": "Mr. Lube",
    "services": [
      "oil_change"
    ],
    "shopType": "quick_lube"
  },
  {
    "id": "shop-ny-unknown-midas-10",
    "name": "Midas",
    "slug": "ny-unknown-midas-10",
    "lat": 43.7232779,
    "lng": -79.7180352,
    "state": "NY",
    "city": "",
    "address": "",
    "zip": "",
    "phone": "",
    "email": "",
    "website": "",
    "hours": "",
    "brand": "Midas",
    "services": [
      "general_repair"
    ],
    "shopType": "general_repair"
  },